Vers 57
USE_SERIAL_FEEDBACK=false
DEVELOPMENT_MODE=false
USE_RMC_ONLY=false

$GPRMC,142955.200,A,4308.3049,N,07726.2631,W,0.13,87.23,220319,,,A*44
$GPGGA,142955.400,4308.3048,N,07726.2629,W,1,04,2.13,156.6,M,-34.4,M,,*51
lng=-77.437721, lat=43.138412, altitude=156.40, speed=0.13, satellites=4, angle=87.2300, fixquality=1
$GPRMC,142955.600,A,4308.3048,N,07726.2628,W,0.17,242.32,220319,,,A*76
$GPGGA,142955.800,4308.3047,N,07726.2627,W,1,04,2.13,156.7,M,-34.4,M,,*5D
lng=-77.437713, lat=43.138412, altitude=156.60, speed=0.17, satellites=4, angle=242.3200, fixquality=1
$GPRMC,142956.000,A,4308.3047,N,07726.2626,W,0.15,239.58,220319,,,A*70
$GPGGA,142956.200,4308.3047,N,07726.2627,W,1,04,2.13,156.4,M,-34.4,M,,*57
lng=-77.437713, lat=43.138412, altitude=156.70, speed=0.15, satellites=4, angle=239.5800, fixquality=1
$GPRMC,142956.400,A,4308.3047,N,07726.2628,W,0.27,259.89,220319,,,A*71
$GPGGA,142956.600,4308.3047,N,07726.2628,W,1,04,2.13,156.0,M,-34.4,M,,*58
lng=-77.437713, lat=43.138412, altitude=156.40, speed=0.27, satellites=4, angle=259.8900, fixquality=1
$GPRMC,142956.800,A,4308.3047,N,07726.2627,W,0.18,255.50,220319,,,A*76
$GPGGA,142957.000,4308.3046,N,07726.2628,W,1,04,2.13,155.5,M,-34.4,M,,*58
lng=-77.437713, lat=43.138412, altitude=156.00, speed=0.18, satellites=4, angle=255.5000, fixquality=1
$GPRMC,142957.200,A,4308.3046,N,07726.2628,W,0.18,252.92,220319,,,A*7A
$GPGGA,142957.400,4308.3045,N,07726.2628,W,1,04,2.13,155.1,M,-34.4,M,,*5B
lng=-77.437713, lat=43.138412, altitude=155.50, speed=0.18, satellites=4, angle=252.9200, fixquality=1
$GPRMC,142957.600,A,4308.3045,N,07726.2629,W,0.19,212.80,220319,,,A*7A
$GPGGA,142957.800,4308.3045,N,07726.2629,W,1,04,2.13,154.7,M,-34.4,M,,*51
lng=-77.437713, lat=43.138412, altitude=155.10, speed=0.19, satellites=4, angle=212.8000, fixquality=1
$GPRMC,142958.000,A,4308.3045,N,07726.2630,W,0.19,226.54,220319,,,A*75
$GPGGA,142958.200,4308.3044,N,07726.2631,W,1,04,2.13,154.3,M,-34.4,M,,*58
lng=-77.437721, lat=43.138412, altitude=154.70, speed=0.19, satellites=4, angle=226.5400, fixquality=1
$GPRMC,142958.400,A,4308.3044,N,07726.2632,W,0.11,223.98,220319,,,A*7F
$GPGGA,142958.600,4308.3044,N,07726.2632,W,1,04,2.13,153.9,M,-34.4,M,,*52
lng=-77.437721, lat=43.138404, altitude=154.30, speed=0.11, satellites=4, angle=223.9800, fixquality=1
$GPRMC,142958.800,A,4308.3044,N,07726.2633,W,0.09,231.20,220319,,,A*7B
$GPGGA,142959.000,4308.3043,N,07726.2634,W,1,04,2.13,153.6,M,-34.4,M,,*5B
lng=-77.437721, lat=43.138404, altitude=153.90, speed=0.09, satellites=4, angle=231.2000, fixquality=1
$GPRMC,142959.200,A,4308.3043,N,07726.2634,W,0.06,224.26,220319,,,A*7D
$GPGGA,142959.400,4308.3043,N,07726.2634,W,1,04,2.13,153.5,M,-34.4,M,,*5C
lng=-77.437721, lat=43.138404, altitude=153.60, speed=0.06, satellites=4, angle=224.2600, fixquality=1
$GPRMC,142959.600,A,4308.3043,N,07726.2634,W,0.06,232.51,220319,,,A*7E
$GPGGA,142959.800,4308.3043,N,07726.2635,W,1,04,2.13,153.3,M,-34.4,M,,*57
lng=-77.437721, lat=43.138404, altitude=153.50, speed=0.06, satellites=4, angle=232.5100, fixquality=1
$GPRMC,143000.000,A,4308.3043,N,07726.2635,W,0.06,227.36,220319,,,A*78
$GPGGA,143000.200,4308.3041,N,07726.2631,W,1,08,1.11,153.3,M,-34.4,M,,*52
lng=-77.437728, lat=43.138404, altitude=153.30, speed=0.06, satellites=4, angle=227.3600, fixquality=1
$GPRMC,143000.400,A,4308.3040,N,07726.2629,W,0.04,95.72,220319,,,A*4B
$GPGGA,143000.600,4308.3038,N,07726.2629,W,1,08,1.11,152.8,M,-34.4,M,,*5B
lng=-77.437713, lat=43.138404, altitude=153.30, speed=0.04, satellites=8, angle=95.7200, fixquality=1
$GPRMC,143000.800,A,4308.3037,N,07726.2629,W,0.03,152.43,220319,,,A*78
$GPGGA,143001.000,4308.3037,N,07726.2628,W,1,08,1.11,152.3,M,-34.4,M,,*59
lng=-77.437713, lat=43.138393, altitude=152.80, speed=0.03, satellites=8, angle=152.4300, fixquality=1
$GPRMC,143001.200,A,4308.3036,N,07726.2628,W,0.03,107.71,220319,,,A*72
$GPGGA,143001.400,4308.3036,N,07726.2629,W,1,08,1.11,152.0,M,-34.4,M,,*5E
lng=-77.437713, lat=43.138393, altitude=152.30, speed=0.03, satellites=8, angle=107.7100, fixquality=1
$GPRMC,143001.600,A,4308.3035,N,07726.2629,W,0.01,36.64,220319,,,A*41
$GPGGA,143001.800,4308.3035,N,07726.2629,W,1,08,1.11,151.6,M,-34.4,M,,*54
lng=-77.437713, lat=43.138393, altitude=152.00, speed=0.01, satellites=8, angle=36.6400, fixquality=1
$GPRMC,143002.000,A,4308.3035,N,07726.2629,W,0.01,68.01,220319,,,A*4C
$GPGGA,143002.200,4308.3034,N,07726.2628,W,1,08,1.11,151.3,M,-34.4,M,,*58
lng=-77.437713, lat=43.138393, altitude=151.60, speed=0.01, satellites=8, angle=68.0100, fixquality=1
$GPRMC,143002.400,A,4308.3034,N,07726.2628,W,0.01,238.25,220319,,,A*79
$GPGGA,143002.600,4308.3033,N,07726.2628,W,1,08,1.11,151.1,M,-34.4,M,,*59
lng=-77.437713, lat=43.138385, altitude=151.30, speed=0.01, satellites=8, angle=238.2500, fixquality=1
$GPRMC,143002.800,A,4308.3033,N,07726.2628,W,0.02,14.43,220319,,,A*4D
$GPGGA,143003.000,4308.3033,N,07726.2627,W,1,08,1.13,150.9,M,-34.4,M,,*5A
lng=-77.437713, lat=43.138385, altitude=151.10, speed=0.02, satellites=8, angle=14.4300, fixquality=1
$GPRMC,143003.200,A,4308.3033,N,07726.2627,W,0.02,230.94,220319,,,A*77
$GPGGA,143003.400,4308.3032,N,07726.2626,W,1,08,1.11,150.9,M,-34.4,M,,*5C
lng=-77.437713, lat=43.138385, altitude=150.90, speed=0.02, satellites=8, angle=230.9400, fixquality=1
$GPRMC,143003.600,A,4308.3032,N,07726.2626,W,0.03,136.46,220319,,,A*78
$GPGGA,143003.800,4308.3032,N,07726.2626,W,1,08,1.11,150.9,M,-34.4,M,,*50
lng=-77.437713, lat=43.138385, altitude=150.90, speed=0.03, satellites=8, angle=136.4600, fixquality=1
$GPRMC,143004.000,A,4308.3032,N,07726.2625,W,0.02,108.03,220319,,,A*77
$GPGGA,143004.200,4308.3032,N,07726.2625,W,1,08,1.11,150.8,M,-34.4,M,,*5F
lng=-77.437713, lat=43.138385, altitude=150.90, speed=0.02, satellites=8, angle=108.0300, fixquality=1
$GPRMC,143004.400,A,4308.3032,N,07726.2625,W,0.03,128.42,220319,,,A*75
$GPGGA,143004.600,4308.3031,N,07726.2625,W,1,08,1.11,150.8,M,-34.4,M,,*58
lng=-77.437713, lat=43.138385, altitude=150.80, speed=0.03, satellites=8, angle=128.4200, fixquality=1
$GPRMC,143004.800,A,4308.3031,N,07726.2625,W,0.04,26.97,220319,,,A*4A
$GPGGA,143005.000,4308.3031,N,07726.2625,W,1,08,1.11,150.7,M,-34.4,M,,*50
lng=-77.437713, lat=43.138385, altitude=150.80, speed=0.04, satellites=8, angle=26.9700, fixquality=1
$GPRMC,143005.200,A,4308.3031,N,07726.2625,W,0.02,321.72,220319,,,A*78
$GPGGA,143005.400,4308.3031,N,07726.2625,W,1,08,1.11,150.6,M,-34.4,M,,*55
lng=-77.437713, lat=43.138385, altitude=150.70, speed=0.02, satellites=8, angle=321.7200, fixquality=1
$GPRMC,143005.600,A,4308.3030,N,07726.2625,W,0.01,359.70,220319,,,A*73
$GPGGA,143005.800,4308.3030,N,07726.2625,W,1,08,1.13,150.5,M,-34.4,M,,*59
lng=-77.437713, lat=43.138385, altitude=150.60, speed=0.01, satellites=8, angle=359.7000, fixquality=1
$GPRMC,143006.000,A,4308.3030,N,07726.2625,W,0.03,306.23,220319,,,A*78
$GPGGA,143006.200,4308.3030,N,07726.2625,W,1,08,1.11,150.5,M,-34.4,M,,*52
lng=-77.437713, lat=43.138385, altitude=150.50, speed=0.03, satellites=8, angle=306.2300, fixquality=1
$GPRMC,143006.400,A,4308.3030,N,07726.2625,W,0.01,349.37,220319,,,A*70
$GPGGA,143006.600,4308.3030,N,07726.2625,W,1,08,1.13,150.4,M,-34.4,M,,*55
lng=-77.437713, lat=43.138385, altitude=150.50, speed=0.01, satellites=8, angle=349.3700, fixquality=1
$GPRMC,143006.800,A,4308.3030,N,07726.2625,W,0.01,18.90,220319,,,A*46
$GPGGA,143007.000,4308.3030,N,07726.2625,W,1,08,1.11,150.4,M,-34.4,M,,*50
lng=-77.437713, lat=43.138385, altitude=150.40, speed=0.01, satellites=8, angle=18.9000, fixquality=1
$GPRMC,143007.200,A,4308.3029,N,07726.2625,W,0.04,128.50,220319,,,A*7E
$GPGGA,143007.400,4308.3029,N,07726.2626,W,1,08,1.11,150.2,M,-34.4,M,,*59
lng=-77.437713, lat=43.138378, altitude=150.40, speed=0.04, satellites=8, angle=128.5000, fixquality=1
$GPRMC,143007.600,A,4308.3029,N,07726.2626,W,0.01,115.27,220319,,,A*72
$GPGGA,143007.800,4308.3029,N,07726.2626,W,1,08,1.11,150.2,M,-34.4,M,,*55
lng=-77.437713, lat=43.138378, altitude=150.20, speed=0.01, satellites=8, angle=115.2700, fixquality=1
$GPRMC,143008.000,A,4308.3029,N,07726.2626,W,0.01,162.18,220319,,,A*77
$GPGGA,143008.200,4308.3029,N,07726.2626,W,1,08,1.11,150.0,M,-34.4,M,,*52
lng=-77.437713, lat=43.138378, altitude=150.20, speed=0.01, satellites=8, angle=162.1800, fixquality=1
$GPRMC,143008.400,A,4308.3029,N,07726.2626,W,0.01,235.67,220319,,,A*7A
$GPGGA,143008.600,4308.3029,N,07726.2627,W,1,08,1.11,149.9,M,-34.4,M,,*56
lng=-77.437713, lat=43.138378, altitude=150.00, speed=0.01, satellites=8, angle=235.6700, fixquality=1
$GPRMC,143008.800,A,4308.3029,N,07726.2627,W,0.02,330.50,220319,,,A*74
$GPGGA,143009.000,4308.3029,N,07726.2627,W,1,08,1.11,149.8,M,-34.4,M,,*50
lng=-77.437713, lat=43.138378, altitude=149.90, speed=0.02, satellites=8, angle=330.5000, fixquality=1
$GPRMC,143009.200,A,4308.3029,N,07726.2628,W,0.01,309.36,220319,,,A*79
$GPGGA,143009.400,4308.3029,N,07726.2628,W,1,08,1.11,149.6,M,-34.4,M,,*55
lng=-77.437713, lat=43.138378, altitude=149.80, speed=0.01, satellites=8, angle=309.3600, fixquality=1
$GPRMC,143009.600,A,4308.3029,N,07726.2629,W,0.02,238.29,220319,,,A*72
$GPGGA,143009.800,4308.3029,N,07726.2629,W,1,08,1.11,149.5,M,-34.4,M,,*5B
lng=-77.437713, lat=43.138378, altitude=149.60, speed=0.02, satellites=8, angle=238.2900, fixquality=1
$GPRMC,143010.000,A,4308.3029,N,07726.2629,W,0.03,225.26,220319,,,A*7E
$GPGGA,143010.200,4308.3029,N,07726.2630,W,1,08,1.11,149.4,M,-34.4,M,,*50
lng=-77.437713, lat=43.138378, altitude=149.50, speed=0.03, satellites=8, angle=225.2600, fixquality=1
$GPRMC,143010.400,A,4308.3028,N,07726.2630,W,0.05,57.94,220319,,,A*4B
$GPGGA,143010.600,4308.3028,N,07726.2631,W,1,08,1.11,149.2,M,-34.4,M,,*52
lng=-77.437721, lat=43.138378, altitude=149.40, speed=0.05, satellites=8, angle=57.9400, fixquality=1
$GPRMC,143010.800,A,4308.3028,N,07726.2631,W,0.01,265.87,220319,,,A*73
$GPGGA,143011.000,4308.3028,N,07726.2631,W,1,08,1.11,149.1,M,-34.4,M,,*56
lng=-77.437721, lat=43.138378, altitude=149.20, speed=0.01, satellites=8, angle=265.8700, fixquality=1
$GPRMC,143011.200,A,4308.3028,N,07726.2632,W,0.04,278.72,220319,,,A*78
$GPGGA,143011.400,4308.3028,N,07726.2632,W,1,08,1.11,148.9,M,-34.4,M,,*58
lng=-77.437721, lat=43.138378, altitude=149.10, speed=0.04, satellites=8, angle=278.7200, fixquality=1
$GPRMC,143011.600,A,4308.3028,N,07726.2632,W,0.02,172.04,220319,,,A*72
$GPGGA,143011.800,4308.3028,N,07726.2633,W,1,08,1.11,148.9,M,-34.4,M,,*55
lng=-77.437721, lat=43.138378, altitude=148.90, speed=0.02, satellites=8, angle=172.0400, fixquality=1
$GPRMC,143012.000,A,4308.3028,N,07726.2633,W,0.02,97.52,220319,,,A*4F
$GPGGA,143012.200,4308.3028,N,07726.2633,W,1,08,1.11,148.7,M,-34.4,M,,*52
lng=-77.437721, lat=43.138378, altitude=148.90, speed=0.02, satellites=8, angle=97.5200, fixquality=1
$GPRMC,143012.400,A,4308.3028,N,07726.2633,W,0.03,19.95,220319,,,A*47
$GPGGA,143012.600,4308.3027,N,07726.2634,W,1,08,1.11,148.6,M,-34.4,M,,*5F
lng=-77.437721, lat=43.138378, altitude=148.70, speed=0.03, satellites=8, angle=19.9500, fixquality=1
$GPRMC,143012.800,A,4308.3027,N,07726.2634,W,0.01,331.64,220319,,,A*76
$GPGGA,143013.000,4308.3027,N,07726.2634,W,1,08,1.11,148.4,M,-34.4,M,,*5A
lng=-77.437721, lat=43.138378, altitude=148.60, speed=0.01, satellites=8, angle=331.6400, fixquality=1
$GPRMC,143013.200,A,4308.3027,N,07726.2634,W,0.07,298.77,220319,,,A*7B
$GPGGA,143013.400,4308.3027,N,07726.2635,W,1,08,1.11,148.3,M,-34.4,M,,*58
lng=-77.437721, lat=43.138378, altitude=148.40, speed=0.07, satellites=8, angle=298.7700, fixquality=1
$GPRMC,143013.600,A,4308.3027,N,07726.2635,W,0.05,280.91,220319,,,A*7D
$GPGGA,143013.800,4308.3027,N,07726.2635,W,1,08,1.11,148.2,M,-34.4,M,,*55
lng=-77.437728, lat=43.138378, altitude=148.30, speed=0.05, satellites=8, angle=280.9100, fixquality=1
$GPRMC,143014.000,A,4308.3027,N,07726.2635,W,0.02,356.45,220319,,,A*78
$GPGGA,143014.200,4308.3027,N,07726.2636,W,1,08,1.13,148.1,M,-34.4,M,,*5A
lng=-77.437728, lat=43.138378, altitude=148.20, speed=0.02, satellites=8, angle=356.4500, fixquality=1
$GPRMC,143014.400,A,4308.3027,N,07726.2636,W,0.02,268.40,220319,,,A*76
$GPGGA,143014.600,4308.3026,N,07726.2636,W,1,08,1.11,147.9,M,-34.4,M,,*5A
lng=-77.437728, lat=43.138378, altitude=148.10, speed=0.02, satellites=8, angle=268.4000, fixquality=1
$GPRMC,143014.800,A,4308.3026,N,07726.2636,W,0.03,259.11,220319,,,A*7C
$GPGGA,143015.000,4308.3026,N,07726.2636,W,1,08,1.11,147.9,M,-34.4,M,,*5D
lng=-77.437728, lat=43.138378, altitude=147.90, speed=0.03, satellites=8, angle=259.1100, fixquality=1
$GPRMC,143015.200,A,4308.3026,N,07726.2637,W,0.02,337.13,220319,,,A*7C
$GPGGA,143015.400,4308.3026,N,07726.2637,W,1,08,1.11,147.8,M,-34.4,M,,*59
lng=-77.437728, lat=43.138378, altitude=147.90, speed=0.02, satellites=8, angle=337.1300, fixquality=1
$GPRMC,143015.600,A,4308.3026,N,07726.2637,W,0.02,357.75,220319,,,A*7E
$GPGGA,143015.800,4308.3026,N,07726.2637,W,1,08,1.13,147.8,M,-34.4,M,,*57
lng=-77.437728, lat=43.138378, altitude=147.80, speed=0.02, satellites=8, angle=357.7500, fixquality=1
$GPRMC,143016.000,A,4308.3026,N,07726.2637,W,0.02,119.63,220319,,,A*74
$GPGGA,143016.200,4308.3026,N,07726.2637,W,1,08,1.11,147.7,M,-34.4,M,,*53
lng=-77.437728, lat=43.138378, altitude=147.80, speed=0.02, satellites=8, angle=119.6300, fixquality=1
$GPRMC,143016.400,A,4308.3026,N,07726.2637,W,0.03,18.36,220319,,,A*41
$GPGGA,143016.600,4308.3026,N,07726.2637,W,1,08,1.11,147.6,M,-34.4,M,,*56
lng=-77.437728, lat=43.138378, altitude=147.70, speed=0.03, satellites=8, angle=18.3600, fixquality=1
$GPRMC,143016.800,A,4308.3026,N,07726.2637,W,0.01,347.94,220319,,,A*7E
$GPGGA,143017.000,4308.3026,N,07726.2637,W,1,08,1.13,147.6,M,-34.4,M,,*53
lng=-77.437728, lat=43.138378, altitude=147.60, speed=0.01, satellites=8, angle=347.9400, fixquality=1
$GPRMC,143017.200,A,4308.3026,N,07726.2637,W,0.03,196.18,220319,,,A*7D
$GPGGA,143017.400,4308.3026,N,07726.2637,W,1,08,1.11,147.5,M,-34.4,M,,*56
lng=-77.437728, lat=43.138378, altitude=147.60, speed=0.03, satellites=8, angle=196.1800, fixquality=1
$GPRMC,143017.600,A,4308.3026,N,07726.2637,W,0.01,33.74,220319,,,A*4F
$GPGGA,143017.800,4308.3026,N,07726.2636,W,1,08,1.11,147.6,M,-34.4,M,,*58
lng=-77.437728, lat=43.138378, altitude=147.50, speed=0.01, satellites=8, angle=33.7400, fixquality=1
$GPRMC,143018.000,A,4308.3026,N,07726.2637,W,0.00,45.57,220319,,,A*47
$GPGGA,143018.200,4308.3026,N,07726.2636,W,1,08,1.11,147.6,M,-34.4,M,,*5D
lng=-77.437728, lat=43.138378, altitude=147.60, speed=0.00, satellites=8, angle=45.5700, fixquality=1
$GPRMC,143018.400,A,4308.3026,N,07726.2636,W,0.01,356.61,220319,,,A*77
$GPGGA,143018.600,4308.3026,N,07726.2636,W,1,08,1.13,147.5,M,-34.4,M,,*58
lng=-77.437728, lat=43.138378, altitude=147.60, speed=0.01, satellites=8, angle=356.6100, fixquality=1
$GPRMC,143018.800,A,4308.3026,N,07726.2636,W,0.08,296.76,220319,,,A*79
$GPGGA,143019.000,4308.3025,N,07726.2636,W,1,08,1.11,147.4,M,-34.4,M,,*5F
lng=-77.437728, lat=43.138378, altitude=147.50, speed=0.08, satellites=8, angle=296.7600, fixquality=1
$GPRMC,143019.200,A,4308.3025,N,07726.2636,W,0.03,234.38,220319,,,A*78
$GPGGA,143019.400,4308.3025,N,07726.2636,W,1,08,1.11,147.4,M,-34.4,M,,*5B
lng=-77.437728, lat=43.138378, altitude=147.40, speed=0.03, satellites=8, angle=234.3800, fixquality=1
$GPRMC,143019.600,A,4308.3025,N,07726.2636,W,0.02,121.14,220319,,,A*74
$GPGGA,143019.800,4308.3025,N,07726.2636,W,1,08,1.11,147.3,M,-34.4,M,,*50
lng=-77.437728, lat=43.138378, altitude=147.40, speed=0.02, satellites=8, angle=121.1400, fixquality=1
$GPRMC,143020.000,A,4308.3025,N,07726.2635,W,0.01,232.55,220319,,,A*7C
$GPGGA,143020.200,4308.3025,N,07726.2635,W,1,08,1.11,147.2,M,-34.4,M,,*52
lng=-77.437728, lat=43.138378, altitude=147.30, speed=0.01, satellites=8, angle=232.5500, fixquality=1
$GPRMC,143020.400,A,4308.3025,N,07726.2635,W,0.05,3.56,220319,,,A*7F
$GPGGA,143020.600,4308.3025,N,07726.2635,W,1,08,1.13,147.2,M,-34.4,M,,*54
lng=-77.437728, lat=43.138378, altitude=147.20, speed=0.05, satellites=8, angle=3.5600, fixquality=1
$GPRMC,143020.800,A,4308.3025,N,07726.2635,W,0.01,294.35,220319,,,A*7E
$GPGGA,143021.000,4308.3025,N,07726.2635,W,1,08,1.11,147.2,M,-34.4,M,,*51
lng=-77.437728, lat=43.138378, altitude=147.20, speed=0.01, satellites=8, angle=294.3500, fixquality=1
$GPRMC,143021.200,A,4308.3025,N,07726.2634,W,0.02,34.40,220319,,,A*4D
$GPGGA,143021.400,4308.3025,N,07726.2634,W,1,08,1.11,147.2,M,-34.4,M,,*54
lng=-77.437721, lat=43.138378, altitude=147.20, speed=0.02, satellites=8, angle=34.4000, fixquality=1
$GPRMC,143021.600,A,4308.3024,N,07726.2634,W,0.03,294.76,220319,,,A*74
$GPGGA,143021.800,4308.3025,N,07726.2634,W,1,08,1.11,147.2,M,-34.4,M,,*58
lng=-77.437721, lat=43.138370, altitude=147.20, speed=0.03, satellites=8, angle=294.7600, fixquality=1
$GPRMC,143022.000,A,4308.3025,N,07726.2634,W,0.05,57.27,220319,,,A*4F
$GPGGA,143022.200,4308.3025,N,07726.2634,W,1,08,1.11,147.2,M,-34.4,M,,*51
lng=-77.437721, lat=43.138378, altitude=147.20, speed=0.05, satellites=8, angle=57.2700, fixquality=1
$GPRMC,143022.400,A,4308.3025,N,07726.2633,W,0.01,4.58,220319,,,A*76
$GPGGA,143022.600,4308.3024,N,07726.2633,W,1,08,1.13,147.2,M,-34.4,M,,*51
lng=-77.437721, lat=43.138378, altitude=147.20, speed=0.01, satellites=8, angle=4.5800, fixquality=1
$GPRMC,143022.800,A,4308.3025,N,07726.2633,W,0.01,113.80,220319,,,A*78
$GPGGA,143023.000,4308.3025,N,07726.2633,W,1,08,1.11,147.3,M,-34.4,M,,*54
lng=-77.437721, lat=43.138378, altitude=147.20, speed=0.01, satellites=8, angle=113.8000, fixquality=1
$GPRMC,143023.200,A,4308.3025,N,07726.2633,W,0.02,326.43,220319,,,A*7B
$GPGGA,143023.400,4308.3025,N,07726.2632,W,1,08,1.11,147.3,M,-34.4,M,,*51
lng=-77.437721, lat=43.138378, altitude=147.30, speed=0.02, satellites=8, angle=326.4300, fixquality=1
$GPRMC,143023.600,A,4308.3025,N,07726.2632,W,0.01,146.20,220319,,,A*7C
$GPGGA,143023.800,4308.3025,N,07726.2632,W,1,08,1.11,147.4,M,-34.4,M,,*5A
lng=-77.437721, lat=43.138378, altitude=147.30, speed=0.01, satellites=8, angle=146.2000, fixquality=1
$GPRMC,143024.000,A,4308.3025,N,07726.2632,W,0.05,313.97,220319,,,A*77
$GPGGA,143024.200,4308.3025,N,07726.2632,W,1,08,1.11,147.4,M,-34.4,M,,*57
lng=-77.437721, lat=43.138378, altitude=147.40, speed=0.05, satellites=8, angle=313.9700, fixquality=1
$GPRMC,143024.400,A,4308.3025,N,07726.2632,W,0.01,295.60,220319,,,A*70
$GPGGA,143024.600,4308.3025,N,07726.2631,W,1,08,1.11,147.4,M,-34.4,M,,*50
lng=-77.437721, lat=43.138378, altitude=147.40, speed=0.01, satellites=8, angle=295.6000, fixquality=1
$GPRMC,143024.800,A,4308.3025,N,07726.2631,W,0.01,99.28,220319,,,A*4D
$GPGGA,143025.000,4308.3025,N,07726.2631,W,1,08,1.11,147.5,M,-34.4,M,,*56
lng=-77.437721, lat=43.138378, altitude=147.40, speed=0.01, satellites=8, angle=99.2800, fixquality=1
$GPRMC,143025.200,A,4308.3025,N,07726.2631,W,0.04,98.08,220319,,,A*40
$GPGGA,143025.400,4308.3025,N,07726.2631,W,1,08,1.11,147.5,M,-34.4,M,,*52
lng=-77.437721, lat=43.138378, altitude=147.50, speed=0.04, satellites=8, angle=98.0800, fixquality=1
$GPRMC,143025.600,A,4308.3025,N,07726.2631,W,0.02,19.71,220319,,,A*45
$GPGGA,143025.800,4308.3025,N,07726.2630,W,1,08,1.11,147.5,M,-34.4,M,,*5F
lng=-77.437721, lat=43.138378, altitude=147.50, speed=0.02, satellites=8, angle=19.7100, fixquality=1
$GPRMC,143026.000,A,4308.3025,N,07726.2630,W,0.01,258.44,220319,,,A*73
$GPGGA,143026.200,4308.3025,N,07726.2630,W,1,08,1.11,147.6,M,-34.4,M,,*55
lng=-77.437721, lat=43.138378, altitude=147.50, speed=0.01, satellites=8, angle=258.4400, fixquality=1
$GPRMC,143026.400,A,4308.3025,N,07726.2630,W,0.01,316.10,220319,,,A*7D
$GPGGA,143026.600,4308.3025,N,07726.2630,W,1,08,1.11,147.6,M,-34.4,M,,*51
lng=-77.437721, lat=43.138378, altitude=147.60, speed=0.01, satellites=8, angle=316.1000, fixquality=1
$GPRMC,143026.800,A,4308.3025,N,07726.2629,W,0.01,27.31,220319,,,A*4B
$GPGGA,143027.000,4308.3025,N,07726.2629,W,1,08,1.11,147.7,M,-34.4,M,,*5F
lng=-77.437713, lat=43.138378, altitude=147.60, speed=0.01, satellites=8, angle=27.3100, fixquality=1
$GPRMC,143027.200,A,4308.3025,N,07726.2629,W,0.02,275.73,220319,,,A*70
$GPGGA,143027.400,4308.3025,N,07726.2628,W,1,08,1.11,147.7,M,-34.4,M,,*5A
lng=-77.437713, lat=43.138378, altitude=147.70, speed=0.02, satellites=8, angle=275.7300, fixquality=1
$GPRMC,143027.600,A,4308.3025,N,07726.2628,W,0.01,324.81,220319,,,A*7E
$GPGGA,143027.800,4308.3025,N,07726.2628,W,1,08,1.11,147.7,M,-34.4,M,,*56
lng=-77.437713, lat=43.138378, altitude=147.70, speed=0.01, satellites=8, angle=324.8100, fixquality=1
$GPRMC,143028.000,A,4308.3025,N,07726.2628,W,0.03,112.52,220319,,,A*7C
$GPGGA,143028.200,4308.3025,N,07726.2628,W,1,08,1.11,147.7,M,-34.4,M,,*53
lng=-77.437713, lat=43.138378, altitude=147.70, speed=0.03, satellites=8, angle=112.5200, fixquality=1
$GPRMC,143028.400,A,4308.3025,N,07726.2628,W,0.03,52.66,220319,,,A*4A
$GPGGA,143028.600,4308.3025,N,07726.2628,W,1,08,1.11,147.7,M,-34.4,M,,*57
lng=-77.437713, lat=43.138378, altitude=147.70, speed=0.03, satellites=8, angle=52.6600, fixquality=1
$GPRMC,143028.800,A,4308.3025,N,07726.2628,W,0.02,81.59,220319,,,A*45
$GPGGA,143029.000,4308.3025,N,07726.2628,W,1,08,1.11,147.7,M,-34.4,M,,*50
lng=-77.437713, lat=43.138378, altitude=147.70, speed=0.02, satellites=8, angle=81.5900, fixquality=1
$GPRMC,143029.200,A,4308.3025,N,07726.2628,W,0.01,259.81,220319,,,A*7F
$GPGGA,143029.400,4308.3025,N,07726.2628,W,1,08,1.11,147.7,M,-34.4,M,,*54
lng=-77.437713, lat=43.138378, altitude=147.70, speed=0.01, satellites=8, angle=259.8100, fixquality=1
$GPRMC,143029.600,A,4308.3025,N,07726.2628,W,0.02,290.69,220319,,,A*7B
$GPGGA,143029.800,4308.3025,N,07726.2628,W,1,08,1.11,147.7,M,-34.4,M,,*58
lng=-77.437713, lat=43.138378, altitude=147.70, speed=0.02, satellites=8, angle=290.6900, fixquality=1
$GPRMC,143030.000,A,4308.3025,N,07726.2628,W,0.04,209.11,220319,,,A*7C
$GPGGA,143030.200,4308.3025,N,07726.2628,W,1,08,1.11,147.7,M,-34.4,M,,*5A
lng=-77.437713, lat=43.138378, altitude=147.70, speed=0.04, satellites=8, angle=209.1100, fixquality=1
$GPRMC,143030.400,A,4308.3025,N,07726.2628,W,0.05,293.28,220319,,,A*70
$GPGGA,143030.600,4308.3025,N,07726.2628,W,1,08,1.11,147.7,M,-34.4,M,,*5E
lng=-77.437713, lat=43.138378, altitude=147.70, speed=0.05, satellites=8, angle=293.2800, fixquality=1
$GPRMC,143030.800,A,4308.3025,N,07726.2628,W,0.04,328.38,220319,,,A*7D
$GPGGA,143031.000,4308.3025,N,07726.2628,W,1,08,1.11,147.7,M,-34.4,M,,*59
lng=-77.437713, lat=43.138378, altitude=147.70, speed=0.04, satellites=8, angle=328.3800, fixquality=1
$GPRMC,143031.200,A,4308.3025,N,07726.2628,W,0.31,23.47,220319,,,A*40
$GPGGA,143031.400,4308.3025,N,07726.2628,W,1,08,1.11,147.7,M,-34.4,M,,*5D
lng=-77.437713, lat=43.138378, altitude=147.70, speed=0.31, satellites=8, angle=23.4700, fixquality=1
$GPRMC,143031.600,A,4308.3026,N,07726.2628,W,1.84,12.64,220319,,,A*4B
$GPGGA,143031.800,4308.3027,N,07726.2627,W,1,08,1.13,147.7,M,-34.4,M,,*5E
lng=-77.437713, lat=43.138378, altitude=147.70, speed=1.84, satellites=8, angle=12.6400, fixquality=1
$GPRMC,143032.000,A,4308.3029,N,07726.2626,W,3.12,12.96,220319,,,A*4F
$GPGGA,143032.200,4308.3031,N,07726.2625,W,1,08,1.13,147.7,M,-34.4,M,,*52
lng=-77.437713, lat=43.138378, altitude=147.70, speed=3.12, satellites=8, angle=12.9600, fixquality=1
$GPRMC,143032.400,A,4308.3033,N,07726.2625,W,4.46,11.20,220319,,,A*4B
$GPGGA,143032.600,4308.3036,N,07726.2624,W,1,08,1.13,147.7,M,-34.4,M,,*50
lng=-77.437713, lat=43.138385, altitude=147.70, speed=4.46, satellites=8, angle=11.2000, fixquality=1
$GPRMC,143032.800,A,4308.3039,N,07726.2623,W,5.47,12.43,220319,,,A*4D
$GPGGA,143033.000,4308.3042,N,07726.2622,W,1,08,1.13,147.7,M,-34.4,M,,*52
lng=-77.437705, lat=43.138393, altitude=147.70, speed=5.47, satellites=8, angle=12.4300, fixquality=1
$GPRMC,143033.200,A,4308.3045,N,07726.2621,W,6.32,10.06,220319,,,A*4D
$GPGGA,143033.400,4308.3049,N,07726.2620,W,1,08,1.13,147.8,M,-34.4,M,,*50
lng=-77.437705, lat=43.138412, altitude=147.70, speed=6.32, satellites=8, angle=10.0600, fixquality=1
$GPRMC,143033.600,A,4308.3053,N,07726.2619,W,6.90,10.28,220319,,,A*41
$GPGGA,143033.800,4308.3057,N,07726.2618,W,1,08,1.13,147.8,M,-34.4,M,,*58
lng=-77.437698, lat=43.138420, altitude=147.80, speed=6.90, satellites=8, angle=10.2800, fixquality=1
$GPRMC,143034.000,A,4308.3061,N,07726.2617,W,6.96,9.38,220319,,,A*70
$GPGGA,143034.200,4308.3065,N,07726.2616,W,1,08,1.13,147.9,M,-34.4,M,,*5B
lng=-77.437698, lat=43.138435, altitude=147.80, speed=6.96, satellites=8, angle=9.3800, fixquality=1
$GPRMC,143034.400,A,4308.3069,N,07726.2615,W,7.18,11.41,220319,,,A*4E
$GPGGA,143034.600,4308.3073,N,07726.2615,W,1,08,1.13,147.9,M,-34.4,M,,*5B
lng=-77.437698, lat=43.138450, altitude=147.90, speed=7.18, satellites=8, angle=11.4100, fixquality=1
$GPRMC,143034.800,A,4308.3077,N,07726.2614,W,7.05,10.63,220319,,,A*41
$GPGGA,143035.000,4308.3081,N,07726.2613,W,1,08,1.13,148.0,M,-34.4,M,,*51
lng=-77.437690, lat=43.138462, altitude=147.90, speed=7.05, satellites=8, angle=10.6300, fixquality=1
$GPRMC,143035.400,A,4308.3089,N,07726.2611,W,6.24,6.73,220319,,,A*7C
$GPGGA,143035.600,4308.3092,N,07726.2611,W,1,08,1.13,148.0,M,-34.4,M,,*57
lng=-77.437690, lat=43.138484, altitude=148.00, speed=6.24, satellites=8, angle=6.7300, fixquality=1
$GPGGA,143036.200,4308.3102,N,07726.2610,W,1,08,1.13,148.1,M,-34.4,M,,*58
$GPRMC,143036.200,A,4308.3102,N,07726.2610,W,5.59,0.88,220319,,$GPGGA,143036.400,4308.3104,N,07726.2608,W,1,08,1.13,148.1,M,-34.4,M,,*51
lng=-77.437690, lat=43.138500, altitude=148.10, speed=6.24, satellites=8, angle=6.7300, fixquality=1
$GPRMC,143036.600,A,4308.3106,N,07726.2607,W,3.80,8.21,220319,,,A*7E
$GPGGA,143036.800,4308.3109,N,07726.2607,W,1,08,1.13,148.2,M,-34.4,M,,*5C
lng=-77.437675, lat=43.138507, altitude=148.10, speed=3.80, satellites=8, angle=8.2100, fixquality=1
$GPRMC,143037.000,A,4308.3111,N,07726.2606,W,3.45,9.24,220319,,,A*73
$GPGGA,143037.200,4308.3112,N,07726.2606,W,1,08,1.13,148.2,M,-34.4,M,,*5C
lng=-77.437675, lat=43.138515, altitude=148.20, speed=3.45, satellites=8, angle=9.2400, fixquality=1
$GPRMC,143037.400,A,4308.3114,N,07726.2605,W,2.61,11.84,220319,,,A*45
$GPGGA,143037.600,4308.3115,N,07726.2605,W,1,08,1.13,148.2,M,-34.4,M,,*5C
lng=-77.437675, lat=43.138526, altitude=148.20, speed=2.61, satellites=8, angle=11.8400, fixquality=1
$GPRMC,143037.800,A,4308.3117,N,07726.2604,W,2.89,15.65,220319,,,A*46
$GPGGA,143038.000,4308.3118,N,07726.2603,W,1,08,1.11,148.2,M,-34.4,M,,*5C
lng=-77.437667, lat=43.138526, altitude=148.20, speed=2.89, satellites=8, angle=15.6500, fixquality=1
$GPRMC,143038.200,A,4308.3120,N,07726.2602,W,3.41,28.61,220319,,,A*4E
$GPGGA,143038.400,4308.3122,N,07726.2601,W,1,08,1.11,148.2,M,-34.4,M,,*53
lng=-77.437667, lat=43.138534, altitude=148.20, speed=3.41, satellites=8, angle=28.6100, fixquality=1
$GPRMC,143038.600,A,4308.3123,N,07726.2600,W,3.66,38.31,220319,,,A*4A
$GPGGA,143038.800,4308.3125,N,07726.2598,W,1,08,1.11,148.2,M,-34.4,M,,*5B
lng=-77.437660, lat=43.138542, altitude=148.20, speed=3.66, satellites=8, angle=38.3100, fixquality=1
$GPRMC,143039.000,A,4308.3127,N,07726.2597,W,3.56,38.62,220319,,,A*41
$GPGGA,143039.200,4308.3129,N,07726.2595,W,1,08,1.11,148.2,M,-34.4,M,,*51
lng=-77.437660, lat=43.138542, altitude=148.20, speed=3.56, satellites=8, angle=38.6200, fixquality=1
$GPRMC,143039.400,A,4308.3131,N,07726.2593,W,3.69,41.38,220319,,,A*4B
$GPGGA,143039.600,4308.3132,N,07726.2591,W,1,08,1.11,148.2,M,-34.4,M,,*5B
lng=-77.437652, lat=43.138549, altitude=148.20, speed=3.69, satellites=8, angle=41.3800, fixquality=1
$GPRMC,143039.800,A,4308.3134,N,07726.2589,W,3.57,49.53,220319,,,A*41
$GPGGA,143040.000,4308.3135,N,07726.2586,W,1,08,1.11,148.2,M,-34.4,M,,*52
lng=-77.437644, lat=43.138557, altitude=148.20, speed=3.57, satellites=8, angle=49.5300, fixquality=1
$GPRMC,143040.200,A,4308.3136,N,07726.2584,W,3.70,57.45,220319,,,A*47
$GPGGA,143040.400,4308.3137,N,07726.2582,W,1,08,1.11,148.2,M,-34.4,M,,*50
lng=-77.437637, lat=43.138557, altitude=148.20, speed=3.70, satellites=8, angle=57.4500, fixquality=1
$GPRMC,143040.600,A,4308.3139,N,07726.2579,W,3.57,66.81,220319,,,A*41
$GPGGA,143040.800,4308.3140,N,07726.2576,W,1,08,1.11,148.3,M,-34.4,M,,*56
lng=-77.437629, lat=43.138565, altitude=148.20, speed=3.57, satellites=8, angle=66.8100, fixquality=1
$GPRMC,143041.000,A,4308.3140,N,07726.2574,W,2.81,77.69,220319,,,A*49
$GPGGA,143041.200,4308.3141,N,07726.2573,W,1,08,1.11,148.5,M,-34.4,M,,*5F
lng=-77.437622, lat=43.138565, altitude=148.30, speed=2.81, satellites=8, angle=77.6900, fixquality=1
$GPRMC,143041.400,A,4308.3141,N,07726.2571,W,2.01,87.36,220319,,,A*44
$GPGGA,143041.600,4308.3142,N,07726.2570,W,1,08,1.11,148.5,M,-34.4,M,,*5B
lng=-77.437622, lat=43.138565, altitude=148.50, speed=2.01, satellites=8, angle=87.3600, fixquality=1
$GPRMC,143041.800,A,4308.3142,N,07726.2570,W,0.97,96.88,220319,,,A*42
$GPGGA,143042.000,4308.3142,N,07726.2570,W,1,08,1.11,148.6,M,-34.4,M,,*5D
lng=-77.437614, lat=43.138565, altitude=148.50, speed=0.97, satellites=8, angle=96.8800, fixquality=1
$GPRMC,143042.200,A,4308.3143,N,07726.2571,W,0.30,204.22,220319,,,A*7F
$GPGGA,143042.400,4308.3144,N,07726.2574,W,1,08,1.11,148.8,M,-34.4,M,,*55
lng=-77.437622, lat=43.138572, altitude=148.60, speed=0.30, satellites=8, angle=204.2200, fixquality=1
$GPRMC,143042.600,A,4308.3144,N,07726.2577,W,1.39,271.18,220319,,,A*79
$GPGGA,143042.800,4308.3145,N,07726.2579,W,1,08,1.11,148.9,M,-34.4,M,,*54
lng=-77.437629, lat=43.138572, altitude=148.80, speed=1.39, satellites=8, angle=271.1800, fixquality=1
$GPRMC,143043.000,A,4308.3145,N,07726.2582,W,1.54,274.30,220319,,,A*71
$GPGGA,143043.200,4308.3145,N,07726.2586,W,1,08,1.11,149.0,M,-34.4,M,,*57
lng=-77.437637, lat=43.138572, altitude=148.90, speed=1.54, satellites=8, angle=274.3000, fixquality=1
$GPRMC,143043.400,A,4308.3146,N,07726.2589,W,3.63,270.05,220319,,,A*79
$GPGGA,143043.600,4308.3146,N,07726.2595,W,1,08,1.11,149.0,M,-34.4,M,,*52
lng=-77.437644, lat=43.138572, altitude=149.00, speed=3.63, satellites=8, angle=270.0500, fixquality=1
$GPRMC,143043.800,A,4308.3145,N,07726.2601,W,6.24,265.94,220319,,,A*7F
$GPGGA,143044.000,4308.3145,N,07726.2609,W,1,08,1.13,149.1,M,-34.4,M,,*55
lng=-77.437667, lat=43.138572, altitude=149.00, speed=6.24, satellites=8, angle=265.9400, fixquality=1
$GPGGA,143044.400,4308.3146,N,07726.2623,W,1,08,1.13,149.1,M,-34.4,M,,*5A
$GPRMC,143044.400,A,4308.3146,N,07726.2623,W,8.58,271.34,220319,,,A*7D
lng=-77.437705, lat=43.138572, altitude=149.10, speed=6.24, satellites=8, angle=265.9400, fixquality=1
$GPGGA,143044.600,4308.3147,N,07726.2632,W,1,08,1.13,149.1,M,-34.4,M,,*59
$GPRMC,143044.600,A,4308.3147,N,07726.2632,W,9.23,273.71,220319,,,A*70
lng=-77.437721, lat=43.138584, altitude=149.10, speed=8.58, satellites=8, angle=271.3400, fixquality=1
$GPGGA,143044.800,4308.3148,N,07726.2641,W,1,08,1.13,149.2,M,-34.4,M,,*5F
$GPRMC,143044.800,A,4308.3148,N,07726.2641,W,10.18,275.34,220319,,,A*42
lng=-77.437736, lat=43.138584, altitude=149.20, speed=9.23, satellites=8, angle=273.7100, fixquality=1
$GPGGA,143045.000,4308.3150,N,07726.2650,W,1,08,1.11,149.2,M,-34.4,M,,*5D
$GPRMC,143045.000,A,4308.3150,N,07726.2650,W,10.61,276.69,220319,,,A*47
lng=-77.437751, lat=43.138584, altitude=149.20, speed=10.18, satellites=8, angle=275.3400, fixquality=1
$GPGGA,143045.200,4308.3154,N,07726.2661,W,1,08,1.11,149.3,M,-34.4,M,,*58
$GPRMC,143045.200,A,4308.3154,N,07726.2661,W,11.04,278.92,220319,,,A*4B
lng=-77.437767, lat=43.138591, altitude=149.30, speed=10.61, satellites=8, angle=276.6900, fixquality=1
$GPGGA,143045.400,4308.3158,N,07726.2673,W,1,08,1.11,149.3,M,-34.4,M,,*51
$GPRMC,143045.400,A,4308.3158,N,07726.2673,W,11.50,280.30,220319,,,A*4C
lng=-77.437782, lat=43.138599, altitude=149.30, speed=11.04, satellites=8, angle=278.9200, fixquality=1
$GPGGA,143045.600,4308.3161,N,07726.2684,W,1,08,1.11,149.4,M,-34.4,M,,*56
$GPRMC,143045.600,A,4308.3161,N,07726.2684,W,11.92,281.00,220319,,,A*40
lng=-77.437812, lat=43.138599, altitude=149.40, speed=11.50, satellites=8, angle=280.3000, fixquality=1
$GPGGA,143045.800,4308.3164,N,07726.2695,W,1,08,1.11,149.4,M,-34.4,M,,*5D
$GPRMC,143045.800,A,4308.3164,N,07726.2695,W,12.33,281.56,220319,,,A*40
lng=-77.437828, lat=43.138607, altitude=149.40, speed=11.92, satellites=8, angle=281.0000, fixquality=1
$GPGGA,143046.000,4308.3168,N,07726.2706,W,1,08,1.11,149.5,M,-34.4,M,,*50
$GPRMC,143046.000,A,4308.3168,N,07726.2706,W,12.82,282.21,220319,,,A*45
lng=-77.437843, lat=43.138614, altitude=149.50, speed=12.33, satellites=8, angle=281.5600, fixquality=1
$GPGGA,143046.200,4308.3171,N,07726.2718,W,1,08,1.11,149.5,M,-34.4,M,,*55
$GPRMC,143046.200,A,4308.3171,N,07726.2718,W,13.37,282.97,220319,,,A*42
lng=-77.437866, lat=43.138614, altitude=149.50, speed=12.82, satellites=8, angle=282.2100, fixquality=1
$GPGGA,143046.400,4308.3175,N,07726.2733,W,1,08,1.13,149.5,M,-34.4,M,,*5C
$GPRMC,143046.400,A,4308.3175,N,07726.2733,W,14.39,283.00,220319,,,A*4F
lng=-77.437889, lat=43.138622, altitude=149.50, speed=13.37, satellites=8, angle=282.9700, fixquality=1
$GPGGA,143046.600,4308.3179,N,07726.2747,W,1,08,1.11,149.5,M,-34.4,M,,*53
$GPRMC,143046.600,A,4308.3179,N,07726.2747,W,15.23,284.13,220319,,,A*4D
lng=-77.437911, lat=43.138629, altitude=149.50, speed=14.39, satellites=8, angle=283.0000, fixquality=1
$GPGGA,143046.800,4308.3182,N,07726.2760,W,1,08,1.11,149.5,M,-34.4,M,,*5C
$GPRMC,143046.800,A,4308.3182,N,07726.2760,W,15.57,284.92,220319,,,A*48
lng=-77.437934, lat=43.138637, altitude=149.50, speed=15.23, satellites=8, angle=284.1300, fixquality=1
$GPGGA,143047.000,4308.3186,N,07726.2773,W,1,08,1.11,149.5,M,-34.4,M,,*53
$GPRMC,143047.000,A,4308.3186,N,07726.2773,W,16.06,286.38,220319,,,A*42
lng=-77.437957, lat=43.138637, altitude=149.50, speed=15.57, satellites=8, angle=284.9200, fixquality=1
$GPGGA,143047.200,4308.3191,N,07726.2788,W,1,08,1.11,149.5,M,-34.4,M,,*53
$GPRMC,143047.200,A,4308.3191,N,07726.2788,W,16.71,287.42,220319,,,A*4E
lng=-77.437980, lat=43.138656, altitude=149.50, speed=16.06, satellites=8, angle=286.3800, fixquality=1
$GPGGA,143047.400,4308.3196,N,07726.2804,W,1,08,1.11,149.5,M,-34.4,M,,*59
$GPRMC,143047.400,A,4308.3196,N,07726.2804,W,17.39,288.38,2203
lng=-77.438003, lat=43.138664, altitude=149.50, speed=16.71, satellites=8, angle=287.4200, fixquality=1
$GPGGA,143047.600,4308.3201,N,07726.2820,W,1,08,1.11,149.5,M,-34.4,M,,*50
$GPRMC,143047.600,A,4308.3201,N,07726.2820,W,18.06,289.27,220319,,,A*4E
lng=-77.438034, lat=43.138671, altitude=149.50, speed=17.39, satellites=8, angle=288.3800, fixquality=1
$GPGGA,143047.800,4308.3206,N,07726.2835,W,1,08,1.11,149.6,M,-34.4,M,,*5E
$GPRMC,143047.800,A,4308.3206,N,07726.2835,W,18.64,289.89,22031$GPGGA,143048.000,4308.3212,N,07726.2852,W,1,08,1.11,149.6,M,-34.4,M,,*5D
lng=-77.438064, lat=43.138679, altitude=149.60, speed=18.06, satellites=8, angle=289.2700, fixquality=1
$GPRMC,143048.200,A,4308.3219,N,07726.2869,W,20.13,291.98,220319,,,A*43
$GPGGA,143048.400,4308.3225,N,07726.2886,W,1,08,1.13,149.7,M,-34.4,M,,*57
lng=-77.438117, lat=43.138694, altitude=149.60, speed=20.13, satellites=8, angle=291.9800, fixquality=1
$GPRMC,143048.600,A,4308.3232,N,07726.2903,W,21.30,293.66,220319,,,A*40
$GPGGA,143048.800,4308.3239,N,07726.2920,W,1,08,1.11,149.7,M,-34.4,M,,*59
lng=-77.438179, lat=43.138721, altitude=149.70, speed=21.30, satellites=8, angle=293.6600, fixquality=1
$GPRMC,143049.000,A,4308.3245,N,07726.2936,W,22.24,295.23,220319,,,A*40
$GPGGA,143049.200,4308.3253,N,07726.2953,W,1,08,1.11,149.7,M,-34.4,M,,*5A
lng=-77.438224, lat=43.138744, altitude=149.70, speed=22.24, satellites=8, angle=295.2300, fixquality=1
$GPRMC,143049.400,A,4308.3260,N,07726.2970,W,23.12,297.21,220319,,,A*45
$GPGGA,143049.600,4308.3269,N,07726.2987,W,1,08,1.11,149.7,M,-34.4,M,,*5E
lng=-77.438278, lat=43.138771, altitude=149.70, speed=23.12, satellites=8, angle=297.2100, fixquality=1
$GPRMC,143049.800,A,4308.3276,N,07726.3004,W,23.96,299.07,220319,,,A*43
$GPGGA,143050.000,4308.3285,N,07726.3022,W,1,08,1.11,149.7,M,-34.4,M,,*55
lng=-77.438339, lat=43.138793, altitude=149.70, speed=23.96, satellites=8, angle=299.0700, fixquality=1
$GPRMC,143050.200,A,4308.3293,N,07726.3039,W,24.80,300.30,220319,,,A*41
$GPGGA,143050.400,4308.3301,N,07726.3057,W,1,08,1.11,149.8,M,-34.4,M,,*51
lng=-77.438392, lat=43.138816, altitude=149.70, speed=24.80, satellites=8, angle=300.3000, fixquality=1
$GPRMC,143050.600,A,4308.3309,N,07726.3076,W,25.54,301.43,220319,,,A*41
$GPGGA,143050.800,4308.3317,N,07726.3094,W,1,08,1.11,149.8,M,-34.4,M,,*55
lng=-77.438461, lat=43.138851, altitude=149.80, speed=25.54, satellites=8, angle=301.4300, fixquality=1
$GPRMC,143051.000,A,4308.3325,N,07726.3112,W,26.20,302.12,220319,,,A*4C
$GPGGA,143051.200,4308.3334,N,07726.3131,W,1,08,1.11,149.9,M,-34.4,M,,*50
lng=-77.438514, lat=43.138874, altitude=149.80, speed=26.20, satellites=8, angle=302.1200, fixquality=1
$GPRMC,143051.400,A,4308.3343,N,07726.3150,W,26.64,302.74,220319,,,A*4E
$GPGGA,143051.600,4308.3352,N,07726.3168,W,1,08,1.11,149.9,M,-34.4,M,,*58
lng=-77.438583, lat=43.138908, altitude=149.90, speed=26.64, satellites=8, angle=302.7400, fixquality=1
$GPRMC,143051.800,A,4308.3360,N,07726.3187,W,27.50,303.30,220319,,,A*4E
$GPGGA,143052.000,4308.3369,N,07726.3207,W,1,08,1.11,150.0,M,-34.4,M,,*5E
lng=-77.438644, lat=43.138931, altitude=149.90, speed=27.50, satellites=8, angle=303.3000, fixquality=1
$GPRMC,143052.200,A,4308.3377,N,07726.3226,W,27.70,303.36,220319,,,A*4D
$GPGGA,143052.400,4308.3386,N,07726.3246,W,1,08,1.11,150.1,M,-34.4,M,,*5F
lng=-77.438713, lat=43.138965, altitude=150.00, speed=27.70, satellites=8, angle=303.3600, fixquality=1
$GPRMC,143052.600,A,4308.3395,N,07726.3265,W,28.28,302.86,220319,,,A*4A
$GPGGA,143052.800,4308.3404,N,07726.3285,W,1,08,1.11,150.2,M,-34.4,M,,*52
lng=-77.438774, lat=43.138988, altitude=150.10, speed=28.28, satellites=8, angle=302.8600, fixquality=1
$GPRMC,143053.000,A,4308.3412,N,07726.3306,W,29.38,302.39,220319,,,A*45
$GPGGA,143053.200,4308.3421,N,07726.3326,W,1,08,1.11,150.3,M,-34.4,M,,*57
lng=-77.438842, lat=43.139022, altitude=150.20, speed=29.38, satellites=8, angle=302.3900, fixquality=1
$GPRMC,143053.400,A,4308.3430,N,07726.3346,W,29.73,302.29,220319,,,A*4B
$GPGGA,143053.600,4308.3439,N,07726.3366,W,1,08,1.11,150.4,M,-34.4,M,,*59
lng=-77.438911, lat=43.139045, altitude=150.30, speed=29.73, satellites=8, angle=302.2900, fixquality=1
$GPRMC,143053.800,A,4308.3448,N,07726.3387,W,30.14,302.45,220319,,,A*46
$GPGGA,143054.000,4308.3457,N,07726.3406,W,1,08,1.11,150.6,M,-34.4,M,,*53
lng=-77.438980, lat=43.139080, altitude=150.40, speed=30.14, satellites=8, angle=302.4500, fixquality=1
$GPRMC,143054.200,A,4308.3466,N,07726.3426,W,30.22,303.32,220319,,,A*4F
$GPGGA,143054.400,4308.3476,N,07726.3445,W,1,08,1.13,150.7,M,-34.4,M,,*50
lng=-77.439048, lat=43.139110, altitude=150.60, speed=30.22, satellites=8, angle=303.3200, fixquality=1
$GPRMC,143054.600,A,4308.3486,N,07726.3464,W,30.25,305.17,220319,,,A*45
$GPGGA,143054.800,4308.3496,N,07726.3482,W,1,08,1.11,150.8,M,-34.4,M,,*54
lng=-77.439102, lat=43.139144, altitude=150.70, speed=30.25, satellites=8, angle=305.1700, fixquality=1
$GPRMC,143055.000,A,4308.3506,N,07726.3500,W,30.16,306.14,220319,,,A*48
$GPGGA,143055.200,4308.3517,N,07726.3518,W,1,08,1.11,150.9,M,-34.4,M,,*54
lng=-77.439170, lat=43.139175, altitude=150.80, speed=30.16, satellites=8, angle=306.1400, fixquality=1
$GPRMC,143055.400,A,4308.3528,N,07726.3535,W,29.63,308.10,220319,,,A*46
$GPGGA,143055.600,4308.3539,N,07726.3553,W,1,08,1.11,151.0,M,-34.4,M,,*5B
lng=-77.439224, lat=43.139217, altitude=150.90, speed=29.63, satellites=8, angle=308.1000, fixquality=1
$GPRMC,143055.800,A,4308.3550,N,07726.3571,W,29.20,309.37,220319,,,A*46
$GPGGA,143056.000,4308.3560,N,07726.3588,W,1,08,1.11,151.1,M,-34.4,M,,*55
lng=-77.439285, lat=43.139247, altitude=151.00, speed=29.20, satellites=8, angle=309.3700, fixquality=1
$GPRMC,143056.200,A,4308.3571,N,07726.3604,W,29.01,311.15,220319,,,A*47
$GPGGA,143056.400,4308.3583,N,07726.3619,W,1,08,1.11,151.1,M,-34.4,M,,*57
lng=-77.439338, lat=43.139282, altitude=151.10, speed=29.01, satellites=8, angle=311.1500, fixquality=1
$GPRMC,143056.600,A,4308.3594,N,07726.3635,W,28.84,314.90,220319,,,A*4E
$GPGGA,143056.800,4308.3606,N,07726.3650,W,1,08,1.11,151.2,M,-34.4,M,,*5B
lng=-77.439384, lat=43.139324, altitude=151.10, speed=28.84, satellites=8, angle=314.9000, fixquality=1
$GPRMC,143057.000,A,4308.3617,N,07726.3664,W,28.38,317.55,220319,,,A*48
$GPGGA,143057.200,4308.3630,N,07726.3678,W,1,08,1.11,151.3,M,-34.4,M,,*5E
lng=-77.439437, lat=43.139362, altitude=151.20, speed=28.38, satellites=8, angle=317.5500, fixquality=1
$GPRMC,143057.400,A,4308.3643,N,07726.3690,W,28.43,321.89,220319,,,A*4E
$GPGGA,143057.600,4308.3656,N,07726.3702,W,1,08,1.11,151.4,M,-34.4,M,,*51
lng=-77.439483, lat=43.139404, altitude=151.30, speed=28.43, satellites=8, angle=321.8900, fixquality=1
$GPRMC,143057.800,A,4308.3669,N,07726.3713,W,28.53,325.88,220319,,,A*44
$GPGGA,143058.000,4308.3684,N,07726.3724,W,1,08,1.11,151.5,M,-34.4,M,,*52
lng=-77.439521, lat=43.139446, altitude=151.40, speed=28.53, satellites=8, angle=325.8800, fixquality=1
$GPRMC,143058.200,A,4308.3698,N,07726.3734,W,28.60,329.52,220319,,,A*41
$GPGGA,143058.400,4308.3713,N,07726.3744,W,1,08,1.11,151.6,M,-34.4,M,,*5C
lng=-77.439559, lat=43.139492, altitude=151.50, speed=28.60, satellites=8, angle=329.5200, fixquality=1
$GPRMC,143058.600,A,4308.3728,N,07726.3753,W,29.54,333.20,220319,,,A*46
$GPGGA,143058.800,4308.3743,N,07726.3761,W,1,08,1.11,151.7,M,-34.4,M,,*53
lng=-77.439590, lat=43.139541, altitude=151.60, speed=29.54, satellites=8, angle=333.2000, fixquality=1
$GPRMC,143059.000,A,4308.3759,N,07726.3769,W,29.69,336.22,220319,,,A*47
$GPGGA,143059.200,4308.3774,N,07726.3776,W,1,08,1.11,151.9,M,-34.4,M,,*54
lng=-77.439613, lat=43.139598, altitude=151.70, speed=29.69, satellites=8, angle=336.2200, fixquality=1
$GPRMC,143059.400,A,4308.3790,N,07726.3783,W,29.89,339.83,220319,,,A*48
$GPGGA,143059.600,4308.3806,N,07726.3787,W,1,08,1.11,152.0,M,-34.4,M,,*5E
lng=-77.439643, lat=43.139648, altitude=151.90, speed=29.89, satellites=8, angle=339.8300, fixquality=1
$GPRMC,143059.800,A,4308.3822,N,07726.3792,W,29.84,343.93,220319,,,A*43
$GPGGA,143100.000,4308.3838,N,07726.3795,W,1,08,1.11,152.1,M,-34.4,M,,*5A
lng=-77.439659, lat=43.139705, altitude=152.00, speed=29.84, satellites=8, angle=343.9300, fixquality=1
$GPRMC,143100.200,A,4308.3855,N,07726.3799,W,29.82,347.97,220319,,,A*49
$GPGGA,143100.400,4308.3871,N,07726.3803,W,1,08,1.11,152.3,M,-34.4,M,,*51
lng=-77.439666, lat=43.139762, altitude=152.10, speed=29.82, satellites=8, angle=347.9700, fixquality=1
$GPRMC,143100.600,A,4308.3888,N,07726.3807,W,29.79,349.95,220319,,,A*4D
$GPGGA,143100.800,4308.3905,N,07726.3810,W,1,08,1.11,152.4,M,-34.4,M,,*5A
lng=-77.439682, lat=43.139812, altitude=152.30, speed=29.79, satellites=8, angle=349.9500, fixquality=1
$GPRMC,143101.000,A,4308.3922,N,07726.3813,W,29.91,351.54,220319,,,A*4C
$GPGGA,143101.200,4308.3939,N,07726.3812,W,1,08,1.11,152.5,M,-34.4,M,,*5D
lng=-77.439689, lat=43.139869, altitude=152.40, speed=29.91, satellites=8, angle=351.5400, fixquality=1
$GPRMC,143101.400,A,4308.3957,N,07726.3813,W,30.26,356.10,220319,,,A*49
$GPGGA,143101.600,4308.3974,N,07726.3812,W,1,08,1.11,152.7,M,-34.4,M,,*52
lng=-77.439689, lat=43.139926, altitude=152.50, speed=30.26, satellites=8, angle=356.1000, fixquality=1
$GPRMC,143101.800,A,4308.3991,N,07726.3810,W,30.49,359.87,220319,,,A*44
$GPGGA,143102.000,4308.4007,N,07726.3807,W,1,08,1.11,152.8,M,-34.4,M,,*56
lng=-77.439682, lat=43.139980, altitude=152.70, speed=30.49, satellites=8, angle=359.8700, fixquality=1
$GPRMC,143102.200,A,4308.4024,N,07726.3804,W,30.99,3.87,220319,,,A*49
$GPGGA,143102.400,4308.4041,N,07726.3800,W,1,08,1.11,153.1,M,-34.4,M,,*5F
lng=-77.439674, lat=43.140037, altitude=152.80, speed=30.99, satellites=8, angle=3.8700, fixquality=1
$GPRMC,143102.600,A,4308.4058,N,07726.3797,W,31.50,6.31,220319,,,A*4F
$GPGGA,143102.800,4308.4075,N,07726.3794,W,1,08,1.11,153.3,M,-34.4,M,,*54
lng=-77.439666, lat=43.140094, altitude=153.10, speed=31.50, satellites=8, angle=6.3100, fixquality=1
$GPRMC,143103.000,A,4308.4092,N,07726.3790,W,31.59,7.43,220319,,,A*44
$GPGGA,143103.200,4308.4109,N,07726.3786,W,1,08,1.11,153.6,M,-34.4,M,,*53
lng=-77.439651, lat=43.140151, altitude=153.30, speed=31.59, satellites=8, angle=7.4300, fixquality=1
$GPRMC,143103.400,A,4308.4126,N,07726.3781,W,31.73,8.38,220319,,,A*45
$GPGGA,143103.600,4308.4144,N,07726.3776,W,1,08,1.11,153.8,M,-34.4,M,,*5F
lng=-77.439628, lat=43.140209, altitude=153.60, speed=31.73, satellites=8, angle=8.3800, fixquality=1
$GPRMC,143103.800,A,4308.4161,N,07726.3772,W,31.81,8.83,220319,,,A*4B
$GPGGA,143104.000,4308.4178,N,07726.3768,W,1,08,1.11,154.0,M,-34.4,M,,*51
lng=-77.439620, lat=43.140266, altitude=153.80, speed=31.81, satellites=8, angle=8.8300, fixquality=1
$GPRMC,143104.200,A,4308.4195,N,07726.3763,W,31.53,8.91,220319,,,A*41
$GPGGA,143104.400,4308.4212,N,07726.3759,W,1,08,1.11,154.2,M,-34.4,M,,*5A
lng=-77.439605, lat=43.140323, altitude=154.00, speed=31.53, satellites=8, angle=8.9100, fixquality=1
$GPRMC,143104.600,A,4308.4228,N,07726.3754,W,30.96,8.95,220319,,,A*48
$GPGGA,143104.800,4308.4245,N,07726.3749,W,1,08,1.11,154.4,M,-34.4,M,,*53
lng=-77.439590, lat=43.140380, altitude=154.20, speed=30.96, satellites=8, angle=8.9500, fixquality=1
$GPRMC,143105.000,A,4308.4261,N,07726.3745,W,30.64,9.11,220319,,,A*42
$GPGGA,143105.200,4308.4278,N,07726.3740,W,1,08,1.11,154.6,M,-34.4,M,,*5D
lng=-77.439575, lat=43.140438, altitude=154.40, speed=30.64, satellites=8, angle=9.1100, fixquality=1
$GPRMC,143105.400,A,4308.4294,N,07726.3736,W,30.18,9.03,220319,,,A*40
$GPGGA,143105.600,4308.4311,N,07726.3731,W,1,08,1.11,154.8,M,-34.4,M,,*5F
lng=-77.439559, lat=43.140487, altitude=154.60, speed=30.18, satellites=8, angle=9.0300, fixquality=1
$GPRMC,143105.800,A,4308.4327,N,07726.3727,W,30.06,9.43,220319,,,A*4E
$GPGGA,143106.000,4308.4344,N,07726.3722,W,1,08,1.11,155.1,M,-34.4,M,,*50
lng=-77.439544, lat=43.140544, altitude=154.80, speed=30.06, satellites=8, angle=9.4300, fixquality=1
$GPRMC,143106.200,A,4308.4359,N,07726.3717,W,29.64,10.01,220319,,,A*7F
$GPGGA,143106.400,4308.4375,N,07726.3713,W,1,08,1.11,155.3,M,-34.4,M,,*56
lng=-77.439529, lat=43.140602, altitude=155.10, speed=29.64, satellites=8, angle=10.0100, fixquality=1
$GPRMC,143106.600,A,4308.4390,N,07726.3708,W,29.56,10.16,220319,,,A*77
$GPGGA,143106.800,4308.4405,N,07726.3704,W,1,08,1.11,155.4,M,-34.4,M,,*5B
lng=-77.439506, lat=43.140647, altitude=155.30, speed=29.56, satellites=8, angle=10.1600, fixquality=1
$GPRMC,143107.000,A,4308.4419,N,07726.3699,W,27.74,10.71,220319,,,A*70
$GPGGA,143107.200,4308.4433,N,07726.3694,W,1,08,1.11,155.6,M,-34.4,M,,*5F
lng=-77.439498, lat=43.140697, altitude=155.40, speed=27.74, satellites=8, angle=10.7100, fixquality=1
$GPRMC,143107.400,A,4308.4447,N,07726.3690,W,26.56,10.77,220319,,,A*71
$GPGGA,143107.600,4308.4460,N,07726.3685,W,1,08,1.11,155.8,M,-34.4,M,,*53
lng=-77.439483, lat=43.140747, altitude=155.60, speed=26.56, satellites=8, angle=10.7700, fixquality=1
$GPRMC,143107.800,A,4308.4472,N,07726.3681,W,25.05,11.45,220319,,,A*7E
$GPGGA,143108.000,4308.4485,N,07726.3677,W,1,08,1.13,156.0,M,-34.4,M,,*55
lng=-77.439468, lat=43.140789, altitude=155.80, speed=25.05, satellites=8, angle=11.4500, fixquality=1
$GPRMC,143108.200,A,4308.4497,N,07726.3672,W,23.90,11.90,220319,,,A*7E
$GPGGA,143108.400,4308.4507,N,07726.3669,W,1,08,1.13,156.2,M,-34.4,M,,*57
lng=-77.439453, lat=43.140827, altitude=156.00, speed=23.90, satellites=8, angle=11.9000, fixquality=1
$GPRMC,143108.600,A,4308.4517,N,07726.3665,W,21.43,12.29,220319,,,A*78
$GPGGA,143108.800,4308.4527,N,07726.3662,W,1,08,1.13,156.4,M,-34.4,M,,*54
lng=-77.439445, lat=43.140861, altitude=156.20, speed=21.43, satellites=8, angle=12.2900, fixquality=1
$GPRMC,143109.000,A,4308.4537,N,07726.3658,W,20.45,12.80,220319,,,A*77
$GPGGA,143109.200,4308.4547,N,07726.3654,W,1,08,1.13,156.5,M,-34.4,M,,*5D
lng=-77.439430, lat=43.140892, altitude=156.40, speed=20.45, satellites=8, angle=12.8000, fixquality=1
$GPRMC,143109.400,A,4308.4557,N,07726.3651,W,19.66,13.50,220319,,,A*7B
$GPGGA,143109.600,4308.4567,N,07726.3647,W,1,08,1.13,156.7,M,-34.4,M,,*5B
lng=-77.439422, lat=43.140926, altitude=156.50, speed=19.66, satellites=8, angle=13.5000, fixquality=1
$GPRMC,143109.800,A,4308.4575,N,07726.3643,W,18.68,14.63,220319,,,A*7C
$GPGGA,143110.000,4308.4584,N,07726.3640,W,1,08,1.13,156.9,M,-34.4,M,,*51
lng=-77.439407, lat=43.140956, altitude=156.70, speed=18.68, satellites=8, angle=14.6300, fixquality=1
$GPRMC,143110.200,A,4308.4593,N,07726.3636,W,17.83,15.46,220319,,,A*78
$GPGGA,143110.400,4308.4600,N,07726.3633,W,1,08,1.11,157.1,M,-34.4,M,,*55
lng=-77.439399, lat=43.140991, altitude=156.90, speed=17.83, satellites=8, angle=15.4600, fixquality=1
$GPRMC,143110.600,A,4308.4607,N,07726.3629,W,16.51,17.47,220319,,,A*71
$GPGGA,143110.800,4308.4611,N,07726.3624,W,1,08,1.11,157.3,M,-34.4,M,,*5D
lng=-77.439376, lat=43.141014, altitude=157.10, speed=16.51, satellites=8, angle=17.4700, fixquality=1
$GPRMC,143111.000,A,4308.4614,N,07726.3620,W,15.37,17.93,220319,,,A*77
$GPGGA,143111.200,4308.4616,N,07726.3616,W,1,08,1.11,157.5,M,-34.4,M,,*56
lng=-77.439361, lat=43.141025, altitude=157.30, speed=15.37, satellites=8, angle=17.9300, fixquality=1
$GPRMC,143111.400,A,4308.4616,N,07726.3617,W,13.62,18.10,220319,,,A*77
$GPGGA,143111.600,4308.4616,N,07726.3617,W,1,08,1.11,157.7,M,-34.4,M,,*51
lng=-77.439361, lat=43.141025, altitude=157.50, speed=13.62, satellites=8, angle=18.1000, fixquality=1
$GPRMC,143111.800,A,4308.4617,N,07726.3615,W,11.93,16.68,220319,,,A*75
$GPGGA,143112.000,4308.4618,N,07726.3614,W,1,08,1.11,157.9,M,-34.4,M,,*57
lng=-77.439353, lat=43.141033, altitude=157.70, speed=11.93, satellites=8, angle=16.6800, fixquality=1
$GPRMC,143112.200,A,4308.4618,N,07726.3615,W,9.98,13.77,220319,,,A*4A
$GPGGA,143112.400,4308.4609,N,07726.3620,W,1,08,1.13,158.1,M,-34.4,M,,*51
lng=-77.439353, lat=43.141033, altitude=157.90, speed=9.98, satellites=8, angle=13.7700, fixquality=1
$GPRMC,143112.600,A,4308.4607,N,07726.3620,W,5.93,12.88,220319,,,A*40
$GPGGA,143112.800,4308.4606,N,07726.3621,W,1,08,1.13,158.2,M,-34.4,M,,*50
lng=-77.439361, lat=43.141014, altitude=158.10, speed=5.93, satellites=8, angle=12.8800, fixquality=1
$GPRMC,143113.000,A,4308.4608,N,07726.3620,W,4.66,12.47,220319,,,A*40
$GPGGA,143113.200,4308.4611,N,07726.3620,W,1,08,1.13,158.4,M,-34.4,M,,*5A
lng=-77.439361, lat=43.141014, altitude=158.20, speed=4.66, satellites=8, angle=12.4700, fixquality=1
$GPRMC,143113.400,A,4308.4614,N,07726.3620,W,5.52,8.96,220319,,,A*78
$GPGGA,143113.600,4308.4617,N,07726.3620,W,1,08,1.13,158.6,M,-34.4,M,,*5A
lng=-77.439361, lat=43.141025, altitude=158.40, speed=5.52, satellites=8, angle=8.9600, fixquality=1
$GPRMC,143113.800,A,4308.4619,N,07726.3620,W,6.61,4.83,220319,,,A*72
$GPGGA,143114.000,4308.4622,N,07726.3621,W,1,08,1.13,158.8,M,-34.4,M,,*52
lng=-77.439361, lat=43.141033, altitude=158.60, speed=6.61, satellites=8, angle=4.8300, fixquality=1
$GPRMC,143114.200,A,4308.4627,N,07726.3624,W,7.84,355.64,220319,,,A*72
$GPGGA,143114.400,4308.4632,N,07726.3626,W,1,08,1.13,159.0,M,-34.4,M,,*59
lng=-77.439369, lat=43.141048, altitude=158.80, speed=7.84, satellites=8, angle=355.6400, fixquality=1
$GPRMC,143114.600,A,4308.4636,N,07726.3629,W,8.49,347.57,220319,,,A*76
$GPGGA,143114.800,4308.4641,N,07726.3631,W,1,08,1.13,159.1,M,-34.4,M,,*56
lng=-77.439376, lat=43.141056, altitude=159.00, speed=8.49, satellites=8, angle=347.5700, fixquality=1
$GPRMC,143115.000,A,4308.4646,N,07726.3635,W,9.45,340.88,220319,,,A*73
$GPGGA,143115.200,4308.4651,N,07726.3639,W,1,08,1.11,159.2,M,-34.4,M,,*55
lng=-77.439384, lat=43.141071, altitude=159.10, speed=9.45, satellites=8, angle=340.8800, fixquality=1
$GPRMC,143115.400,A,4308.4656,N,07726.3644,W,9.73,334.51,220319,,,A*72
$GPGGA,143115.600,4308.4660,N,07726.3650,W,1,08,1.11,159.4,M,-34.4,M,,*5A
lng=-77.439407, lat=43.141098, altitude=159.20, speed=9.73, satellites=8, angle=334.5100, fixquality=1
$GPRMC,143115.800,A,4308.4665,N,07726.3657,W,10.30,326.94,220319,,,A*49
$GPGGA,143116.000,4308.4670,N,07726.3669,W,1,08,1.11,159.5,M,-34.4,M,,*55
lng=-77.439430, lat=43.141105, altitude=159.40, speed=10.30, satellites=8, angle=326.9400, fixquality=1
$GPRMC,143116.200,A,4308.4676,N,07726.3681,W,13.01,314.20,220319,,,A*46
$GPGGA,143116.400,4308.4681,N,07726.3695,W,1,08,1.11,159.6,M,-34.4,M,,*5F
lng=-77.439468, lat=43.141128, altitude=159.50, speed=13.01, satellites=8, angle=314.2000, fixquality=1
$GPRMC,143116.600,A,4308.4685,N,07726.3709,W,15.48,305.87,220319,,,A*49
$GPGGA,143116.800,4308.4689,N,07726.3724,W,1,08,1.11,159.8,M,-34.4,M,,*5E
lng=-77.439521, lat=43.141136, altitude=159.60, speed=15.48, satellites=8, angle=305.8700, fixquality=1
$GPRMC,143117.000,A,4308.4688,N,07726.3745,W,17.67,296.84,220319,,,A*4C
$GPGGA,143117.200,4308.4686,N,07726.3773,W,1,08,1.13,160.0,M,-34.4,M,,*58
lng=-77.439575, lat=43.141147, altitude=159.80, speed=17.67, satellites=8, angle=296.8400, fixquality=1
$GPRMC,143117.400,A,4308.4686,N,07726.3797,W,21.54,288.41,220319,,,A*4A
$GPGGA,143117.600,4308.4688,N,07726.3819,W,1,08,1.13,160.2,M,-34.4,M,,*53
lng=-77.439666, lat=43.141147, altitude=160.00, speed=21.54, satellites=8, angle=288.4100, fixquality=1
$GPRMC,143117.800,A,4308.4690,N,07726.3842,W,24.76,285.69,220319,,,A*44
$GPGGA,143118.000,4308.4692,N,07726.3869,W,1,08,1.13,160.4,M,-34.4,M,,*50
lng=-77.439735, lat=43.141155, altitude=160.20, speed=24.76, satellites=8, angle=285.6900, fixquality=1
$GPRMC,143118.200,A,4308.4692,N,07726.3893,W,28.51,282.14,220319,,,A*4B
$GPGGA,143118.400,4308.4693,N,07726.3919,W,1,08,1.13,160.5,M,-34.4,M,,*52
lng=-77.439819, lat=43.141155, altitude=160.40, speed=28.51, satellites=8, angle=282.1400, fixquality=1
$GPRMC,143118.600,A,4308.4694,N,07726.3947,W,32.69,279.17,220319,,,A*46
$GPGGA,143118.800,4308.4696,N,07726.3975,W,1,08,1.13,160.7,M,-34.4,M,,*53
lng=-77.439910, lat=43.141155, altitude=160.50, speed=32.69, satellites=8, angle=279.1700, fixquality=1
$GPRMC,143119.000,A,4308.4698,N,07726.4004,W,34.51,278.40,220319,,,A*4A
$GPGGA,143119.200,4308.4700,N,07726.4033,W,1,08,1.13,160.8,M,-34.4,M,,*55
lng=-77.440010, lat=43.141162, altitude=160.70, speed=34.51, satellites=8, angle=278.4000, fixquality=1
$GPRMC,143119.400,A,4308.4702,N,07726.4064,W,37.94,279.45,220319,,,A*44
$GPGGA,143119.600,4308.4706,N,07726.4095,W,1,08,1.13,160.9,M,-34.4,M,,*5A
lng=-77.440101, lat=43.141170, altitude=160.80, speed=37.94, satellites=8, angle=279.4500, fixquality=1
$GPRMC,143119.800,A,4308.4709,N,07726.4126,W,39.27,279.90,220319,,,A*4A
$GPGGA,143120.000,4308.4712,N,07726.4158,W,1,08,1.13,160.9,M,-34.4,M,,*53
lng=-77.440208, lat=43.141178, altitude=160.90, speed=39.27, satellites=8, angle=279.9000, fixquality=1
$GPRMC,143120.200,A,4308.4715,N,07726.4190,W,40.87,279.61,220319,,,A*40
$GPGGA,143120.400,4308.4718,N,07726.4224,W,1,08,1.13,161.0,M,-34.4,M,,*5D
lng=-77.440315, lat=43.141193, altitude=160.90, speed=40.87, satellites=8, angle=279.6100, fixquality=1
$GPRMC,143120.600,A,4308.4720,N,07726.4257,W,42.37,278.76,220319,,,A*44
$GPGGA,143120.800,4308.4722,N,07726.4292,W,1,08,1.11,161.1,M,-34.4,M,,*56
lng=-77.440429, lat=43.141201, altitude=161.00, speed=42.37, satellites=8, angle=278.7600, fixquality=1
$GPRMC,143121.000,A,4308.4724,N,07726.4326,W,43.64,278.03,220319,,,A*45
$GPGGA,143121.200,4308.4727,N,07726.4362,W,1,08,1.11,161.1,M,-34.4,M,,*56
lng=-77.440544, lat=43.141201, altitude=161.10, speed=43.64, satellites=8, angle=278.0300, fixquality=1
$GPRMC,143121.400,A,4308.4730,N,07726.4397,W,44.78,277.47,220319,,,A*4B
$GPGGA,143121.600,4308.4733,N,07726.4431,W,1,08,1.11,161.2,M,-34.4,M,,*55
lng=-77.440658, lat=43.141220, altitude=161.10, speed=44.78, satellites=8, angle=277.4700, fixquality=1
$GPRMC,143121.800,A,4308.4737,N,07726.4466,W,44.77,277.26,220319,,,A*41
$GPGGA,143122.000,4308.4740,N,07726.4500,W,1,08,1.11,161.3,M,-34.4,M,,*56
lng=-77.440780, lat=43.141227, altitude=161.20, speed=44.77, satellites=8, angle=277.2600, fixquality=1
$GPRMC,143122.200,A,4308.4743,N,07726.4535,W,44.39,277.58,220319,,,A*4F
$GPGGA,143122.400,4308.4747,N,07726.4568,W,1,08,1.11,161.4,M,-34.4,M,,*5C
lng=-77.440895, lat=43.141235, altitude=161.30, speed=44.39, satellites=8, angle=277.5800, fixquality=1
$GPRMC,143122.600,A,4308.4750,N,07726.4602,W,43.58,278.94,220319,,,A*41
$GPGGA,143122.800,4308.4754,N,07726.4637,W,1,08,1.11,161.6,M,-34.4,M,,*59
lng=-77.441001, lat=43.141250, altitude=161.40, speed=43.58, satellites=8, angle=278.9400, fixquality=1
$GPRMC,143123.000,A,4308.4757,N,07726.4671,W,43.76,278.68,220319,,,A*4A
$GPGGA,143123.200,4308.4761,N,07726.4705,W,1,08,1.13,161.8,M,-34.4,M,,*58
lng=-77.441123, lat=43.141258, altitude=161.60, speed=43.76, satellites=8, angle=278.6800, fixquality=1
$GPRMC,143123.400,A,4308.4763,N,07726.4738,W,42.86,278.25,220319,,,A*42
$GPGGA,143123.600,4308.4766,N,07726.4771,W,1,08,1.11,162.0,M,-34.4,M,,*51
lng=-77.441230, lat=43.141269, altitude=161.80, speed=42.86, satellites=8, angle=278.2500, fixquality=1
$GPGGA,143124.000,4308.4772,N,07726.4835,W,1,08,1.11,162.1,M,-34.4,M,,*5B
$GPRMC,143124.000,A,4308.4772,N,07726.4835,W,42.26,278.07,220319,,,A*49
lng=-77.441390, lat=43.141284, altitude=162.10, speed=42.86, satellites=8, angle=278.2500, fixquality=1
$GPGGA,143124.200,4308.4775,N,07726.4867,W,1,08,1.11,162.2,M,-34.4,M,,*5A
$GPRMC,143124.200,A,4308.4775,N,07726.4867,W,42.10,278.20,220319,,,A*4B
lng=-77.441444, lat=43.141292, altitude=162.20, speed=42.26, satellites=8, angle=278.0700, fixquality=1
$GPGGA,143124.400,4308.4778,N,07726.4900,W,1,08,1.13,162.3,M,-34.4,M,,*52
$GPRMC,143124.400,A,4308.4778,N,07726.4900,W,41.90,278.10,220319,,,A*48
lng=-77.441505, lat=43.141300, altitude=162.30, speed=42.10, satellites=8, angle=278.2000, fixquality=1
$GPRMC,143124.800,A,4308.4784,N,07726.4963,W,41.63,277.72,220319,,,A*45
$GPGGA,143125.000,4308.4786,N,07726.4994,W,1,08,1.11,162.5,M,-34.4,M,,*5F
lng=-77.441604, lat=43.141307, altitude=162.30, speed=41.63, satellites=8, angle=277.7200, fixquality=1
$GPGGA,143125.600,4308.4794,N,07726.5088,W,1,08,1.11,162.7,M,-34.4,M,,*5D
$GPRMC,143125.600,A,4308.4794,N,07726.5088,W,40.97,277.08,220319,,,A*41
lng=-77.441810, lat=43.141323, altitude=162.70, speed=41.63, satellites=8, angle=277.7200, fixquality=1
$GPGGA,143125.800,4308.4797,N,07726.5118,W,1,08,1.11,162.7,M,-34.4,M,,*58
$GPRMC,143125.800,A,4308.4797,N,07726.5118,W,40.94,276.93,220319,,,A*44
lng=-77.441864, lat=43.141323, altitude=162.70, speed=40.97, satellites=8, angle=277.0800, fixquality=1
$GPGGA,143126.000,4308.4799,N,07726.5149,W,1,08,1.11,162.7,M,-34.4,M,,*59
$GPRMC,143126.000,A,4308.4799,N,07726.5149,W,40.37,276.65,220319,,,A*45
lng=-77.441917, lat=43.141334, altitude=162.70, speed=40.94, satellites=8, angle=276.9300, fixquality=1
$GPGGA,143126.200,4308.4801,N,07726.5179,W,1,08,1.13,162.8,M,-34.4,M,,*5B
$GPRMC,143126.200,A,4308.4801,N,07726.5179,W,40.08,276.20,220319,,,A*47
lng=-77.441970, lat=43.141334, altitude=162.80, speed=40.37, satellites=8, angle=276.6500, fixquality=1
$GPGGA,143126.400,4308.4803,N,07726.5209,W,1,08,1.13,162.8,M,-34.4,M,,*5B
$GPRMC,143126.400,A,4308.4803,N,07726.5209,W,39.83,275.86,220319,,,A*45
lng=-77.442016, lat=43.141342, altitude=162.80, speed=40.08, satellites=8, angle=276.2000, fixquality=1
$GPGGA,143126.600,4308.4805,N,07726.5239,W,1,08,1.13,162.8,M,-34.4,M,,*5C
$GPRMC,143126.600,A,4308.4805,N,07726.5239,W,39.77,275.40,220319,,,A*43
lng=-77.442062, lat=43.141342, altitude=162.80, speed=39.83, satellites=8, angle=275.8600, fixquality=1
$GPGGA,143126.800,4308.4807,N,07726.5269,W,1,08,1.11,162.9,M,-34.4,M,,*56
$GPRMC,143126.800,A,4308.4807,N,07726.5269,W,39.51,275.13,220319,,,A*48
lng=-77.442115, lat=43.141342, altitude=162.90, speed=39.77, satellites=8, angle=275.4000, fixquality=1
$GPGGA,143127.000,4308.4808,N,07726.5299,W,1,08,1.13,162.9,M,-34.4,M,,*5D
$GPRMC,143127.000,A,4308.4808,N,07726.5299,W,39.27,274.92,220319,,,A*48
lng=-77.442161, lat=43.141349, altitude=162.90, speed=39.51, satellites=8, angle=275.1300, fixquality=1
$GPGGA,143127.200,4308.4810,N,07726.5328,W,1,08,1.13,162.9,M,-34.4,M,,*5D
$GPRMC,143127.200,A,4308.4810,N,07726.5328,W,39.03,274.80,220319,,,A*4D
lng=-77.442214, lat=43.141349, altitude=162.90, speed=39.27, satellites=8, angle=274.9200, fixquality=1
