Vers 57
USE_SERIAL_FEEDBACK=false
DEVELOPMENT_MODE=false
USE_RMC_ONLY=false

$GPGGA,145618.600,4308.3041,N,07726.2612,W,1,08,0.99,148.9,M,-34.4,M,,*5F
$GPRMC,145618.600,A,4308.3041,N,07726.2612,W,0.03,130.60,290319,,,A*78
lng=-77.437690, lat=43.138404, altitude=148.90, speed=0.04, satellites=8, angle=182.5100, fixquality=1
$GPGGA,145618.800,4308.3041,N,07726.2611,W,1,08,0.99,148.7,M,-34.4,M,,*5C
$GPRMC,145618.800,A,4308.3041,N,07726.2611,W,0.38,182.91,290319,,,A*7A
lng=-77.437690, lat=43.138404, altitude=148.70, speed=0.03, satellites=8, angle=130.6000, fixquality=1
$GPGGA,145619.000,4308.3039,N,07726.2610,W,1,08,0.99,148.2,M,-34.4,M,,*5E
$GPRMC,145619.000,A,4308.3039,N,07726.2610,W,0.11,173.16,290319,,,A*77
lng=-77.437690, lat=43.138393, altitude=148.20, speed=0.38, satellites=8, angle=182.9100, fixquality=1
$GPGGA,145619.200,4308.3039,N,07726.2611,W,1,08,0.99,148.4,M,-34.4,M,,*5B
$GPRMC,145619.200,A,4308.3039,N,07726.2611,W,0.08,187.46,290319,,,A*72
lng=-77.437690, lat=43.138393, altitude=148.40, speed=0.11, satellites=8, angle=173.1600, fixquality=1
$GPGGA,145619.400,4308.3041,N,07726.2612,W,1,08,0.99,148.5,M,-34.4,M,,*50
$GPRMC,145619.400,A,4308.3041,N,07726.2612,W,0.09,153.78,290319,,,A*7D
lng=-77.437690, lat=43.138404, altitude=148.50, speed=0.08, satellites=8, angle=187.4600, fixquality=1
$GPGGA,145619.600,4308.3041,N,07726.2612,W,1,08,0.99,148.4,M,-34.4,M,,*53
$GPRMC,145619.600,A,4308.3041,N,07726.2612,W,0.03,81.83,290319,,,A*4F
lng=-77.437690, lat=43.138404, altitude=148.40, speed=0.09, satellites=8, angle=153.7800, fixquality=1
$GPGGA,145619.800,4308.3041,N,07726.2612,W,1,08,0.99,148.2,M,-34.4,M,,*5B
$GPRMC,145619.800,A,4308.3041,N,07726.2612,W,0.09,196.15,290319,,,A*73
lng=-77.437690, lat=43.138404, altitude=148.20, speed=0.03, satellites=8, angle=81.8300, fixquality=1
$GPGGA,145620.000,4308.3041,N,07726.2611,W,1,08,0.99,148.0,M,-34.4,M,,*58
$GPRMC,145620.000,A,4308.3041,N,07726.2611,W,0.04,169.90,290319,,,A*72
lng=-77.437690, lat=43.138404, altitude=148.00, speed=0.09, satellites=8, angle=196.1500, fixquality=1
$GPGGA,145620.200,4308.3042,N,07726.2611,W,1,08,0.99,147.9,M,-34.4,M,,*5F
$GPRMC,145620.200,A,4308.3042,N,07726.2611,W,0.02,174.85,290319,,,A*7D
lng=-77.437690, lat=43.138404, altitude=147.90, speed=0.04, satellites=8, angle=169.9000, fixquality=1
$GPGGA,145620.400,4308.3041,N,07726.2611,W,1,08,0.99,147.8,M,-34.4,M,,*5B
$GPRMC,145620.400,A,4308.3041,N,07726.2611,W,0.02,196.16,290319,,,A*7E
lng=-77.437690, lat=43.138404, altitude=147.80, speed=0.02, satellites=8, angle=174.8500, fixquality=1
$GPGGA,145620.600,4308.3041,N,07726.2610,W,1,08,0.99,147.7,M,-34.4,M,,*57
$GPRMC,145620.600,A,4308.3041,N,07726.2610,W,0.03,234.49,290319
lng=-77.437690, lat=43.138404, altitude=147.70, speed=0.02, satellites=8, angle=196.1600, fixquality=1
$GPGGA,145620.800,4308.3041,N,07726.2610,W,1,08,0.99,147.5,M,-34.4,M,,*5B
$GPRMC,145620.800,A,4308.3041,N,07726.2610,W,0.06,283.63,290319,,,A*72
lng=-77.437690, lat=43.138404, altitude=147.50, speed=0.03, satellites=8, angle=234.4900, fixquality=1
$GPGGA,145621.000,4308.3039,N,07726.2609,W,1,08,0.99,147.6,M,-34.4,M,,*56
$GPRMC,145621.000,A,4308.3039,N,07726.2609,W,0.08,40.12,290319,
lng=-77.437675, lat=43.138393, altitude=147.60, speed=0.06, satellites=8, angle=283.6300, fixquality=1
$GPGGA,145621.200,4308.3038,N,07726.2609,W,1,08,0.99,147.8,M,-34.4,M,,*5B
$GPRMC,145621.200,A,4308.3038,N,07726.2609,W,0.02,277.54,290319,,,A*74
lng=-77.437675, lat=43.138393, altitude=147.80, speed=0.08, satellites=8, angle=40.1200, fixquality=1
$GPGGA,145621.400,4308.3037,N,07726.2609,W,1,08,0.99,147.9,M,-34.4,M,,*53
$GPRMC,145621.400,A,4308.3037,N,07726.2609,W,0.04,217.25,290319B
lng=-77.437675, lat=43.138393, altitude=147.90, speed=0.02, satellites=8, angle=277.5400, fixquality=1
$GPGGA,145621.600,4308.3036,N,07726.2609,W,1,08,0.99,147.9,M,-34.4,M,,*50
$GPRMC,145621.600,A,4308.3036,N,07726.2609,W,0.04,228.40,290319,,,A*77
lng=-77.437675, lat=43.138393, altitude=147.90, speed=0.04, satellites=8, angle=217.2500, fixquality=1
$GPGGA,145621.800,4308.3036,N,07726.2609,W,1,08,0.99,147.9,M,-34.4,M,,*5E
$GPRMC,145621.800,A,4308.3036,N,07726.2609,W,0.07,143.50,290319
lng=-77.437675, lat=43.138393, altitude=147.90, speed=0.04, satellites=8, angle=228.4000, fixquality=1
$GPGGA,145622.000,4308.3035,N,07726.2609,W,1,08,0.99,147.8,M,-34.4,M,,*57
$GPRMC,145622.000,A,4308.3035,N,07726.2609,W,0.03,131.58,290319,,,A*74
lng=-77.437675, lat=43.138393, altitude=147.80, speed=0.07, satellites=8, angle=143.5000, fixquality=1
$GPGGA,145622.200,4308.3035,N,07726.2609,W,1,08,0.99,147.8,M,-34.4,M,,*55
$GPRMC,145622.200,A,4308.3035,N,07726.2609,W,0.08,24.43,290319,,,A*42
lng=-77.437675, lat=43.138393, altitude=147.80, speed=0.03, satellites=8, angle=131.5800, fixquality=1
$GPGGA,145622.400,4308.3035,N,07726.2609,W,1,08,0.99,147.8,M,-34.4,M,,*53
$GPRMC,145622.400,A,4308.3035,N,07726.2609,W,0.09,29.43,290319,,,A*48
lng=-77.437675, lat=43.138393, altitude=147.80, speed=0.08, satellites=8, angle=24.4300, fixquality=1
$GPGGA,145622.600,4308.3034,N,07726.2610,W,1,08,0.99,147.8,M,-34.4,M,,*58
$GPRMC,145622.600,A,4308.3034,N,07726.2610,W,0.03,242.81,290319,,,A*78
lng=-77.437690, lat=43.138385, altitude=147.80, speed=0.09, satellites=8, angle=29.4300, fixquality=1
$GPGGA,145622.800,4308.3034,N,07726.2610,W,1,08,0.99,147.8,M,-34.4,M,,*56
$GPRMC,145622.800,A,4308.3034,N,07726.2610,W,0.04,125.54,290319,,,A*7B
lng=-77.437690, lat=43.138385, altitude=147.80, speed=0.03, satellites=8, angle=242.8100, fixquality=1
$GPGGA,145623.000,4308.3034,N,07726.2610,W,1,08,0.99,147.8,M,-34.4,M,,*5F
$GPRMC,145623.000,A,4308.3034,N,07726.2610,W,0.04,262.61,290319,,,A*74
lng=-77.437690, lat=43.138385, altitude=147.80, speed=0.04, satellites=8, angle=125.5400, fixquality=1
$GPGGA,145623.200,4308.3034,N,07726.2610,W,1,08,0.99,147.8,M,-34.4,M,,*5D
$GPRMC,145623.200,A,4308.3034,N,07726.2610,W,0.03,177.23,290319,,,A*70
lng=-77.437690, lat=43.138385, altitude=147.80, speed=0.04, satellites=8, angle=262.6100, fixquality=1
$GPGGA,145623.400,4308.3033,N,07726.2610,W,1,08,0.99,147.7,M,-34.4,M,,*53
$GPRMC,145623.400,A,4308.3033,N,07726.2610,W,0.04,161.75,290319,,,A*72
lng=-77.437690, lat=43.138385, altitude=147.70, speed=0.03, satellites=8, angle=177.2300, fixquality=1
$GPGGA,145623.600,4308.3033,N,07726.2611,W,1,08,0.99,147.6,M,-34.4,M,,*51
$GPRMC,145623.600,A,4308.3033,N,07726.2611,W,0.02,129.38,290319,,,A*72
lng=-77.437690, lat=43.138385, altitude=147.60, speed=0.04, satellites=8, angle=161.7500, fixquality=1
$GPGGA,145623.800,4308.3033,N,07726.2611,W,1,08,0.99,147.5,M,-34.4,M,,*5C
$GPRMC,145623.800,A,4308.3033,N,07726.2611,W,0.02,118.77,290319,,,A*75
lng=-77.437690, lat=43.138385, altitude=147.50, speed=0.02, satellites=8, angle=129.3800, fixquality=1
$GPGGA,145624.000,4308.3033,N,07726.2611,W,1,08,0.99,147.3,M,-34.4,M,,*55
$GPRMC,145624.000,A,4308.3033,N,07726.2611,W,0.01,291.94,290319,,,A*76
lng=-77.437690, lat=43.138385, altitude=147.30, speed=0.02, satellites=8, angle=118.7700, fixquality=1
$GPGGA,145624.200,4308.3032,N,07726.2611,W,1,08,0.99,147.2,M,-34.4,M,,*57
$GPRMC,145624.200,A,4308.3032,N,07726.2611,W,0.05,164.14,290319,,,A*70
lng=-77.437690, lat=43.138385, altitude=147.20, speed=0.01, satellites=8, angle=291.9400, fixquality=1
$GPGGA,145624.400,4308.3032,N,07726.2611,W,1,08,0.99,147.2,M,-34.4,M,,*51
$GPRMC,145624.400,A,4308.3032,N,07726.2611,W,0.01,214.43,290319,,,A*74
lng=-77.437690, lat=43.138385, altitude=147.20, speed=0.05, satellites=8, angle=164.1400, fixquality=1
$GPGGA,145624.600,4308.3032,N,07726.2611,W,1,08,0.99,147.1,M,-34.4,M,,*50
$GPRMC,145624.600,A,4308.3032,N,07726.2611,W,0.01,234.49,290319,,,A*7E
lng=-77.437690, lat=43.138385, altitude=147.10, speed=0.01, satellites=8, angle=214.4300, fixquality=1
$GPGGA,145624.800,4308.3032,N,07726.2611,W,1,08,0.99,147.1,M,-34.4,M,,*5E
$GPRMC,145624.800,A,4308.3032,N,07726.2611,W,0.02,43.78,290319,,,A*43
lng=-77.437690, lat=43.138385, altitude=147.10, speed=0.01, satellites=8, angle=234.4900, fixquality=1
$GPGGA,145625.000,4308.3032,N,07726.2611,W,1,08,0.99,147.1,M,-34.4,M,,*57
$GPRMC,145625.000,A,4308.3032,N,07726.2611,W,0.03,20.77,290319,,,A*41
lng=-77.437690, lat=43.138385, altitude=147.10, speed=0.02, satellites=8, angle=43.7800, fixquality=1
$GPGGA,145625.200,4308.3032,N,07726.2611,W,1,08,0.99,147.0,M,-34.4,M,,*54
$GPRMC,145625.200,A,4308.3032,N,07726.2611,W,0.01,333.96,290319,,,A*7F
lng=-77.437690, lat=43.138385, altitude=147.00, speed=0.03, satellites=8, angle=20.7700, fixquality=1
$GPGGA,145625.400,4308.3032,N,07726.2612,W,1,08,0.99,147.0,M,-34.4,M,,*51
$GPRMC,145625.400,A,4308.3032,N,07726.2612,W,0.01,212.85,290319,,,A*7A
lng=-77.437690, lat=43.138385, altitude=147.00, speed=0.01, satellites=8, angle=333.9600, fixquality=1
$GPGGA,145625.600,4308.3032,N,07726.2612,W,1,08,0.99,147.1,M,-34.4,M,,*52
$GPRMC,145625.600,A,4308.3032,N,07726.2612,W,0.03,356.33,290319,,,A*76
lng=-77.437690, lat=43.138385, altitude=147.10, speed=0.01, satellites=8, angle=212.8500, fixquality=1
$GPGGA,145625.800,4308.3032,N,07726.2612,W,1,08,1.09,147.1,M,-34.4,M,,*54
$GPRMC,145625.800,A,4308.3032,N,07726.2612,W,0.05,130.73,290319,,,A*78
lng=-77.437690, lat=43.138385, altitude=147.10, speed=0.03, satellites=8, angle=356.3300, fixquality=1
$GPGGA,145626.000,4308.3033,N,07726.2613,W,1,08,0.99,147.1,M,-34.4,M,,*57
$GPRMC,145626.000,A,4308.3033,N,07726.2613,W,0.03,189.02,290319,,,A*71
lng=-77.437690, lat=43.138385, altitude=147.10, speed=0.05, satellites=8, angle=130.7300, fixquality=1
$GPGGA,145626.200,4308.3033,N,07726.2613,W,1,08,0.99,147.2,M,-34.4,M,,*56
$GPRMC,145626.200,A,4308.3033,N,07726.2613,W,0.02,328.32,290319,,,A*78
lng=-77.437690, lat=43.138385, altitude=147.20, speed=0.03, satellites=8, angle=189.0200, fixquality=1
$GPGGA,145626.400,4308.3034,N,07726.2614,W,1,08,0.99,147.3,M,-34.4,M,,*51
$GPRMC,145626.400,A,4308.3034,N,07726.2614,W,0.04,14.73,290319
lng=-77.437690, lat=43.138385, altitude=147.30, speed=0.02, satellites=8, angle=328.3200, fixquality=1
$GPGGA,145626.600,4308.3034,N,07726.2614,W,1,08,1.09,147.4,M,-34.4,M,,*5C
$GPRMC,145626.600,A,4308.3034,N,07726.2614,W,0.03,203.14,290319,,,A*71
lng=-77.437690, lat=43.138385, altitude=147.40, speed=0.04, satellites=8, angle=14.7300, fixquality=1
$GPGGA,145626.800,4308.3035,N,07726.2615,W,1,08,0.99,147.4,M,-34.4,M,,*5A
$GPRMC,145626.800,A,4308.3035,N,07726.2615,W,0.02,128.00,2903191
lng=-77.437698, lat=43.138393, altitude=147.40, speed=0.03, satellites=8, angle=203.1400, fixquality=1
$GPGGA,145627.000,4308.3036,N,07726.2615,W,1,08,0.99,147.5,M,-34.4,M,,*51
$GPRMC,145627.000,A,4308.3036,N,07726.2615,W,0.03,189.08,290319,,,A*79
lng=-77.437698, lat=43.138393, altitude=147.50, speed=0.02, satellites=8, angle=128.0000, fixquality=1
$GPGGA,145627.200,4308.3036,N,07726.2615,W,1,08,0.99,147.6,M,-34.4,M,,*50
$GPRMC,145627.200,A,4308.3036,N,07726.2615,W,0.02,305.65,2903197
lng=-77.437698, lat=43.138393, altitude=147.60, speed=0.03, satellites=8, angle=189.0800, fixquality=1
$GPGGA,145627.400,4308.3037,N,07726.2616,W,1,08,0.99,147.6,M,-34.4,M,,*54
$GPRMC,145627.400,A,4308.3037,N,07726.2616,W,0.05,178.75,290319,,,A*7D
lng=-77.437698, lat=43.138393, altitude=147.60, speed=0.02, satellites=8, angle=305.6500, fixquality=1
$GPGGA,145627.600,4308.3038,N,07726.2616,W,1,08,0.99,147.7,M,-34.4,M,,*58
$GPRMC,145627.600,A,4308.3038,N,07726.2616,W,0.06,67.80,290319,,,A*46
lng=-77.437698, lat=43.138393, altitude=147.70, speed=0.05, satellites=8, angle=178.7500, fixquality=1
$GPGGA,145627.800,4308.3038,N,07726.2617,W,1,08,0.99,147.7,M,-34.4,M,,*57
$GPRMC,145627.800,A,4308.3038,N,07726.2617,W,0.04,272.49,290319,,,A*78
lng=-77.437698, lat=43.138393, altitude=147.70, speed=0.06, satellites=8, angle=67.8000, fixquality=1
$GPGGA,145628.000,4308.3039,N,07726.2617,W,1,08,0.99,147.8,M,-34.4,M,,*5E
$GPRMC,145628.000,A,4308.3039,N,07726.2617,W,0.04,333.31,290319,,,A*75
lng=-77.437698, lat=43.138393, altitude=147.80, speed=0.04, satellites=8, angle=272.4900, fixquality=1
$GPGGA,145628.200,4308.3039,N,07726.2617,W,1,08,0.98,147.9,M,-34.4,M,,*5C
$GPRMC,145628.200,A,4308.3039,N,07726.2617,W,0.02,127.56,290319,,,A*77
lng=-77.437698, lat=43.138393, altitude=147.90, speed=0.04, satellites=8, angle=333.3100, fixquality=1
$GPGGA,145628.400,4308.3040,N,07726.2618,W,1,08,0.99,148.1,M,-34.4,M,,*5D
$GPRMC,145628.400,A,4308.3040,N,07726.2618,W,0.02,144.90,290319,,,A*7F
lng=-77.437698, lat=43.138404, altitude=148.10, speed=0.02, satellites=8, angle=127.5600, fixquality=1
$GPGGA,145628.600,4308.3041,N,07726.2618,W,1,08,0.99,148.2,M,-34.4,M,,*5D
$GPRMC,145628.600,A,4308.3041,N,07726.2618,W,0.03,134.80,290319,,,A*7B
lng=-77.437698, lat=43.138404, altitude=148.20, speed=0.02, satellites=8, angle=144.9000, fixquality=1
$GPGGA,145628.800,4308.3042,N,07726.2618,W,1,08,0.99,148.3,M,-34.4,M,,*51
$GPRMC,145628.800,A,4308.3042,N,07726.2618,W,0.12,307.47,290319,,,A*7F
lng=-77.437698, lat=43.138404, altitude=148.30, speed=0.03, satellites=8, angle=134.8000, fixquality=1
$GPGGA,145629.000,4308.3043,N,07726.2619,W,1,08,0.99,148.5,M,-34.4,M,,*5E
$GPRMC,145629.000,A,4308.3043,N,07726.2619,W,0.17,323.18,290319,,,A*7F
lng=-77.437698, lat=43.138404, altitude=148.50, speed=0.12, satellites=8, angle=307.4700, fixquality=1
$GPGGA,145629.200,4308.3043,N,07726.2620,W,1,08,0.99,148.6,M,-34.4,M,,*55
$GPRMC,145629.200,A,4308.3043,N,07726.2620,W,0.18,295.23,290319,,,A*7C
lng=-77.437705, lat=43.138404, altitude=148.60, speed=0.17, satellites=8, angle=323.1800, fixquality=1
$GPGGA,145629.400,4308.3044,N,07726.2620,W,1,08,0.99,148.7,M,-34.4,M,,*55
$GPRMC,145629.400,A,4308.3044,N,07726.2620,W,0.19,296.78,290319,,,A*71
lng=-77.437705, lat=43.138404, altitude=148.70, speed=0.18, satellites=8, angle=295.2300, fixquality=1
$GPGGA,145629.600,4308.3045,N,07726.2621,W,1,08,0.99,148.8,M,-34.4,M,,*58
$GPRMC,145629.600,A,4308.3045,N,07726.2621,W,0.20,289.53,290319,,,A*7E
lng=-77.437705, lat=43.138412, altitude=148.80, speed=0.19, satellites=8, angle=296.7800, fixquality=1
$GPGGA,145629.800,4308.3045,N,07726.2621,W,1,08,0.99,148.9,M,-34.4,M,,*57
$GPRMC,145629.800,A,4308.3045,N,07726.2621,W,0.20,288.92,290319,,,A*7C
lng=-77.437705, lat=43.138412, altitude=148.90, speed=0.20, satellites=8, angle=289.5300, fixquality=1
$GPGGA,145630.000,4308.3045,N,07726.2621,W,1,08,0.99,148.9,M,-34.4,M,,*57
$GPRMC,145630.000,A,4308.3045,N,07726.2621,W,0.21,287.86,290319,,,A*77
lng=-77.437705, lat=43.138412, altitude=148.90, speed=0.20, satellites=8, angle=288.9200, fixquality=1
$GPGGA,145630.200,4308.3045,N,07726.2622,W,1,08,0.99,148.9,M,-34.4,M,,*56
$GPRMC,145630.200,A,4308.3045,N,07726.2622,W,0.23,283.83,290319,,,A*75
lng=-77.437705, lat=43.138412, altitude=148.90, speed=0.21, satellites=8, angle=287.8600, fixquality=1
$GPGGA,145630.400,4308.3045,N,07726.2622,W,1,08,0.99,148.9,M,-34.4,M,,*50
$GPRMC,145630.400,A,4308.3045,N,07726.2622,W,0.23,280.97,290319,,,A*75
lng=-77.437705, lat=43.138412, altitude=148.90, speed=0.23, satellites=8, angle=283.8300, fixquality=1
$GPGGA,145630.600,4308.3045,N,07726.2622,W,1,08,0.99,148.9,M,-34.4,M,,*52
$GPRMC,145630.600,A,4308.3045,N,07726.2622,W,0.14,293.06,290319,,,A*79
lng=-77.437705, lat=43.138412, altitude=148.90, speed=0.23, satellites=8, angle=280.9700, fixquality=1
$GPGGA,145630.800,4308.3045,N,07726.2622,W,1,08,0.99,149.0,M,-34.4,M,,*54
$GPRMC,145630.800,A,4308.3045,N,07726.2622,W,0.10,302.76,290319,,,A*7D
lng=-77.437705, lat=43.138412, altitude=149.00, speed=0.14, satellites=8, angle=293.0600, fixquality=1
$GPGGA,145631.000,4308.3045,N,07726.2622,W,1,08,0.99,149.0,M,-34.4,M,,*5D
$GPRMC,145631.000,A,4308.3045,N,07726.2622,W,0.08,285.69,290319,,,A*7D
lng=-77.437705, lat=43.138412, altitude=149.00, speed=0.10, satellites=8, angle=302.7600, fixquality=1
$GPGGA,145631.200,4308.3045,N,07726.2622,W,1,08,0.99,149.0,M,-34.4,M,,*5F
$GPRMC,145631.200,A,4308.3045,N,07726.2622,W,0.12,258.70,290319,,,A*7C
lng=-77.437705, lat=43.138412, altitude=149.00, speed=0.08, satellites=8, angle=285.6900, fixquality=1
$GPGGA,145631.400,4308.3045,N,07726.2622,W,1,08,0.98,149.0,M,-34.4,M,,*58
$GPRMC,145631.400,A,4308.3045,N,07726.2622,W,0.14,240.64,290319,,,A*70
lng=-77.437705, lat=43.138412, altitude=149.00, speed=0.12, satellites=8, angle=258.7000, fixquality=1
$GPGGA,145631.600,4308.3045,N,07726.2622,W,1,08,0.98,149.0,M,-34.4,M,,*5A
$GPRMC,145631.600,A,4308.3045,N,07726.2622,W,0.14,236.58,290319,,,A*7C
lng=-77.437705, lat=43.138412, altitude=149.00, speed=0.14, satellites=8, angle=240.6400, fixquality=1
$GPGGA,145631.800,4308.3045,N,07726.2622,W,1,08,0.98,149.0,M,-34.4,M,,*54
$GPRMC,145631.800,A,4308.3045,N,07726.2622,W,0.14,236.84,290319,,,A*73
lng=-77.437705, lat=43.138412, altitude=149.00, speed=0.14, satellites=8, angle=236.5800, fixquality=1
$GPGGA,145632.000,4308.3045,N,07726.2622,W,1,08,0.99,149.1,M,-34.4,M,,*5F
$GPRMC,145632.000,A,4308.3045,N,07726.2622,W,0.13,234.48,290319,,,A*7D
lng=-77.437705, lat=43.138412, altitude=149.10, speed=0.14, satellites=8, angle=236.8400, fixquality=1
$GPGGA,145632.200,4308.3045,N,07726.2622,W,1,08,0.98,149.1,M,-34.4,M,,*5C
$GPRMC,145632.200,A,4308.3045,N,07726.2622,W,0.08,240.18,290319
lng=-77.437705, lat=43.138412, altitude=149.10, speed=0.13, satellites=8, angle=234.4800, fixquality=1
$GPGGA,145632.400,4308.3045,N,07726.2622,W,1,08,0.99,149.2,M,-34.4,M,,*58
$GPRMC,145632.400,A,4308.3045,N,07726.2622,W,0.04,263.61,290319,,,A*76
lng=-77.437705, lat=43.138412, altitude=149.20, speed=0.08, satellites=8, angle=240.1800, fixquality=1
$GPGGA,145632.600,4308.3045,N,07726.2622,W,1,08,0.99,149.2,M,-34.4,M,,*5A
$GPRMC,145632.600,A,4308.3045,N,07726.2622,W,0.02,307.01,2903197
lng=-77.437705, lat=43.138412, altitude=149.20, speed=0.04, satellites=8, angle=263.6100, fixquality=1
$GPGGA,145632.800,4308.3045,N,07726.2621,W,1,08,0.98,149.3,M,-34.4,M,,*57
$GPRMC,145632.800,A,4308.3045,N,07726.2621,W,0.02,324.96,290319,,,A*75
lng=-77.437705, lat=43.138412, altitude=149.30, speed=0.02, satellites=8, angle=307.0100, fixquality=1
$GPGGA,145633.000,4308.3045,N,07726.2621,W,1,08,0.98,149.3,M,-34.4,M,,*5E
$GPRMC,145633.000,A,4308.3045,N,07726.2621,W,0.01,323.36,290319
lng=-77.437705, lat=43.138412, altitude=149.30, speed=0.02, satellites=8, angle=324.9600, fixquality=1
$GPGGA,145633.200,4308.3046,N,07726.2621,W,1,08,0.99,149.4,M,-34.4,M,,*59
$GPRMC,145633.200,A,4308.3046,N,07726.2621,W,0.01,92.39,290319,,,A*45
lng=-77.437705, lat=43.138412, altitude=149.40, speed=0.01, satellites=8, angle=323.3600, fixquality=1
$GPGGA,145633.400,4308.3046,N,07726.2621,W,1,08,0.99,149.5,M,-34.4,M,,*5E
$GPRMC,145633.400,A,4308.3046,N,07726.2621,W,0.01,170.30,290319,,,A*77
lng=-77.437705, lat=43.138412, altitude=149.50, speed=0.01, satellites=8, angle=92.3900, fixquality=1
$GPGGA,145633.600,4308.3046,N,07726.2621,W,1,08,0.98,149.5,M,-34.4,M,,*5D
$GPRMC,145633.600,A,4308.3046,N,07726.2621,W,0.05,210.71,290319,,,A*71
lng=-77.437705, lat=43.138412, altitude=149.50, speed=0.01, satellites=8, angle=170.3000, fixquality=1
$GPGGA,145633.800,4308.3046,N,07726.2620,W,1,08,0.98,149.6,M,-34.4,M,,*51
$GPRMC,145633.800,A,4308.3046,N,07726.2620,W,0.08,212.57,290319,,,A*75
lng=-77.437705, lat=43.138412, altitude=149.60, speed=0.05, satellites=8, angle=210.7100, fixquality=1
$GPGGA,145634.000,4308.3046,N,07726.2620,W,1,08,0.98,149.6,M,-34.4,M,,*5E
$GPRMC,145634.000,A,4308.3046,N,07726.2620,W,0.10,205.33,290319,,,A*77
lng=-77.437705, lat=43.138412, altitude=149.60, speed=0.08, satellites=8, angle=212.5700, fixquality=1
$GPGGA,145634.200,4308.3046,N,07726.2620,W,1,08,0.99,149.7,M,-34.4,M,,*5C
$GPRMC,145634.200,A,4308.3046,N,07726.2620,W,0.10,183.12,290319,,,A*7B
lng=-77.437705, lat=43.138412, altitude=149.70, speed=0.10, satellites=8, angle=205.3300, fixquality=1
$GPGGA,145634.400,4308.3046,N,07726.2619,W,1,08,0.98,149.8,M,-34.4,M,,*5E
$GPRMC,145634.400,A,4308.3046,N,07726.2619,W,0.08,177.89,290319,,,A*77
lng=-77.437698, lat=43.138412, altitude=149.80, speed=0.10, satellites=8, angle=183.1200, fixquality=1
$GPGGA,145634.600,4308.3046,N,07726.2619,W,1,08,0.99,149.8,M,-34.4,M,,*5D
$GPRMC,145634.600,A,4308.3046,N,07726.2619,W,0.04,205.63,290319,,,A*7B
lng=-77.437698, lat=43.138412, altitude=149.80, speed=0.08, satellites=8, angle=177.8900, fixquality=1
$GPGGA,145634.800,4308.3046,N,07726.2619,W,1,08,0.98,149.9,M,-34.4,M,,*53
$GPRMC,145634.800,A,4308.3046,N,07726.2619,W,0.03,222.23,290319,,,A*73
lng=-77.437698, lat=43.138412, altitude=149.90, speed=0.04, satellites=8, angle=205.6300, fixquality=1
$GPGGA,145635.000,4308.3046,N,07726.2619,W,1,08,0.99,149.9,M,-34.4,M,,*5B
$GPRMC,145635.000,A,4308.3046,N,07726.2619,W,0.03,206.06,290319,,,A*7B
lng=-77.437698, lat=43.138412, altitude=149.90, speed=0.03, satellites=8, angle=222.2300, fixquality=1
$GPGGA,145635.200,4308.3046,N,07726.2619,W,1,08,0.99,150.0,M,-34.4,M,,*58
$GPRMC,145635.200,A,4308.3046,N,07726.2619,W,0.04,207.18,290319,,,A*70
lng=-77.437698, lat=43.138412, altitude=150.00, speed=0.03, satellites=8, angle=206.0600, fixquality=1
$GPGGA,145635.400,4308.3046,N,07726.2618,W,1,08,0.98,150.0,M,-34.4,M,,*5E
$GPRMC,145635.400,A,4308.3046,N,07726.2618,W,0.06,206.74,290319,,,A*7E
lng=-77.437698, lat=43.138412, altitude=150.00, speed=0.04, satellites=8, angle=207.1800, fixquality=1
$GPGGA,145635.600,4308.3046,N,07726.2618,W,1,08,0.99,150.0,M,-34.4,M,,*5D
$GPRMC,145635.600,A,4308.3046,N,07726.2618,W,0.08,163.84,290319,,,A*7D
lng=-77.437698, lat=43.138412, altitude=150.00, speed=0.06, satellites=8, angle=206.7400, fixquality=1
$GPGGA,145635.800,4308.3046,N,07726.2617,W,1,08,0.98,150.1,M,-34.4,M,,*5C
$GPRMC,145635.800,A,4308.3046,N,07726.2617,W,0.12,144.32,290319,,,A*7F
lng=-77.437698, lat=43.138412, altitude=150.10, speed=0.08, satellites=8, angle=163.8400, fixquality=1
$GPGGA,145636.000,4308.3046,N,07726.2617,W,1,08,0.98,150.1,M,-34.4,M,,*57
$GPRMC,145636.000,A,4308.3046,N,07726.2617,W,0.15,133.91,290319,,,A*7A
lng=-77.437698, lat=43.138412, altitude=150.10, speed=0.12, satellites=8, angle=144.3200, fixquality=1
$GPGGA,145636.200,4308.3046,N,07726.2617,W,1,08,0.98,150.2,M,-34.4,M,,*56
$GPRMC,145636.200,A,4308.3046,N,07726.2617,W,0.15,137.97,290319,,,A*7A
lng=-77.437698, lat=43.138412, altitude=150.20, speed=0.15, satellites=8, angle=133.9100, fixquality=1
$GPGGA,145636.400,4308.3046,N,07726.2616,W,1,08,0.98,150.2,M,-34.4,M,,*51
$GPRMC,145636.400,A,4308.3046,N,07726.2616,W,0.15,152.03,290319,,,A*73
lng=-77.437698, lat=43.138412, altitude=150.20, speed=0.15, satellites=8, angle=137.9700, fixquality=1
$GPGGA,145636.600,4308.3046,N,07726.2616,W,1,08,0.98,150.2,M,-34.4,M,,*53
$GPRMC,145636.600,A,4308.3046,N,07726.2616,W,0.15,155.74,290319,,,A*76
lng=-77.437698, lat=43.138412, altitude=150.20, speed=0.15, satellites=8, angle=152.0300, fixquality=1
$GPGGA,145636.800,4308.3046,N,07726.2616,W,1,08,0.98,150.3,M,-34.4,M,,*5C
$GPRMC,145636.800,A,4308.3046,N,07726.2616,W,0.13,140.73,290319,,,A*7D
lng=-77.437698, lat=43.138412, altitude=150.30, speed=0.15, satellites=8, angle=155.7400, fixquality=1
$GPGGA,145637.000,4308.3046,N,07726.2616,W,1,08,0.98,150.3,M,-34.4,M,,*55
$GPRMC,145637.000,A,4308.3046,N,07726.2616,W,0.13,114.71,290319,,,A*77
lng=-77.437698, lat=43.138412, altitude=150.30, speed=0.13, satellites=8, angle=140.7300, fixquality=1
$GPGGA,145637.200,4308.3046,N,07726.2616,W,1,08,0.98,150.4,M,-34.4,M,,*50
$GPRMC,145637.200,A,4308.3046,N,07726.2616,W,0.11,118.63,290319,,,A*78
lng=-77.437698, lat=43.138412, altitude=150.40, speed=0.13, satellites=8, angle=114.7100, fixquality=1
$GPGGA,145637.400,4308.3046,N,07726.2616,W,1,08,0.98,150.4,M,-34.4,M,,*56
$GPRMC,145637.400,A,4308.3046,N,07726.2616,W,0.08,122.31,290319,,,A*78
lng=-77.437698, lat=43.138412, altitude=150.40, speed=0.11, satellites=8, angle=118.6300, fixquality=1
$GPGGA,145637.600,4308.3046,N,07726.2616,W,1,08,0.98,150.4,M,-34.4,M,,*54
$GPRMC,145637.600,A,4308.3046,N,07726.2616,W,0.06,118.98,290319,,,A*7E
lng=-77.437698, lat=43.138412, altitude=150.40, speed=0.08, satellites=8, angle=122.3100, fixquality=1
$GPGGA,145637.800,4308.3046,N,07726.2615,W,1,08,0.98,150.5,M,-34.4,M,,*58
$GPRMC,145637.800,A,4308.3046,N,07726.2615,W,0.05,124.25,290319,,,A*79
lng=-77.437698, lat=43.138412, altitude=150.50, speed=0.06, satellites=8, angle=118.9800, fixquality=1
$GPGGA,145638.000,4308.3046,N,07726.2615,W,1,08,0.99,150.5,M,-34.4,M,,*5E
$GPRMC,145638.000,A,4308.3046,N,07726.2615,W,0.05,168.14,2903194
lng=-77.437698, lat=43.138412, altitude=150.50, speed=0.05, satellites=8, angle=124.2500, fixquality=1
$GPGGA,145638.200,4308.3046,N,07726.2615,W,1,08,0.98,150.5,M,-34.4,M,,*5D
$GPRMC,145638.200,A,4308.3046,N,07726.2615,W,0.07,172.82,290319,,,A*70
lng=-77.437698, lat=43.138412, altitude=150.50, speed=0.05, satellites=8, angle=168.1400, fixquality=1
$GPGGA,145638.400,4308.3046,N,07726.2615,W,1,08,0.99,150.6,M,-34.4,M,,*59
$GPRMC,145638.400,A,4308.3046,N,07726.2615,W,0.06,146.90,2903193
lng=-77.437698, lat=43.138412, altitude=150.60, speed=0.07, satellites=8, angle=172.8200, fixquality=1
$GPGGA,145638.600,4308.3046,N,07726.2615,W,1,08,0.98,150.6,M,-34.4,M,,*5A
$GPRMC,145638.600,A,4308.3046,N,07726.2615,W,0.07,91.40,290319,,,A*46
lng=-77.437698, lat=43.138412, altitude=150.60, speed=0.06, satellites=8, angle=146.9000, fixquality=1
$GPGGA,145638.800,4308.3046,N,07726.2614,W,1,08,0.98,150.6,M,-34.4,M,,*55
$GPRMC,145638.800,A,4308.3046,N,07726.2614,W,0.09,92.04,290319,
lng=-77.437690, lat=43.138412, altitude=150.60, speed=0.07, satellites=8, angle=91.4000, fixquality=1
$GPGGA,145639.000,4308.3046,N,07726.2614,W,1,08,0.98,150.7,M,-34.4,M,,*5D
$GPRMC,145639.000,A,4308.3046,N,07726.2614,W,0.07,116.10,290319,,,A*7B
lng=-77.437690, lat=43.138412, altitude=150.70, speed=0.09, satellites=8, angle=92.0400, fixquality=1
$GPGGA,145639.200,4308.3045,N,07726.2614,W,1,08,0.98,150.7,M,-34.4,M,,*5C
$GPRMC,145639.200,A,4308.3045,N,07726.2614,W,0.09,158.30,290319,,,A*7C
lng=-77.437690, lat=43.138412, altitude=150.70, speed=0.07, satellites=8, angle=116.1000, fixquality=1
$GPGGA,145639.400,4308.3045,N,07726.2614,W,1,08,0.98,150.7,M,-34.4,M,,*5A
$GPRMC,145639.400,A,4308.3045,N,07726.2614,W,0.11,183.58,290319,,,A*7B
lng=-77.437690, lat=43.138412, altitude=150.70, speed=0.09, satellites=8, angle=158.3000, fixquality=1
$GPGGA,145639.600,4308.3045,N,07726.2614,W,1,08,0.98,150.8,M,-34.4,M,,*57
$GPRMC,145639.600,A,4308.3045,N,07726.2614,W,0.13,182.53,290319,,,A*71
lng=-77.437690, lat=43.138412, altitude=150.80, speed=0.11, satellites=8, angle=183.5800, fixquality=1
$GPGGA,145639.800,4308.3045,N,07726.2614,W,1,08,0.98,150.8,M,-34.4,M,,*59
$GPRMC,145639.800,A,4308.3045,N,07726.2614,W,0.12,182.25,290319,,,A*7F
lng=-77.437690, lat=43.138412, altitude=150.80, speed=0.13, satellites=8, angle=182.5300, fixquality=1
$GPGGA,145640.000,4308.3045,N,07726.2614,W,1,08,0.98,150.9,M,-34.4,M,,*5E
$GPRMC,145640.000,A,4308.3045,N,07726.2614,W,0.10,155.76,290319,,,A*77
lng=-77.437690, lat=43.138412, altitude=150.90, speed=0.12, satellites=8, angle=182.2500, fixquality=1
$GPGGA,145640.200,4308.3045,N,07726.2613,W,1,08,0.98,150.9,M,-34.4,M,,*5B
$GPRMC,145640.200,A,4308.3045,N,07726.2613,W,0.13,129.81,290319,,,A*72
lng=-77.437690, lat=43.138412, altitude=150.90, speed=0.10, satellites=8, angle=155.7600, fixquality=1
$GPGGA,145640.400,4308.3044,N,07726.2613,W,1,08,0.98,150.9,M,-34.4,M,,*5C
$GPRMC,145640.400,A,4308.3044,N,07726.2613,W,0.17,126.65,290319,,,A*74
lng=-77.437690, lat=43.138404, altitude=150.90, speed=0.13, satellites=8, angle=129.8100, fixquality=1
$GPGGA,145640.600,4308.3044,N,07726.2613,W,1,08,0.98,151.0,M,-34.4,M,,*56
$GPRMC,145640.600,A,4308.3044,N,07726.2613,W,0.17,124.70,290319,,,A*70
lng=-77.437690, lat=43.138404, altitude=151.00, speed=0.17, satellites=8, angle=126.6500, fixquality=1
$GPGGA,145640.800,4308.3045,N,07726.2613,W,1,08,0.98,151.0,M,-34.4,M,,*59
$GPRMC,145640.800,A,4308.3045,N,07726.2613,W,0.16,120.96,290319,,,A*72
lng=-77.437690, lat=43.138412, altitude=151.00, speed=0.17, satellites=8, angle=124.7000, fixquality=1
$GPGGA,145641.000,4308.3045,N,07726.2613,W,1,08,0.98,151.0,M,-34.4,M,,*50
$GPRMC,145641.000,A,4308.3045,N,07726.2613,W,0.13,112.00,290319,,,A*70
lng=-77.437690, lat=43.138412, altitude=151.00, speed=0.16, satellites=8, angle=120.9600, fixquality=1
$GPGGA,145641.200,4308.3046,N,07726.2613,W,1,08,0.98,151.1,M,-34.4,M,,*50
$GPRMC,145641.200,A,4308.3046,N,07726.2613,W,0.05,59.15,290319,,,A*4C
lng=-77.437690, lat=43.138412, altitude=151.10, speed=0.13, satellites=8, angle=112.0000, fixquality=1
$GPGGA,145641.400,4308.3046,N,07726.2614,W,1,08,0.98,151.1,M,-34.4,M,,*51
$GPRMC,145641.400,A,4308.3046,N,07726.2614,W,0.06,6.62,290319,,,A*74
lng=-77.437690, lat=43.138412, altitude=151.10, speed=0.05, satellites=8, angle=59.1500, fixquality=1
$GPGGA,145641.600,4308.3046,N,07726.2614,W,1,08,1.09,151.1,M,-34.4,M,,*5A
$GPRMC,145641.600,A,4308.3046,N,07726.2614,W,0.10,351.63,290319,,,A*71
lng=-77.437690, lat=43.138412, altitude=151.10, speed=0.06, satellites=8, angle=6.6200, fixquality=1
$GPGGA,145641.800,4308.3046,N,07726.2614,W,1,08,1.09,151.1,M,-34.4,M,,*54
$GPRMC,145641.800,A,4308.3046,N,07726.2614,W,0.10,347.53,290319,,,A*7B
lng=-77.437690, lat=43.138412, altitude=151.10, speed=0.10, satellites=8, angle=351.6300, fixquality=1
$GPGGA,145642.000,4308.3046,N,07726.2614,W,1,08,1.09,151.1,M,-34.4,M,,*5F
$GPRMC,145642.000,A,4308.3046,N,07726.2614,W,0.09,340.19,290319,,,A*71
lng=-77.437690, lat=43.138412, altitude=151.10, speed=0.10, satellites=8, angle=347.5300, fixquality=1
$GPGGA,145642.200,4308.3046,N,07726.2614,W,1,08,0.98,151.1,M,-34.4,M,,*54
$GPRMC,145642.200,A,4308.3046,N,07726.2614,W,0.08,335.83,290319,,,A*73
lng=-77.437690, lat=43.138412, altitude=151.10, speed=0.09, satellites=8, angle=340.1900, fixquality=1
$GPGGA,145642.400,4308.3046,N,07726.2614,W,1,08,0.98,151.2,M,-34.4,M,,*51
$GPRMC,145642.400,A,4308.3046,N,07726.2614,W,0.08,352.00,290319,,,A*7F
lng=-77.437690, lat=43.138412, altitude=151.20, speed=0.08, satellites=8, angle=335.8300, fixquality=1
$GPGGA,145642.600,4308.3046,N,07726.2614,W,1,08,1.09,151.2,M,-34.4,M,,*5A
$GPRMC,145642.600,A,4308.3046,N,07726.2614,W,0.05,11.70,290319,,,A*43
lng=-77.437690, lat=43.138412, altitude=151.20, speed=0.08, satellites=8, angle=352.0000, fixquality=1
$GPGGA,145642.800,4308.3046,N,07726.2613,W,1,08,1.09,151.2,M,-34.4,M,,*53
$GPRMC,145642.800,A,4308.3046,N,07726.2613,W,0.04,44.30,290319,,,A*4F
lng=-77.437690, lat=43.138412, altitude=151.20, speed=0.05, satellites=8, angle=11.7000, fixquality=1
$GPGGA,145643.000,4308.3046,N,07726.2613,W,1,08,0.98,151.2,M,-34.4,M,,*53
$GPRMC,145643.000,A,4308.3046,N,07726.2613,W,0.05,85.32,290319,,,A*48
lng=-77.437690, lat=43.138412, altitude=151.20, speed=0.04, satellites=8, angle=44.3000, fixquality=1
$GPGGA,145643.200,4308.3045,N,07726.2613,W,1,08,0.98,151.2,M,-34.4,M,,*52
$GPRMC,145643.200,A,4308.3045,N,07726.2613,W,0.08,118.15,290319,,,A*74
lng=-77.437690, lat=43.138412, altitude=151.20, speed=0.05, satellites=8, angle=85.3200, fixquality=1
$GPGGA,145643.400,4308.3045,N,07726.2613,W,1,08,0.98,151.3,M,-34.4,M,,*55
$GPRMC,145643.400,A,4308.3045,N,07726.2613,W,0.10,148.12,290319
lng=-77.437690, lat=43.138412, altitude=151.30, speed=0.08, satellites=8, angle=118.1500, fixquality=1
$GPGGA,145643.600,4308.3044,N,07726.2613,W,1,08,0.98,151.3,M,-34.4,M,,*56
$GPRMC,145643.600,A,4308.3044,N,07726.2613,W,0.14,160.79,290319,,,A*79
lng=-77.437690, lat=43.138404, altitude=151.30, speed=0.10, satellites=8, angle=148.1200, fixquality=1
$GPGGA,145643.800,4308.3044,N,07726.2613,W,1,08,0.98,151.3,M,-34.4,M,,*58
$GPRMC,145643.800,A,4308.3044,N,07726.2613,W,0.14,168.76,2903190
lng=-77.437690, lat=43.138404, altitude=151.30, speed=0.14, satellites=8, angle=160.7900, fixquality=1
$GPGGA,145644.000,4308.3044,N,07726.2612,W,1,08,0.98,151.3,M,-34.4,M,,*56
$GPRMC,145644.000,A,4308.3044,N,07726.2612,W,0.15,175.64,290319,,,A*70
lng=-77.437690, lat=43.138404, altitude=151.30, speed=0.14, satellites=8, angle=168.7600, fixquality=1
$GPGGA,145644.200,4308.3044,N,07726.2612,W,1,08,0.98,151.3,M,-34.4,M,,*54
$GPRMC,145644.200,A,4308.3044,N,07726.2612,W,0.14,179.00,290319D
lng=-77.437690, lat=43.138404, altitude=151.30, speed=0.15, satellites=8, angle=175.6400, fixquality=1
$GPGGA,145644.400,4308.3044,N,07726.2612,W,1,08,0.98,151.3,M,-34.4,M,,*52
$GPRMC,145644.400,A,4308.3044,N,07726.2612,W,0.12,187.49,290319,,,A*71
lng=-77.437690, lat=43.138404, altitude=151.30, speed=0.14, satellites=8, angle=179.0000, fixquality=1
$GPGGA,145644.600,4308.3044,N,07726.2612,W,1,08,0.98,151.3,M,-34.4,M,,*50
$GPRMC,145644.600,A,4308.3044,N,07726.2612,W,0.12,185.02,290319
lng=-77.437690, lat=43.138404, altitude=151.30, speed=0.12, satellites=8, angle=187.4900, fixquality=1
$GPGGA,145644.800,4308.3044,N,07726.2612,W,1,08,0.98,151.3,M,-34.4,M,,*5E
$GPRMC,145644.800,A,4308.3044,N,07726.2612,W,0.09,178.94,290319,,,A*77
lng=-77.437690, lat=43.138404, altitude=151.30, speed=0.12, satellites=8, angle=185.0200, fixquality=1
$GPGGA,145645.000,4308.3045,N,07726.2612,W,1,08,0.98,151.3,M,-34.4,M,,*56
$GPRMC,145645.000,A,4308.3045,N,07726.2612,W,0.07,147.21,290319,,,A*73
lng=-77.437690, lat=43.138412, altitude=151.30, speed=0.09, satellites=8, angle=178.9400, fixquality=1
$GPGGA,145645.200,4308.3045,N,07726.2612,W,1,08,0.98,151.4,M,-34.4,M,,*53
$GPRMC,145645.200,A,4308.3045,N,07726.2612,W,0.08,130.02,290319,,,A*7F
lng=-77.437690, lat=43.138412, altitude=151.40, speed=0.07, satellites=8, angle=147.2100, fixquality=1
$GPGGA,145645.400,4308.3045,N,07726.2611,W,1,08,0.98,151.4,M,-34.4,M,,*56
$GPRMC,145645.400,A,4308.3045,N,07726.2611,W,0.12,123.52,290319,,,A*76
lng=-77.437690, lat=43.138412, altitude=151.40, speed=0.08, satellites=8, angle=130.0200, fixquality=1
$GPGGA,145645.600,4308.3044,N,07726.2611,W,1,08,0.98,151.4,M,-34.4,M,,*55
$GPRMC,145645.600,A,4308.3044,N,07726.2611,W,0.17,122.53,290319,,,A*70
lng=-77.437690, lat=43.138404, altitude=151.40, speed=0.12, satellites=8, angle=123.5200, fixquality=1
$GPGGA,145645.800,4308.3044,N,07726.2611,W,1,08,0.98,151.4,M,-34.4,M,,*5B
$GPRMC,145645.800,A,4308.3044,N,07726.2611,W,0.17,129.84,290319,,,A*7F
lng=-77.437690, lat=43.138404, altitude=151.40, speed=0.17, satellites=8, angle=122.5300, fixquality=1
$GPGGA,145646.000,4308.3044,N,07726.2611,W,1,08,0.98,151.4,M,-34.4,M,,*50
$GPRMC,145646.000,A,4308.3044,N,07726.2611,W,0.12,138.88,290319,,,A*7D
lng=-77.437690, lat=43.138404, altitude=151.40, speed=0.17, satellites=8, angle=129.8400, fixquality=1
$GPGGA,145646.200,4308.3044,N,07726.2611,W,1,08,0.98,151.4,M,-34.4,M,,*52
$GPRMC,145646.200,A,4308.3044,N,07726.2611,W,0.08,129.32,290319,,,A*75
lng=-77.437690, lat=43.138404, altitude=151.40, speed=0.12, satellites=8, angle=138.8800, fixquality=1
$GPGGA,145646.400,4308.3044,N,07726.2611,W,1,08,0.98,151.4,M,-34.4,M,,*54
$GPRMC,145646.400,A,4308.3044,N,07726.2611,W,0.06,116.37,290319,,,A*74
lng=-77.437690, lat=43.138404, altitude=151.40, speed=0.08, satellites=8, angle=129.3200, fixquality=1
$GPGGA,145646.600,4308.3044,N,07726.2612,W,1,08,0.98,151.4,M,-34.4,M,,*55
$GPRMC,145646.600,A,4308.3044,N,07726.2612,W,0.07,167.88,290319,,,A*76
lng=-77.437690, lat=43.138404, altitude=151.40, speed=0.06, satellites=8, angle=116.3700, fixquality=1
$GPGGA,145646.800,4308.3044,N,07726.2612,W,1,08,0.98,151.4,M,-34.4,M,,*5B
$GPRMC,145646.800,A,4308.3044,N,07726.2612,W,0.08,179.99,290319,,,A*78
lng=-77.437690, lat=43.138404, altitude=151.40, speed=0.07, satellites=8, angle=167.8800, fixquality=1
$GPGGA,145647.000,4308.3044,N,07726.2612,W,1,08,0.98,151.4,M,-34.4,M,,*52
$GPRMC,145647.000,A,4308.3044,N,07726.2612,W,0.09,186.72,290319,,,A*75
lng=-77.437690, lat=43.138404, altitude=151.40, speed=0.08, satellites=8, angle=179.9900, fixquality=1
$GPGGA,145647.200,4308.3043,N,07726.2612,W,1,08,0.98,151.4,M,-34.4,M,,*57
$GPRMC,145647.200,A,4308.3043,N,07726.2612,W,0.12,191.64,290319,,,A*7B
lng=-77.437690, lat=43.138404, altitude=151.40, speed=0.09, satellites=8, angle=186.7200, fixquality=1
$GPGGA,145647.400,4308.3043,N,07726.2612,W,1,08,0.98,151.4,M,-34.4,M,,*51
$GPRMC,145647.400,A,4308.3043,N,07726.2612,W,0.18,194.07,290319,,,A*77
lng=-77.437690, lat=43.138404, altitude=151.40, speed=0.12, satellites=8, angle=191.6400, fixquality=1
$GPGGA,145647.600,4308.3042,N,07726.2612,W,1,08,0.98,151.4,M,-34.4,M,,*52
$GPRMC,145647.600,A,4308.3042,N,07726.2612,W,0.20,199.09,290319,,,A*7C
lng=-77.437690, lat=43.138404, altitude=151.40, speed=0.18, satellites=8, angle=194.0700, fixquality=1
$GPGGA,145647.800,4308.3042,N,07726.2612,W,1,08,0.98,151.4,M,-34.4,M,,*5C
$GPRMC,145647.800,A,4308.3042,N,07726.2612,W,0.22,197.86,290319,,,A*79
lng=-77.437690, lat=43.138404, altitude=151.40, speed=0.20, satellites=8, angle=199.0900, fixquality=1
$GPGGA,145648.000,4308.3042,N,07726.2612,W,1,08,0.98,151.4,M,-34.4,M,,*5B
$GPRMC,145648.000,A,4308.3042,N,07726.2612,W,0.19,205.14,290319,,,A*75
lng=-77.437690, lat=43.138404, altitude=151.40, speed=0.22, satellites=8, angle=197.8600, fixquality=1
$GPGGA,145648.200,4308.3043,N,07726.2613,W,1,08,0.98,151.4,M,-34.4,M,,*59
$GPRMC,145648.200,A,4308.3043,N,07726.2613,W,0.15,215.38,290319,,,A*74
lng=-77.437690, lat=43.138404, altitude=151.40, speed=0.19, satellites=8, angle=205.1400, fixquality=1
$GPGGA,145648.400,4308.3043,N,07726.2613,W,1,08,0.98,151.4,M,-34.4,M,,*5F
$GPRMC,145648.400,A,4308.3043,N,07726.2613,W,0.12,224.96,290319,,,A*73
lng=-77.437690, lat=43.138404, altitude=151.40, speed=0.15, satellites=8, angle=215.3800, fixquality=1
$GPGGA,145648.600,4308.3042,N,07726.2613,W,1,08,0.98,151.4,M,-34.4,M,,*5C
$GPRMC,145648.600,A,4308.3042,N,07726.2613,W,0.15,222.92,290319,,,A*75
lng=-77.437690, lat=43.138404, altitude=151.40, speed=0.12, satellites=8, angle=224.9600, fixquality=1
$GPGGA,145648.800,4308.3042,N,07726.2613,W,1,08,0.98,151.4,M,-34.4,M,,*52
$GPRMC,145648.800,A,4308.3042,N,07726.2613,W,0.14,223.04,290319,,,A*74
lng=-77.437690, lat=43.138404, altitude=151.40, speed=0.15, satellites=8, angle=222.9200, fixquality=1
$GPGGA,145649.000,4308.3043,N,07726.2613,W,1,08,0.98,151.4,M,-34.4,M,,*5A
$GPRMC,145649.000,A,4308.3043,N,07726.2613,W,0.09,231.76,290319,,,A*76
lng=-77.437690, lat=43.138404, altitude=151.40, speed=0.14, satellites=8, angle=223.0400, fixquality=1
$GPGGA,145649.200,4308.3043,N,07726.2613,W,1,08,0.98,151.4,M,-34.4,M,,*58
$GPRMC,145649.200,A,4308.3043,N,07726.2613,W,0.11,259.64,290319*70
lng=-77.437690, lat=43.138404, altitude=151.40, speed=0.09, satellites=8, angle=231.7600, fixquality=1
$GPGGA,145649.400,4308.3044,N,07726.2614,W,1,08,0.98,151.4,M,-34.4,M,,*5E
$GPRMC,145649.400,A,4308.3044,N,07726.2614,W,0.13,283.50,290319,,,A*74
lng=-77.437690, lat=43.138404, altitude=151.40, speed=0.09, satellites=8, angle=231.7600, fixquality=1
$GPGGA,145649.600,4308.3044,N,07726.2614,W,1,08,0.98,151.4,M,-34.4,M,,*5C
$GPRMC,145649.600,A,4308.3044,N,07726.2614,W,0.14,299.17,2903199
lng=-77.437690, lat=43.138404, altitude=151.40, speed=0.13, satellites=8, angle=283.5000, fixquality=1
$GPGGA,145649.800,4308.3044,N,07726.2614,W,1,08,0.98,151.4,M,-34.4,M,,*52
$GPRMC,145649.800,A,4308.3044,N,07726.2614,W,0.14,302.06,290319,,,A*74
lng=-77.437690, lat=43.138404, altitude=151.40, speed=0.14, satellites=8, angle=299.1700, fixquality=1
$GPGGA,145650.000,4308.3045,N,07726.2614,W,1,08,0.98,151.3,M,-34.4,M,,*54
$GPRMC,145650.000,A,4308.3045,N,07726.2614,W,0.14,303.60,290319*74
lng=-77.437690, lat=43.138412, altitude=151.30, speed=0.14, satellites=8, angle=302.0600, fixquality=1
$GPGGA,145650.200,4308.3044,N,07726.2613,W,1,08,0.98,151.3,M,-34.4,M,,*50
$GPRMC,145650.200,A,4308.3044,N,07726.2613,W,0.09,308.00,290319,,,A*71
lng=-77.437690, lat=43.138404, altitude=151.30, speed=0.14, satellites=8, angle=302.0600, fixquality=1
$GPGGA,145650.400,4308.3044,N,07726.2613,W,1,08,0.98,151.3,M,-34.4,M,,*56
$GPRMC,145650.400,A,4308.3044,N,07726.2613,W,0.03,282.94,2903193
lng=-77.437690, lat=43.138404, altitude=151.30, speed=0.09, satellites=8, angle=308.0000, fixquality=1
$GPGGA,145650.600,4308.3044,N,07726.2613,W,1,08,0.98,151.3,M,-34.4,M,,*54
$GPRMC,145650.600,A,4308.3044,N,07726.2613,W,0.03,203.29,290319,,,A*7E
lng=-77.437690, lat=43.138404, altitude=151.30, speed=0.03, satellites=8, angle=282.9400, fixquality=1
$GPGGA,145650.800,4308.3044,N,07726.2613,W,1,08,0.98,151.3,M,-34.4,M,,*5A
$GPRMC,145650.800,A,4308.3044,N,07726.2613,W,0.03,201.97,290319,,,A*77
lng=-77.437690, lat=43.138404, altitude=151.30, speed=0.03, satellites=8, angle=203.2900, fixquality=1
$GPGGA,145651.000,4308.3045,N,07726.2613,W,1,08,0.98,151.3,M,-34.4,M,,*52
$GPRMC,145651.000,A,4308.3045,N,07726.2613,W,0.05,201.21,290319,,,A*74
lng=-77.437690, lat=43.138412, altitude=151.30, speed=0.03, satellites=8, angle=201.9700, fixquality=1
$GPGGA,145651.200,4308.3045,N,07726.2613,W,1,08,0.98,151.3,M,-34.4,M,,*50
$GPRMC,145651.200,A,4308.3045,N,07726.2613,W,0.03,246.59,290319,,,A*7C
lng=-77.437690, lat=43.138412, altitude=151.30, speed=0.05, satellites=8, angle=201.2100, fixquality=1
$GPGGA,145651.400,4308.3046,N,07726.2613,W,1,08,0.98,151.3,M,-34.4,M,,*55
$GPRMC,145651.400,A,4308.3046,N,07726.2613,W,0.05,291.20,290319,,,A*7B
lng=-77.437690, lat=43.138412, altitude=151.30, speed=0.03, satellites=8, angle=246.5900, fixquality=1
$GPGGA,145651.600,4308.3047,N,07726.2614,W,1,08,0.98,151.2,M,-34.4,M,,*50
$GPRMC,145651.600,A,4308.3047,N,07726.2614,W,0.09,301.71,290319,,,A*7F
lng=-77.437690, lat=43.138412, altitude=151.20, speed=0.05, satellites=8, angle=291.2000, fixquality=1
$GPGGA,145651.800,4308.3047,N,07726.2614,W,1,08,0.98,151.2,M,-34.4,M,,*5E
$GPRMC,145651.800,A,4308.3047,N,07726.2614,W,0.11,289.41,290319,,,A*7A
lng=-77.437690, lat=43.138412, altitude=151.20, speed=0.09, satellites=8, angle=301.7100, fixquality=1
$GPGGA,145652.000,4308.3047,N,07726.2614,W,1,08,0.98,151.2,M,-34.4,M,,*55
$GPRMC,145652.000,A,4308.3047,N,07726.2614,W,0.12,288.29,290319,,,A*7D
lng=-77.437690, lat=43.138412, altitude=151.20, speed=0.11, satellites=8, angle=289.4100, fixquality=1
$GPGGA,145652.200,4308.3047,N,07726.2614,W,1,08,0.98,151.2,M,-34.4,M,,*57
$GPRMC,145652.200,A,4308.3047,N,07726.2614,W,0.12,286.64,290319,,,A*78
lng=-77.437690, lat=43.138412, altitude=151.20, speed=0.12, satellites=8, angle=288.2900, fixquality=1
$GPGGA,145652.400,4308.3047,N,07726.2614,W,1,08,0.98,151.2,M,-34.4,M,,*51
$GPRMC,145652.400,A,4308.3047,N,07726.2614,W,0.09,294.41,290319,,,A*70
lng=-77.437690, lat=43.138412, altitude=151.20, speed=0.12, satellites=8, angle=286.6400, fixquality=1
$GPGGA,145652.600,4308.3047,N,07726.2614,W,1,08,0.98,151.2,M,-34.4,M,,*53
$GPRMC,145652.600,A,4308.3047,N,07726.2614,W,0.03,322.09,290319,,,A*78
lng=-77.437690, lat=43.138412, altitude=151.20, speed=0.09, satellites=8, angle=294.4100, fixquality=1
$GPGGA,145652.800,4308.3047,N,07726.2614,W,1,08,0.98,151.2,M,-34.4,M,,*5D
$GPRMC,145652.800,A,4308.3047,N,07726.2614,W,0.02,68.99,290319,,,A*43
lng=-77.437690, lat=43.138412, altitude=151.20, speed=0.03, satellites=8, angle=322.0900, fixquality=1
$GPGGA,145653.000,4308.3047,N,07726.2614,W,1,08,0.98,151.2,M,-34.4,M,,*54
$GPRMC,145653.000,A,4308.3047,N,07726.2614,W,0.07,96.05,290319,,,A*4B
lng=-77.437690, lat=43.138412, altitude=151.20, speed=0.02, satellites=8, angle=68.9900, fixquality=1
$GPGGA,145653.200,4308.3047,N,07726.2614,W,1,08,0.98,151.2,M,-34.4,M,,*56
$GPRMC,145653.200,A,4308.3047,N,07726.2614,W,0.11,89.98,290319,,,A*44
lng=-77.437690, lat=43.138412, altitude=151.20, speed=0.07, satellites=8, angle=96.0500, fixquality=1
$GPGGA,145653.400,4308.3047,N,07726.2614,W,1,08,0.98,151.2,M,-34.4,M,,*50
$GPRMC,145653.400,A,4308.3047,N,07726.2614,W,0.10,84.83,290319,,,A*44
lng=-77.437690, lat=43.138412, altitude=151.20, speed=0.11, satellites=8, angle=89.9800, fixquality=1
$GPGGA,145653.600,4308.3047,N,07726.2614,W,1,08,0.98,151.2,M,-34.4,M,,*52
$GPRMC,145653.600,A,4308.3047,N,07726.2614,W,0.05,90.79,290319,,,A*42
lng=-77.437690, lat=43.138412, altitude=151.20, speed=0.10, satellites=8, angle=84.8300, fixquality=1
$GPGGA,145653.800,4308.3047,N,07726.2614,W,1,08,0.98,151.2,M,-34.4,M,,*5C
$GPRMC,145653.800,A,4308.3047,N,07726.2614,W,0.02,112.89,290319,,,A*7F
lng=-77.437690, lat=43.138412, altitude=151.20, speed=0.05, satellites=8, angle=90.7900, fixquality=1
$GPGGA,145654.000,4308.3047,N,07726.2614,W,1,08,0.98,151.2,M,-34.4,M,,*53
$GPRMC,145654.000,A,4308.3047,N,07726.2614,W,0.01,111.80,290319,,,A*79
lng=-77.437690, lat=43.138412, altitude=151.20, speed=0.02, satellites=8, angle=112.8900, fixquality=1
$GPGGA,145654.200,4308.3047,N,07726.2614,W,1,08,0.98,151.2,M,-34.4,M,,*51
$GPRMC,145654.200,A,4308.3047,N,07726.2614,W,0.02,88.96,290319,,,A*4E
lng=-77.437690, lat=43.138412, altitude=151.20, speed=0.01, satellites=8, angle=111.8000, fixquality=1
$GPGGA,145654.400,4308.3047,N,07726.2614,W,1,08,0.98,151.2,M,-34.4,M,,*57
$GPRMC,145654.400,A,4308.3047,N,07726.2614,W,0.03,36.06,290319,,,A*45
lng=-77.437690, lat=43.138412, altitude=151.20, speed=0.02, satellites=8, angle=88.9600, fixquality=1
$GPGGA,145654.600,4308.3047,N,07726.2614,W,1,08,0.98,151.2,M,-34.4,M,,*55
$GPRMC,145654.600,A,4308.3047,N,07726.2614,W,0.05,19.97,290319,,,A*44
lng=-77.437690, lat=43.138412, altitude=151.20, speed=0.03, satellites=8, angle=36.0600, fixquality=1
$GPGGA,145654.800,4308.3047,N,07726.2614,W,1,08,0.98,151.2,M,-34.4,M,,*5B
$GPRMC,145654.800,A,4308.3047,N,07726.2614,W,0.05,27.70,290319,,,A*4E
lng=-77.437690, lat=43.138412, altitude=151.20, speed=0.05, satellites=8, angle=19.9700, fixquality=1
$GPGGA,145655.000,4308.3047,N,07726.2614,W,1,08,0.98,151.2,M,-34.4,M,,*52
$GPRMC,145655.000,A,4308.3047,N,07726.2614,W,0.05,23.47,290319,47
lng=-77.437690, lat=43.138412, altitude=151.20, speed=0.05, satellites=8, angle=27.7000, fixquality=1
$GPGGA,145655.200,4308.3047,N,07726.2614,W,1,08,0.98,151.2,M,-34.4,M,,*50
$GPRMC,145655.200,A,4308.3047,N,07726.2614,W,0.03,357.13,290319,,,A*72
lng=-77.437690, lat=43.138412, altitude=151.20, speed=0.05, satellites=8, angle=23.4700, fixquality=1
$GPGGA,145655.400,4308.3047,N,07726.2614,W,1,08,1.08,151.2,M,-34.4,M,,*5E
$GPRMC,145655.400,A,4308.3047,N,07726.2614,W,0.04,250.79,2903199
lng=-77.437690, lat=43.138412, altitude=151.20, speed=0.03, satellites=8, angle=357.1300, fixquality=1
$GPGGA,145655.600,4308.3047,N,07726.2614,W,1,08,0.98,151.2,M,-34.4,M,,*54
$GPRMC,145655.600,A,4308.3047,N,07726.2614,W,0.07,239.25,290319,,,A*7E
lng=-77.437690, lat=43.138412, altitude=151.20, speed=0.04, satellites=8, angle=250.7900, fixquality=1
$GPGGA,145655.800,4308.3047,N,07726.2614,W,1,08,0.98,151.2,M,-34.4,M,,*5A
$GPRMC,145655.800,A,4308.3047,N,07726.2614,W,0.09,240.02,290319A*75
lng=-77.437690, lat=43.138412, altitude=151.20, speed=0.07, satellites=8, angle=239.2500, fixquality=1
$GPGGA,145656.000,4308.3047,N,07726.2614,W,1,08,0.98,151.2,M,-34.4,M,,*51
$GPRMC,145656.000,A,4308.3047,N,07726.2614,W,0.09,241.27,290319,,,A*78
lng=-77.437690, lat=43.138412, altitude=151.20, speed=0.07, satellites=8, angle=239.2500, fixquality=1
$GPGGA,145656.200,4308.3047,N,07726.2614,W,1,08,0.98,151.2,M,-34.4,M,,*53
$GPRMC,145656.200,A,4308.3047,N,07726.2614,W,0.07,219.24,290319,,,A*7A
lng=-77.437690, lat=43.138412, altitude=151.20, speed=0.09, satellites=8, angle=241.2700, fixquality=1
$GPGGA,145656.400,4308.3047,N,07726.2614,W,1,08,0.98,151.2,M,-34.4,M,,*55
$GPRMC,145656.400,A,4308.3047,N,07726.2614,W,0.07,211.52,290319,,,A*75
lng=-77.437690, lat=43.138412, altitude=151.20, speed=0.07, satellites=8, angle=219.2400, fixquality=1
$GPGGA,145656.600,4308.3047,N,07726.2614,W,1,08,0.98,151.2,M,-34.4,M,,*57
$GPRMC,145656.600,A,4308.3047,N,07726.2614,W,0.05,201.21,290319,,,A*70
lng=-77.437690, lat=43.138412, altitude=151.20, speed=0.07, satellites=8, angle=211.5200, fixquality=1
$GPGGA,145656.800,4308.3047,N,07726.2614,W,1,08,0.98,151.2,M,-34.4,M,,*59
$GPRMC,145656.800,A,4308.3047,N,07726.2614,W,0.03,180.87,290319,,,A*7E
lng=-77.437690, lat=43.138412, altitude=151.20, speed=0.05, satellites=8, angle=201.2100, fixquality=1
$GPGGA,145657.000,4308.3047,N,07726.2614,W,1,08,0.98,151.2,M,-34.4,M,,*50
$GPRMC,145657.000,A,4308.3047,N,07726.2614,W,0.06,166.68,290319,,,A*7B
lng=-77.437690, lat=43.138412, altitude=151.20, speed=0.03, satellites=8, angle=180.8700, fixquality=1
$GPGGA,145657.200,4308.3047,N,07726.2614,W,1,08,0.98,151.2,M,-34.4,M,,*52
$GPRMC,145657.200,A,4308.3047,N,07726.2614,W,0.08,169.52,290319,,,A*71
lng=-77.437690, lat=43.138412, altitude=151.20, speed=0.06, satellites=8, angle=166.6800, fixquality=1
$GPGGA,145657.400,4308.3047,N,07726.2614,W,1,08,0.98,151.2,M,-34.4,M,,*54
$GPRMC,145657.400,A,4308.3047,N,07726.2614,W,0.07,174.27,290319,,,A*76
lng=-77.437690, lat=43.138412, altitude=151.20, speed=0.08, satellites=8, angle=169.5200, fixquality=1
$GPGGA,145657.600,4308.3047,N,07726.2614,W,1,08,0.98,151.2,M,-34.4,M,,*56
$GPRMC,145657.600,A,4308.3047,N,07726.2614,W,0.05,137.40,290319,,,A*70
lng=-77.437690, lat=43.138412, altitude=151.20, speed=0.07, satellites=8, angle=174.2700, fixquality=1
$GPGGA,145657.800,4308.3047,N,07726.2614,W,1,08,0.98,151.2,M,-34.4,M,,*58
$GPRMC,145657.800,A,4308.3047,N,07726.2614,W,0.06,113.02,290319,,,A*7D
lng=-77.437690, lat=43.138412, altitude=151.20, speed=0.05, satellites=8, angle=137.4000, fixquality=1
$GPGGA,145658.000,4308.3047,N,07726.2614,W,1,08,0.98,151.2,M,-34.4,M,,*5F
$GPRMC,145658.000,A,4308.3047,N,07726.2614,W,0.10,66.50,290319,,,A*49
lng=-77.437690, lat=43.138412, altitude=151.20, speed=0.06, satellites=8, angle=113.0200, fixquality=1
$GPGGA,145658.200,4308.3047,N,07726.2614,W,1,08,0.98,151.2,M,-34.4,M,,*5D
$GPRMC,145658.200,A,4308.3047,N,07726.2614,W,0.18,28.26,290319,,,A*48
lng=-77.437690, lat=43.138412, altitude=151.20, speed=0.10, satellites=8, angle=66.5000, fixquality=1
$GPGGA,145658.400,4308.3047,N,07726.2614,W,1,08,0.98,151.2,M,-34.4,M,,*5B
$GPRMC,145658.400,A,4308.3047,N,07726.2614,W,0.30,21.58,290319,,,A*44
lng=-77.437690, lat=43.138412, altitude=151.20, speed=0.18, satellites=8, angle=28.2600, fixquality=1
$GPGGA,145658.600,4308.3047,N,07726.2614,W,1,08,0.98,151.2,M,-34.4,M,,*59
$GPRMC,145658.600,A,4308.3047,N,07726.2614,W,0.51,23.86,290319,,,A*40
lng=-77.437690, lat=43.138412, altitude=151.20, speed=0.30, satellites=8, angle=21.5800, fixquality=1
$GPGGA,145658.800,4308.3047,N,07726.2613,W,1,08,0.98,151.2,M,-34.4,M,,*50
$GPRMC,145658.800,A,4308.3047,N,07726.2613,W,0.62,26.39,290319,,,A*48
lng=-77.437690, lat=43.138412, altitude=151.20, speed=0.51, satellites=8, angle=23.8600, fixquality=1
$GPGGA,145659.000,4308.3049,N,07726.2613,W,1,08,0.98,151.2,M,-34.4,M,,*57
$GPRMC,145659.000,A,4308.3049,N,07726.2613,W,0.81,29.45,290319,,,A*46
lng=-77.437690, lat=43.138412, altitude=151.20, speed=0.62, satellites=8, angle=26.3900, fixquality=1
$GPGGA,145659.200,4308.3050,N,07726.2612,W,1,08,0.98,151.2,M,-34.4,M,,*5C
$GPRMC,145659.200,A,4308.3050,N,07726.2612,W,0.95,27.53,290319,,,A*41
lng=-77.437690, lat=43.138420, altitude=151.20, speed=0.81, satellites=8, angle=29.4500, fixquality=1
$GPGGA,145659.400,4308.3052,N,07726.2612,W,1,08,0.98,151.2,M,-34.4,M,,*58
$GPRMC,145659.400,A,4308.3052,N,07726.2612,W,1.05,28.58,290319,,,A*49
lng=-77.437690, lat=43.138420, altitude=151.20, speed=0.95, satellites=8, angle=27.5300, fixquality=1
$GPGGA,145659.600,4308.3053,N,07726.2611,W,1,08,0.98,151.1,M,-34.4,M,,*5B
$GPRMC,145659.600,A,4308.3053,N,07726.2611,W,1.18,28.30,290319,,,A*4B
lng=-77.437690, lat=43.138420, altitude=151.10, speed=1.05, satellites=8, angle=28.5800, fixquality=1
$GPGGA,145659.800,4308.3055,N,07726.2611,W,1,08,0.98,151.1,M,-34.4,M,,*53
$GPRMC,145659.800,A,4308.3055,N,07726.2611,W,1.25,28.05,290319,,,A*4B
lng=-77.437690, lat=43.138427, altitude=151.10, speed=1.18, satellites=8, angle=28.3000, fixquality=1
$GPGGA,145700.000,4308.3056,N,07726.2610,W,1,08,0.98,151.1,M,-34.4,M,,*54
$GPRMC,145700.000,A,4308.3056,N,07726.2610,W,1.37,26.23,290319,,,A*45
lng=-77.437690, lat=43.138427, altitude=151.10, speed=1.25, satellites=8, angle=28.0500, fixquality=1
$GPGGA,145700.200,4308.3058,N,07726.2610,W,1,08,0.98,151.1,M,-34.4,M,,*58
$GPRMC,145700.200,A,4308.3058,N,07726.2610,W,1.50,24.03,290319,,,A*48
lng=-77.437690, lat=43.138427, altitude=151.10, speed=1.37, satellites=8, angle=26.2300, fixquality=1
$GPGGA,145700.400,4308.3060,N,07726.2610,W,1,08,0.98,151.1,M,-34.4,M,,*55
$GPRMC,145700.400,A,4308.3060,N,07726.2610,W,1.77,22.40,290319,
lng=-77.437690, lat=43.138435, altitude=151.10, speed=1.50, satellites=8, angle=24.0300, fixquality=1
$GPGGA,145700.600,4308.3063,N,07726.2610,W,1,08,0.98,151.1,M,-34.4,M,,*54
$GPRMC,145700.600,A,4308.3063,N,07726.2610,W,2.09,16.14,290319,,,A*4C
lng=-77.437690, lat=43.138435, altitude=151.10, speed=1.77, satellites=8, angle=22.4000, fixquality=1
$GPGGA,145700.800,4308.3065,N,07726.2610,W,1,08,0.98,151.1,M,-34.4,M,,*5C
$GPRMC,145700.800,A,4308.3065,N,07726.2610,W,2.41,14.38,290319,
lng=-77.437690, lat=43.138442, altitude=151.10, speed=2.09, satellites=8, angle=16.1400, fixquality=1
$GPGGA,145701.000,4308.3069,N,07726.2610,W,1,08,1.08,151.1,M,-34.4,M,,*51
$GPRMC,145701.000,A,4308.3069,N,07726.2610,W,3.09,10.25,290319,,,A*44
lng=-77.437690, lat=43.138450, altitude=151.10, speed=2.41, satellites=8, angle=14.3800, fixquality=1
$GPGGA,145701.200,4308.3072,N,07726.2610,W,1,08,1.08,151.1,M,-34.4,M,,*59
$GPRMC,145701.200,A,4308.3072,N,07726.2610,W,3.56,5.06,290319,
lng=-77.437690, lat=43.138450, altitude=151.10, speed=3.09, satellites=8, angle=10.2500, fixquality=1
$GPGGA,145701.400,4308.3075,N,07726.2610,W,1,08,1.08,151.1,M,-34.4,M,,*58
$GPRMC,145701.400,A,4308.3075,N,07726.2610,W,3.84,4.35,290319,,,A*7C
lng=-77.437690, lat=43.138462, altitude=151.10, speed=3.56, satellites=8, angle=5.0600, fixquality=1
$GPGGA,145701.600,4308.3078,N,07726.2610,W,1,08,1.08,151.1,M,-34.4,M,,*57
$GPRMC,145701.600,A,4308.3078,N,07726.2610,W,3.99,4.00,290319,,,A*79
lng=-77.437690, lat=43.138462, altitude=151.10, speed=3.84, satellites=8, angle=4.3500, fixquality=1
$GPGGA,145701.800,4308.3080,N,07726.2610,W,1,08,1.08,151.1,M,-34.4,M,,*5E
$GPRMC,145701.800,A,4308.3080,N,07726.2610,W,4.09,3.78,290319,,,A*76
lng=-77.437690, lat=43.138469, altitude=151.10, speed=3.99, satellites=8, angle=4.0000, fixquality=1
$GPGGA,145702.000,4308.3083,N,07726.2610,W,1,08,1.08,151.2,M,-34.4,M,,*55
$GPRMC,145702.000,A,4308.3083,N,07726.2610,W,4.21,4.62,290319,,,A*78
lng=-77.437690, lat=43.138469, altitude=151.20, speed=4.09, satellites=8, angle=3.7800, fixquality=1
$GPGGA,145702.200,4308.3085,N,07726.2610,W,1,08,1.08,151.2,M,-34.4,M,,*51
$GPRMC,145702.200,A,4308.3085,N,07726.2610,W,4.26,5.80,290319,,,A*76
lng=-77.437690, lat=43.138477, altitude=151.20, speed=4.21, satellites=8, angle=4.6200, fixquality=1
$GPGGA,145702.400,4308.3088,N,07726.2609,W,1,08,1.08,151.2,M,-34.4,M,,*52
$GPRMC,145702.400,A,4308.3088,N,07726.2609,W,4.20,7.74,290319,,,A*7A
lng=-77.437675, lat=43.138477, altitude=151.20, speed=4.26, satellites=8, angle=5.8000, fixquality=1
$GPGGA,145702.600,4308.3090,N,07726.2609,W,1,08,1.08,151.2,M,-34.4,M,,*59
$GPRMC,145702.600,A,4308.3090,N,07726.2609,W,4.21,6.96,290319,,,A*7D
lng=-77.437675, lat=43.138484, altitude=151.20, speed=4.20, satellites=8, angle=7.7400, fixquality=1
$GPGGA,145702.800,4308.3093,N,07726.2609,W,1,08,1.08,151.2,M,-34.4,M,,*54
$GPRMC,145702.800,A,4308.3093,N,07726.2609,W,4.25,6.56,290319,,,A*78
lng=-77.437675, lat=43.138484, altitude=151.20, speed=4.21, satellites=8, angle=6.9600, fixquality=1
$GPGGA,145703.000,4308.3095,N,07726.2609,W,1,08,1.08,151.2,M,-34.4,M,,*5B
$GPRMC,145703.000,A,4308.3095,N,07726.2609,W,4.32,5.66,290319,,,A*71
lng=-77.437675, lat=43.138492, altitude=151.20, speed=4.25, satellites=8, angle=6.5600, fixquality=1
$GPGGA,145703.200,4308.3099,N,07726.2609,W,1,08,1.08,151.2,M,-34.4,M,,*55
$GPRMC,145703.200,A,4308.3099,N,07726.2609,W,4.63,5.68,290319,,,A*75
lng=-77.437675, lat=43.138500, altitude=151.20, speed=4.32, satellites=8, angle=5.6600, fixquality=1
$GPGGA,145703.400,4308.3102,N,07726.2608,W,1,08,1.08,151.2,M,-34.4,M,,*51
$GPRMC,145703.400,A,4308.3102,N,07726.2608,W,4.95,6.23,290319,,,A*74
lng=-77.437675, lat=43.138500, altitude=151.20, speed=4.63, satellites=8, angle=5.6800, fixquality=1
$GPGGA,145703.600,4308.3105,N,07726.2608,W,1,08,1.08,151.2,M,-34.4,M,,*54
$GPRMC,145703.600,A,4308.3105,N,07726.2608,W,4.96,3.74,290319,,,A*75
lng=-77.437675, lat=43.138507, altitude=151.20, speed=4.95, satellites=8, angle=6.2300, fixquality=1
$GPGGA,145703.800,4308.3108,N,07726.2608,W,1,08,1.08,151.2,M,-34.4,M,,*57
$GPRMC,145703.800,A,4308.3108,N,07726.2608,W,4.96,2.62,290319,,,A*70
lng=-77.437675, lat=43.138515, altitude=151.20, speed=4.96, satellites=8, angle=3.7400, fixquality=1
$GPGGA,145704.000,4308.3111,N,07726.2608,W,1,08,1.08,151.2,M,-34.4,M,,*50
$GPRMC,145704.000,A,4308.3111,N,07726.2608,W,4.91,3.48,290319,,,A*79
lng=-77.437675, lat=43.138515, altitude=151.20, speed=4.96, satellites=8, angle=2.6200, fixquality=1
$GPGGA,145704.200,4308.3114,N,07726.2608,W,1,08,1.08,151.2,M,-34.4,M,,*57
$GPRMC,145704.200,A,4308.3114,N,07726.2608,W,4.99,2.46,290319,,,A*79
lng=-77.437675, lat=43.138526, altitude=151.20, speed=4.91, satellites=8, angle=3.4800, fixquality=1
$GPGGA,145704.400,4308.3116,N,07726.2608,W,1,08,1.08,151.2,M,-34.4,M,,*53
$GPRMC,145704.400,A,4308.3116,N,07726.2608,W,4.93,0.24,290319,,,A*71
lng=-77.437675, lat=43.138526, altitude=151.20, speed=4.99, satellites=8, angle=2.4600, fixquality=1
$GPGGA,145704.600,4308.3119,N,07726.2608,W,1,08,1.08,151.2,M,-34.4,M,,*5E
$GPRMC,145704.600,A,4308.3119,N,07726.2608,W,4.85,359.40,2903196
lng=-77.437675, lat=43.138534, altitude=151.20, speed=4.93, satellites=8, angle=0.2400, fixquality=1
$GPGGA,145704.800,4308.3122,N,07726.2609,W,1,08,1.08,151.2,M,-34.4,M,,*59
$GPRMC,145704.800,A,4308.3122,N,07726.2609,W,5.02,357.67,290319,,,A*74
lng=-77.437675, lat=43.138534, altitude=151.20, speed=4.85, satellites=8, angle=359.4000, fixquality=1
$GPGGA,145705.000,4308.3126,N,07726.2609,W,1,08,1.08,151.3,M,-34.4,M,,*55
$GPRMC,145705.000,A,4308.3126,N,07726.2609,W,5.05,356.75,290319C
lng=-77.437675, lat=43.138542, altitude=151.30, speed=5.02, satellites=8, angle=357.6700, fixquality=1
$GPGGA,145705.200,4308.3128,N,07726.2610,W,1,08,1.08,151.3,M,-34.4,M,,*51
$GPRMC,145705.200,A,4308.3128,N,07726.2610,W,4.96,357.98,290319,,,A*71
lng=-77.437690, lat=43.138549, altitude=151.30, speed=5.05, satellites=8, angle=356.7500, fixquality=1
$GPGGA,145705.400,4308.3131,N,07726.2610,W,1,08,1.08,151.4,M,-34.4,M,,*58
$GPRMC,145705.400,A,4308.3131,N,07726.2610,W,5.18,359.74,290319
lng=-77.437690, lat=43.138549, altitude=151.40, speed=4.96, satellites=8, angle=357.9800, fixquality=1
$GPGGA,145705.600,4308.3134,N,07726.2610,W,1,08,1.08,151.4,M,-34.4,M,,*5F
$GPRMC,145705.600,A,4308.3134,N,07726.2610,W,4.92,357.77,290319,,,A*7D
lng=-77.437690, lat=43.138557, altitude=151.40, speed=5.18, satellites=8, angle=359.7400, fixquality=1
$GPGGA,145705.800,4308.3136,N,07726.2611,W,1,08,1.08,151.5,M,-34.4,M,,*53
$GPRMC,145705.800,A,4308.3136,N,07726.2611,W,4.73,354.66,290319,,,A*7C
lng=-77.437690, lat=43.138557, altitude=151.50, speed=4.92, satellites=8, angle=357.7700, fixquality=1
$GPGGA,145706.000,4308.3138,N,07726.2611,W,1,08,1.08,151.6,M,-34.4,M,,*55
$GPRMC,145706.000,A,4308.3138,N,07726.2611,W,4.33,352.45,290319,,,A*7A
lng=-77.437690, lat=43.138565, altitude=151.60, speed=4.73, satellites=8, angle=354.6600, fixquality=1
$GPGGA,145706.200,4308.3140,N,07726.2612,W,1,08,1.08,151.6,M,-34.4,M,,*5B
$GPRMC,145706.200,A,4308.3140,N,07726.2612,W,4.02,353.14,290319,,,A*73
lng=-77.437690, lat=43.138565, altitude=151.60, speed=4.33, satellites=8, angle=352.4500, fixquality=1
$GPGGA,145706.400,4308.3141,N,07726.2612,W,1,08,1.08,151.6,M,-34.4,M,,*5C
$GPRMC,145706.400,A,4308.3141,N,07726.2612,W,3.84,354.08,290319,,,A*77
lng=-77.437690, lat=43.138565, altitude=151.60, speed=4.02, satellites=8, angle=353.1400, fixquality=1
$GPGGA,145706.600,4308.3143,N,07726.2613,W,1,08,1.08,151.6,M,-34.4,M,,*5D
$GPRMC,145706.600,A,4308.3143,N,07726.2613,W,3.87,355.48,290319,,,A*70
lng=-77.437690, lat=43.138572, altitude=151.60, speed=3.84, satellites=8, angle=354.0800, fixquality=1
$GPGGA,145706.800,4308.3145,N,07726.2613,W,1,08,1.08,151.7,M,-34.4,M,,*54
$GPRMC,145706.800,A,4308.3145,N,07726.2613,W,3.88,356.13,290319,,,A*7A
lng=-77.437690, lat=43.138572, altitude=151.70, speed=3.87, satellites=8, angle=355.4800, fixquality=1
$GPGGA,145707.000,4308.3147,N,07726.2613,W,1,08,1.08,151.7,M,-34.4,M,,*5F
$GPRMC,145707.000,A,4308.3147,N,07726.2613,W,3.85,357.67,290319,,,A*7E
