Vers 57
USE_SERIAL_FEEDBACK=false
DEVELOPMENT_MODE=false
USE_RMC_ONLY=false

$GPRMC,145944.000,A,4308.5968,N,07729.5864,W,17.32,208.90,300319,,,A*40
$GPGGA,145944.200,4308.5961,N,07729.5869,W,1,08,1.03,118.9,M,-34.4,M,,*5D
lng=-77.493110, lat=43.143276, altitude=118.90, speed=17.32, satellites=8, angle=208.9000, fixquality=1
$GPRMC,145944.400,A,4308.5953,N,07729.5874,W,17.11,207.40,300319,,,A*4E
$GPGGA,145944.600,4308.5945,N,07729.5878,W,1,09,0.93,118.9,M,-34.4,M,,*56
lng=-77.493125, lat=43.143253, altitude=118.90, speed=17.11, satellites=8, angle=207.4000, fixquality=1
$GPRMC,145944.800,A,4308.5937,N,07729.5883,W,17.05,207.70,300319,,,A*4E
$GPGGA,145945.000,4308.5930,N,07729.5888,W,1,09,0.93,118.9,M,-34.4,M,,*5C
lng=-77.493141, lat=43.143230, altitude=118.90, speed=17.05, satellites=9, angle=207.7000, fixquality=1
$GPRMC,145945.200,A,4308.5923,N,07729.5894,W,16.92,207.45,300319,,,A*4F
$GPGGA,145945.400,4308.5915,N,07729.5900,W,1,09,0.93,118.9,M,-34.4,M,,*5E
lng=-77.493156, lat=43.143203, altitude=118.90, speed=16.92, satellites=9, angle=207.4500, fixquality=1
$GPRMC,145945.600,A,4308.5908,N,07729.5906,W,16.60,207.63,300319,,,A*41
$GPGGA,145945.800,4308.5900,N,07729.5911,W,1,09,0.93,118.9,M,-34.4,M,,*56
lng=-77.493179, lat=43.143180, altitude=118.90, speed=16.60, satellites=9, angle=207.6300, fixquality=1
$GPRMC,145946.000,A,4308.5893,N,07729.5916,W,16.42,206.87,300319,,,A*4D
$GPGGA,145946.200,4308.5885,N,07729.5922,W,1,09,0.93,119.0,M,-34.4,M,,*5B
lng=-77.493194, lat=43.143154, altitude=118.90, speed=16.42, satellites=9, angle=206.8700, fixquality=1
$GPRMC,145946.400,A,4308.5878,N,07729.5927,W,16.56,207.83,300319,,,A*4E
$GPGGA,145946.600,4308.5871,N,07729.5932,W,1,09,0.93,119.0,M,-34.4,M,,*55
lng=-77.493209, lat=43.143131, altitude=119.00, speed=16.56, satellites=9, angle=207.8300, fixquality=1
$GPRMC,145946.800,A,4308.5864,N,07729.5938,W,16.24,208.10,300319,,,A*41
$GPGGA,145947.000,4308.5856,N,07729.5944,W,1,09,0.93,119.0,M,-34.4,M,,*56
lng=-77.493232, lat=43.143108, altitude=119.00, speed=16.24, satellites=9, angle=208.1000, fixquality=1
$GPRMC,145947.200,A,4308.5849,N,07729.5951,W,16.86,208.24,300319,,,A*45
$GPGGA,145947.400,4308.5841,N,07729.5957,W,1,09,0.93,119.0,M,-34.4,M,,*56
lng=-77.493255, lat=43.143081, altitude=119.00, speed=16.86, satellites=9, angle=208.2400, fixquality=1
$GPRMC,145947.600,A,4308.5832,N,07729.5964,W,17.91,208.37,300319,,,A*4E
$GPGGA,145947.800,4308.5823,N,07729.5970,W,1,09,0.93,119.0,M,-34.4,M,,*5B
lng=-77.493270, lat=43.143051, altitude=119.00, speed=17.91, satellites=9, angle=208.3700, fixquality=1
$GPRMC,145948.000,A,4308.5814,N,07729.5977,W,18.94,208.07,300319,,,A*48
$GPGGA,145948.200,4308.5805,N,07729.5984,W,1,10,0.86,119.0,M,-34.4,M,,*5D
lng=-77.493293, lat=43.143024, altitude=119.00, speed=18.94, satellites=9, angle=208.0700, fixquality=1
$GPRMC,145948.400,A,4308.5795,N,07729.5991,W,19.55,208.52,300319,,,A*4E
$GPGGA,145948.600,4308.5786,N,07729.5998,W,1,10,0.86,119.0,M,-34.4,M,,*50
lng=-77.493316, lat=43.142993, altitude=119.00, speed=19.55, satellites=10, angle=208.5200, fixquality=1
$GPRMC,145948.800,A,4308.5776,N,07729.6006,W,20.26,209.52,300319,,,A*44
$GPGGA,145949.000,4308.5766,N,07729.6014,W,1,10,0.86,119.0,M,-34.4,M,,*57
lng=-77.493339, lat=43.142959, altitude=119.00, speed=20.26, satellites=10, angle=209.5200, fixquality=1
$GPRMC,145949.200,A,4308.5756,N,07729.6022,W,20.91,210.00,300319,,,A*48
$GPGGA,145949.400,4308.5745,N,07729.6030,W,1,10,0.86,119.0,M,-34.4,M,,*54
lng=-77.493370, lat=43.142929, altitude=119.00, speed=20.91, satellites=10, angle=210.0000, fixquality=1
$GPRMC,145949.600,A,4308.5734,N,07729.6038,W,21.60,209.29,300319,,,A*4F
$GPGGA,145949.800,4308.5722,N,07729.6046,W,1,10,0.86,119.0,M,-34.4,M,,*58
lng=-77.493400, lat=43.142887, altitude=119.00, speed=21.60, satellites=10, angle=209.2900, fixquality=1
$GPRMC,145950.000,A,4308.5711,N,07729.6055,W,22.21,208.38,300319,,,A*4A
$GPGGA,145950.200,4308.5700,N,07729.6064,W,1,09,0.93,119.0,M,-34.4,M,,*56
lng=-77.493423, lat=43.142856, altitude=119.00, speed=22.21, satellites=10, angle=208.3800, fixquality=1
$GPRMC,145950.400,A,4308.5689,N,07729.6073,W,22.39,208.72,300319,,,A*4D
$GPGGA,145950.600,4308.5679,N,07729.6082,W,1,09,0.93,118.9,M,-34.4,M,,*5D
lng=-77.493453, lat=43.142814, altitude=119.00, speed=22.39, satellites=9, angle=208.7200, fixquality=1
$GPRMC,145950.800,A,4308.5668,N,07729.6091,W,22.30,209.09,300319,,,A*46
$GPGGA,145951.000,4308.5657,N,07729.6100,W,1,09,0.93,119.0,M,-34.4,M,,*55
lng=-77.493484, lat=43.142780, altitude=118.90, speed=22.30, satellites=9, angle=209.0900, fixquality=1
$GPRMC,145951.200,A,4308.5646,N,07729.6108,W,22.22,208.07,300319,,,A*4C
$GPGGA,145951.400,4308.5636,N,07729.6116,W,1,09,0.93,119.0,M,-34.4,M,,*51
lng=-77.493515, lat=43.142742, altitude=119.00, speed=22.22, satellites=9, angle=208.0700, fixquality=1
$GPRMC,145951.600,A,4308.5626,N,07729.6123,W,21.95,207.70,300319,,,A*47
$GPGGA,145951.800,4308.5615,N,07729.6131,W,1,09,0.93,119.0,M,-34.4,M,,*59
lng=-77.493537, lat=43.142707, altitude=119.00, speed=21.95, satellites=9, angle=207.7000, fixquality=1
$GPRMC,145952.000,A,4308.5605,N,07729.6138,W,21.65,207.79,300319,,,A*4F
$GPGGA,145952.200,4308.5595,N,07729.6145,W,1,09,0.93,119.0,M,-34.4,M,,*58
lng=-77.493560, lat=43.142677, altitude=119.00, speed=21.65, satellites=9, angle=207.7900, fixquality=1
$GPRMC,145952.400,A,4308.5584,N,07729.6152,W,21.26,207.51,300319,,,A*40
$GPGGA,145952.600,4308.5574,N,07729.6159,W,1,09,1.02,119.0,M,-34.4,M,,*57
lng=-77.493583, lat=43.142642, altitude=119.00, speed=21.26, satellites=9, angle=207.5100, fixquality=1
$GPRMC,145952.800,A,4308.5564,N,07729.6166,W,20.77,207.36,300319,,,A*41
$GPGGA,145953.000,4308.5554,N,07729.6173,W,1,09,1.02,119.1,M,-34.4,M,,*5B
lng=-77.493614, lat=43.142612, altitude=119.00, speed=20.77, satellites=9, angle=207.3600, fixquality=1
$GPRMC,145953.200,A,4308.5544,N,07729.6179,W,20.39,207.05,300319,,,A*4C
$GPGGA,145953.400,4308.5534,N,07729.6186,W,1,09,0.93,119.1,M,-34.4,M,,*5A
lng=-77.493629, lat=43.142570, altitude=119.10, speed=20.39, satellites=9, angle=207.0500, fixquality=1
$GPRMC,145953.600,A,4308.5525,N,07729.6193,W,20.24,207.01,300319,,,A*43
$GPGGA,145953.800,4308.5515,N,07729.6200,W,1,09,1.02,119.2,M,-34.4,M,,*52
lng=-77.493652, lat=43.142543, altitude=119.10, speed=20.24, satellites=9, angle=207.0100, fixquality=1
$GPRMC,145954.000,A,4308.5505,N,07729.6207,W,20.35,207.63,300319,,,A*4A
$GPGGA,145954.200,4308.5495,N,07729.6214,W,1,09,1.02,119.2,M,-34.4,M,,*53
lng=-77.493675, lat=43.142505, altitude=119.20, speed=20.35, satellites=9, angle=207.6300, fixquality=1
$GPRMC,145954.400,A,4308.5485,N,07729.6222,W,20.55,208.13,300319,,,A*4E
$GPGGA,145954.600,4308.5475,N,07729.6229,W,1,09,0.93,119.2,M,-34.4,M,,*5E
lng=-77.493698, lat=43.142471, altitude=119.20, speed=20.55, satellites=9, angle=208.1300, fixquality=1
$GPRMC,145954.800,A,4308.5465,N,07729.6236,W,20.97,208.52,300319,,,A*42
$GPGGA,145955.000,4308.5455,N,07729.6244,W,1,09,1.02,119.3,M,-34.4,M,,*58
lng=-77.493728, lat=43.142440, altitude=119.20, speed=20.97, satellites=9, angle=208.5200, fixquality=1
$GPRMC,145955.200,A,4308.5444,N,07729.6252,W,21.34,208.81,300319,,,A*4E
$GPGGA,145955.400,4308.5434,N,07729.6260,W,1,09,0.93,119.3,M,-34.4,M,,*54
lng=-77.493751, lat=43.142406, altitude=119.30, speed=21.34, satellites=9, angle=208.8100, fixquality=1
$GPRMC,145955.600,A,4308.5423,N,07729.6267,W,21.66,208.28,300319,,,A*49
$GPGGA,145955.800,4308.5412,N,07729.6275,W,1,09,1.02,119.3,M,-34.4,M,,*51
lng=-77.493774, lat=43.142375, altitude=119.30, speed=21.66, satellites=9, angle=208.2800, fixquality=1
$GPRMC,145956.000,A,4308.5401,N,07729.6282,W,21.87,207.64,300319,,,A*4F
$GPGGA,145956.200,4308.5390,N,07729.6290,W,1,10,0.92,119.3,M,-34.4,M,,*5E
lng=-77.493804, lat=43.142333, altitude=119.30, speed=21.87, satellites=9, angle=207.6400, fixquality=1
$GPRMC,145956.400,A,4308.5380,N,07729.6298,W,21.76,207.51,300319,,,A*46
$GPGGA,145956.600,4308.5369,N,07729.6306,W,1,09,1.02,119.3,M,-34.4,M,,*52
lng=-77.493827, lat=43.142299, altitude=119.30, speed=21.76, satellites=10, angle=207.5100, fixquality=1
$GPRMC,145956.800,A,4308.5358,N,07729.6314,W,21.66,207.54,300319,,,A*4E
$GPGGA,145957.000,4308.5347,N,07729.6322,W,1,09,1.02,119.2,M,-34.4,M,,*5E
lng=-77.493858, lat=43.142261, altitude=119.30, speed=21.66, satellites=9, angle=207.5400, fixquality=1
$GPRMC,145957.200,A,4308.5337,N,07729.6329,W,21.60,207.69,300319,,,A*4A
$GPGGA,145957.400,4308.5326,N,07729.6337,W,1,09,0.93,119.2,M,-34.4,M,,*50
lng=-77.493881, lat=43.142227, altitude=119.20, speed=21.60, satellites=9, angle=207.6900, fixquality=1
$GPRMC,145957.600,A,4308.5316,N,07729.6344,W,21.58,207.69,300319,,,A*4D
$GPGGA,145957.800,4308.5305,N,07729.6352,W,1,09,0.93,119.2,M,-34.4,M,,*5E
lng=-77.493904, lat=43.142196, altitude=119.20, speed=21.58, satellites=9, angle=207.6900, fixquality=1
$GPRMC,145958.000,A,4308.5295,N,07729.6359,W,21.30,207.54,300319,,,A*42
$GPGGA,145958.200,4308.5284,N,07729.6367,W,1,09,0.93,119.2,M,-34.4,M,,*55
lng=-77.493927, lat=43.142154, altitude=119.20, speed=21.30, satellites=9, angle=207.5400, fixquality=1
$GPRMC,145958.400,A,4308.5274,N,07729.6374,W,20.90,207.24,300319,,,A*4A
$GPGGA,145958.600,4308.5264,N,07729.6381,W,1,09,0.93,119.2,M,-34.4,M,,*57
lng=-77.493949, lat=43.142124, altitude=119.20, speed=20.90, satellites=9, angle=207.2400, fixquality=1
$GPRMC,145958.800,A,4308.5254,N,07729.6388,W,20.55,207.02,300319,,,A*4A
$GPGGA,145959.000,4308.5244,N,07729.6394,W,1,09,1.02,119.2,M,-34.4,M,,*5F
lng=-77.493980, lat=43.142089, altitude=119.20, speed=20.55, satellites=9, angle=207.0200, fixquality=1
$GPRMC,145959.200,A,4308.5234,N,07729.6401,W,20.13,206.00,300319,,,A*40
$GPGGA,145959.400,4308.5224,N,07729.6407,W,1,08,0.98,119.1,M,-34.4,M,,*50
lng=-77.494003, lat=43.142055, altitude=119.20, speed=20.13, satellites=9, angle=206.0000, fixquality=1
$GPRMC,145959.600,A,4308.5213,N,07729.6413,W,19.94,205.26,300319,,,A*40
$GPGGA,145959.800,4308.5203,N,07729.6419,W,1,10,0.86,119.1,M,-34.4,M,,*50
lng=-77.494018, lat=43.142024, altitude=119.10, speed=19.94, satellites=8, angle=205.2600, fixquality=1
$GPRMC,150000.000,A,4308.5192,N,07729.6426,W,20.22,204.45,300319,,,A*48
$GPGGA,150000.200,4308.5181,N,07729.6432,W,1,10,0.86,119.1,M,-34.4,M,,*5B
lng=-77.494041, lat=43.141983, altitude=119.10, speed=20.22, satellites=10, angle=204.4500, fixquality=1
$GPRMC,150000.400,A,4308.5170,N,07729.6438,W,20.87,203.12,300319,,,A*45
$GPGGA,150000.600,4308.5158,N,07729.6443,W,1,10,0.86,119.1,M,-34.4,M,,*5D
lng=-77.494056, lat=43.141952, altitude=119.10, speed=20.87, satellites=10, angle=203.1200, fixquality=1
$GPRMC,150000.800,A,4308.5146,N,07729.6449,W,21.49,202.04,300319,,,A*4F
$GPGGA,150001.000,4308.5134,N,07729.6455,W,1,10,0.86,119.0,M,-34.4,M,,*56
lng=-77.494087, lat=43.141910, altitude=119.10, speed=21.49, satellites=10, angle=202.0400, fixquality=1
$GPRMC,150001.200,A,4308.5121,N,07729.6461,W,22.21,201.32,300319,,,A*44
$GPGGA,150001.400,4308.5109,N,07729.6467,W,1,10,0.86,119.0,M,-34.4,M,,*5D
lng=-77.494102, lat=43.141868, altitude=119.00, speed=22.21, satellites=10, angle=201.3200, fixquality=1
$GPRMC,150001.600,A,4308.5097,N,07729.6472,W,22.36,199.82,300319,,,A*41
$GPGGA,150001.800,4308.5084,N,07729.6477,W,1,10,0.86,118.9,M,-34.4,M,,*5C
lng=-77.494117, lat=43.141830, altitude=119.00, speed=22.36, satellites=10, angle=199.8200, fixquality=1
$GPRMC,150002.000,A,4308.5071,N,07729.6480,W,22.65,197.24,300319,,,A*45
$GPGGA,150002.200,4308.5057,N,07729.6483,W,1,10,0.86,118.9,M,-34.4,M,,*50
lng=-77.494132, lat=43.141788, altitude=118.90, speed=22.65, satellites=10, angle=197.2400, fixquality=1
$GPRMC,150002.400,A,4308.5043,N,07729.6485,W,23.17,194.19,300319,,,A*4C
$GPGGA,150002.600,4308.5030,N,07729.6487,W,1,10,0.86,118.9,M,-34.4,M,,*51
lng=-77.494140, lat=43.141738, altitude=118.90, speed=23.17, satellites=10, angle=194.1900, fixquality=1
$GPRMC,150002.800,A,4308.5016,N,07729.6489,W,23.41,191.43,300319,,,A*45
$GPGGA,150003.000,4308.5002,N,07729.6491,W,1,10,0.86,118.8,M,-34.4,M,,*51
lng=-77.494148, lat=43.141689, altitude=118.90, speed=23.41, satellites=10, angle=191.4300, fixquality=1
$GPRMC,150003.200,A,4308.4989,N,07729.6493,W,23.48,189.02,300319,,,A*4E
$GPGGA,150003.400,4308.4976,N,07729.6495,W,1,09,0.90,118.8,M,-34.4,M,,*55
lng=-77.494155, lat=43.141651, altitude=118.80, speed=23.48, satellites=10, angle=189.0200, fixquality=1
$GPRMC,150003.600,A,4308.4962,N,07729.6497,W,23.56,187.90,300319,,,A*41
$GPGGA,150003.800,4308.4949,N,07729.6497,W,1,08,0.98,118.7,M,-34.4,M,,*51
lng=-77.494163, lat=43.141601, altitude=118.80, speed=23.56, satellites=9, angle=187.9000, fixquality=1
$GPRMC,150004.000,A,4308.4936,N,07729.6498,W,23.46,186.04,300319,,,A*43
$GPGGA,150004.200,4308.4924,N,07729.6499,W,1,08,0.98,118.7,M,-34.4,M,,*59
lng=-77.494163, lat=43.141559, altitude=118.70, speed=23.46, satellites=8, angle=186.0400, fixquality=1
$GPRMC,150004.400,A,4308.4911,N,07729.6501,W,23.51,186.10,300319,,,A*40
$GPGGA,150004.600,4308.4898,N,07729.6503,W,1,08,0.98,118.6,M,-34.4,M,,*58
lng=-77.494163, lat=43.141521, altitude=118.70, speed=23.51, satellites=8, angle=186.1000, fixquality=1
$GPRMC,150004.800,A,4308.4885,N,07729.6505,W,23.71,186.51,300319,,,A*43
$GPGGA,150005.000,4308.4872,N,07729.6508,W,1,08,0.98,118.6,M,-34.4,M,,*50
lng=-77.494171, lat=43.141471, altitude=118.60, speed=23.71, satellites=8, angle=186.5100, fixquality=1
$GPRMC,150005.200,A,4308.4858,N,07729.6510,W,23.92,186.52,300319,,,A*42
$GPGGA,150005.400,4308.4843,N,07729.6512,W,1,09,0.90,118.5,M,-34.4,M,,*57
lng=-77.494178, lat=43.141429, altitude=118.60, speed=23.92, satellites=8, angle=186.5200, fixquality=1
$GPRMC,150005.600,A,4308.4829,N,07729.6513,W,24.21,185.84,300319,,,A*44
$GPGGA,150005.800,4308.4814,N,07729.6515,W,1,09,0.90,118.4,M,-34.4,M,,*5F
lng=-77.494186, lat=43.141380, altitude=118.50, speed=24.21, satellites=9, angle=185.8400, fixquality=1
$GPRMC,150006.000,A,4308.4800,N,07729.6517,W,24.60,185.80,300319,,,A*4F
$GPGGA,150006.200,4308.4785,N,07729.6518,W,1,10,0.86,118.3,M,-34.4,M,,*54
lng=-77.494194, lat=43.141334, altitude=118.40, speed=24.60, satellites=9, angle=185.8000, fixquality=1
$GPRMC,150006.400,A,4308.4772,N,07729.6519,W,24.44,185.15,300319,,,A*45
$GPGGA,150006.600,4308.4759,N,07729.6521,W,1,10,0.86,118.3,M,-34.4,M,,*5B
lng=-77.494194, lat=43.141284, altitude=118.30, speed=24.44, satellites=10, angle=185.1500, fixquality=1
$GPRMC,150006.800,A,4308.4746,N,07729.6522,W,24.14,184.68,300319,,,A*48
$GPGGA,150007.000,4308.4734,N,07729.6524,W,1,09,0.90,118.2,M,-34.4,M,,*5C
lng=-77.494209, lat=43.141242, altitude=118.30, speed=24.14, satellites=10, angle=184.6800, fixquality=1
$GPRMC,150007.200,A,4308.4721,N,07729.6526,W,23.81,184.82,300319,,,A*49
$GPGGA,150007.400,4308.4709,N,07729.6528,W,1,09,0.90,118.1,M,-34.4,M,,*59
lng=-77.494216, lat=43.141201, altitude=118.20, speed=23.81, satellites=9, angle=184.8200, fixquality=1
$GPRMC,150007.600,A,4308.4696,N,07729.6529,W,23.61,184.73,300319,,,A*4F
$GPGGA,150007.800,4308.4683,N,07729.6530,W,1,10,0.86,118.1,M,-34.4,M,,*50
lng=-77.494216, lat=43.141162, altitude=118.10, speed=23.61, satellites=9, angle=184.7300, fixquality=1
$GPRMC,150008.000,A,4308.4670,N,07729.6531,W,23.43,184.33,300319,,,A*43
$GPGGA,150008.200,4308.4657,N,07729.6531,W,1,10,0.86,118.0,M,-34.4,M,,*5C
lng=-77.494224, lat=43.141113, altitude=118.10, speed=23.43, satellites=10, angle=184.3300, fixquality=1
$GPRMC,150008.400,A,4308.4644,N,07729.6533,W,23.21,183.96,300319,,,A*4E
$GPGGA,150008.600,4308.4631,N,07729.6534,W,1,09,0.90,117.9,M,-34.4,M,,*54
lng=-77.494224, lat=43.141071, altitude=118.00, speed=23.21, satellites=10, angle=183.9600, fixquality=1
$GPRMC,150008.800,A,4308.4619,N,07729.6535,W,22.75,183.42,300319,,,A*45
$GPGGA,150009.000,4308.4607,N,07729.6537,W,1,09,0.90,117.9,M,-34.4,M,,*55
lng=-77.494224, lat=43.141033, altitude=117.90, speed=22.75, satellites=9, angle=183.4200, fixquality=1
$GPRMC,150009.200,A,4308.4595,N,07729.6537,W,21.98,182.50,300319,,,A*49
$GPGGA,150009.400,4308.4584,N,07729.6538,W,1,10,0.86,117.8,M,-34.4,M,,*58
lng=-77.494232, lat=43.140991, altitude=117.90, speed=21.98, satellites=9, angle=182.5000, fixquality=1
$GPRMC,150009.600,A,4308.4573,N,07729.6540,W,20.93,181.94,300319,,,A*44
$GPGGA,150009.800,4308.4562,N,07729.6541,W,1,10,0.86,117.7,M,-34.4,M,,*5D
lng=-77.494232, lat=43.140956, altitude=117.80, speed=20.93, satellites=10, angle=181.9400, fixquality=1
$GPRMC,150010.000,A,4308.4552,N,07729.6542,W,19.97,181.89,300319,,,A*49
$GPGGA,150010.200,4308.4542,N,07729.6543,W,1,10,0.86,117.6,M,-34.4,M,,*5E
lng=-77.494239, lat=43.140918, altitude=117.70, speed=19.97, satellites=10, angle=181.8900, fixquality=1
$GPRMC,150010.400,A,4308.4533,N,07729.6543,W,19.04,181.77,300319,,,A*40
$GPGGA,150010.600,4308.4523,N,07729.6543,W,1,09,0.93,117.6,M,-34.4,M,,*51
lng=-77.494239, lat=43.140884, altitude=117.60, speed=19.04, satellites=10, angle=181.7700, fixquality=1
$GPRMC,150010.800,A,4308.4514,N,07729.6542,W,17.91,179.77,300319,,,A*4D
$GPGGA,150011.000,4308.4506,N,07729.6543,W,1,08,0.98,117.5,M,-34.4,M,,*58
lng=-77.494239, lat=43.140853, altitude=117.60, speed=17.91, satellites=9, angle=179.7700, fixquality=1
$GPRMC,150011.200,A,4308.4498,N,07729.6544,W,16.68,178.91,300319,,,A*4B
$GPGGA,150011.400,4308.4491,N,07729.6538,W,1,09,0.93,117.5,M,-34.4,M,,*55
lng=-77.494239, lat=43.140827, altitude=117.50, speed=16.68, satellites=8, angle=178.9100, fixquality=1
$GPRMC,150011.600,A,4308.4482,N,07729.6533,W,15.54,178.98,300319,,,A*41
$GPGGA,150011.800,4308.4475,N,07729.6531,W,1,09,0.93,117.5,M,-34.4,M,,*5A
lng=-77.494224, lat=43.140804, altitude=117.50, speed=15.54, satellites=9, angle=178.9800, fixquality=1
$GPRMC,150012.000,A,4308.4467,N,07729.6530,W,14.06,178.41,300319,,,A*4E
$GPGGA,150012.200,4308.4460,N,07729.6530,W,1,09,0.93,117.5,M,-34.4,M,,*56
lng=-77.494216, lat=43.140781, altitude=117.50, speed=14.06, satellites=9, angle=178.4100, fixquality=1
$GPRMC,150012.400,A,4308.4454,N,07729.6528,W,12.91,178.82,300319,,,A*44
$GPGGA,150012.600,4308.4448,N,07729.6527,W,1,09,0.93,117.4,M,-34.4,M,,*5F
lng=-77.494216, lat=43.140754, altitude=117.50, speed=12.91, satellites=9, angle=178.8200, fixquality=1
$GPRMC,150012.800,A,4308.4444,N,07729.6528,W,11.34,175.52,300319,,,A*45
$GPGGA,150013.000,4308.4439,N,07729.6527,W,1,09,0.93,117.4,M,-34.4,M,,*5E
lng=-77.494216, lat=43.140739, altitude=117.40, speed=11.34, satellites=9, angle=175.5200, fixquality=1
$GPRMC,150013.200,A,4308.4436,N,07729.6528,W,10.11,172.68,300319,,,A*43
$GPGGA,150013.400,4308.4433,N,07729.6527,W,1,09,0.93,117.4,M,-34.4,M,,*50
lng=-77.494216, lat=43.140724, altitude=117.40, speed=10.11, satellites=9, angle=172.6800, fixquality=1
$GPRMC,150013.600,A,4308.4430,N,07729.6526,W,9.35,169.42,300319,,,A*73
$GPGGA,150013.800,4308.4429,N,07729.6524,W,1,09,0.93,117.4,M,-34.4,M,,*54
lng=-77.494216, lat=43.140712, altitude=117.40, speed=9.35, satellites=9, angle=169.4200, fixquality=1
$GPRMC,150014.000,A,4308.4427,N,07729.6523,W,8.55,165.28,300319,,,A*76
$GPGGA,150014.200,4308.4426,N,07729.6521,W,1,09,0.93,117.3,M,-34.4,M,,*54
lng=-77.494209, lat=43.140712, altitude=117.40, speed=8.55, satellites=9, angle=165.2800, fixquality=1
$GPRMC,150014.400,A,4308.4424,N,07729.6520,W,7.90,162.37,300319,,,A*7D
$GPGGA,150014.600,4308.4423,N,07729.6519,W,1,09,0.93,117.2,M,-34.4,M,,*5F
lng=-77.494194, lat=43.140705, altitude=117.30, speed=7.90, satellites=9, angle=162.3700, fixquality=1
$GPRMC,150014.800,A,4308.4423,N,07729.6518,W,6.92,161.80,300319,,,A*71
$GPGGA,150015.000,4308.4423,N,07729.6517,W,1,09,0.93,117.2,M,-34.4,M,,*56
lng=-77.494194, lat=43.140705, altitude=117.20, speed=6.92, satellites=9, angle=161.8000, fixquality=1
$GPRMC,150015.200,A,4308.4423,N,07729.6516,W,6.16,162.15,300319,,,A*77
$GPGGA,150015.400,4308.4421,N,07729.6515,W,1,09,0.93,117.1,M,-34.4,M,,*51
lng=-77.494186, lat=43.140705, altitude=117.20, speed=6.16, satellites=9, angle=162.1500, fixquality=1
$GPRMC,150015.600,A,4308.4420,N,07729.6514,W,5.61,163.42,300319,,,A*72
$GPGGA,150015.800,4308.4418,N,07729.6514,W,1,09,0.93,117.0,M,-34.4,M,,*57
lng=-77.494186, lat=43.140697, altitude=117.10, speed=5.61, satellites=9, angle=163.4200, fixquality=1
$GPRMC,150016.000,A,4308.4417,N,07729.6513,W,5.05,167.28,300319,,,A*7E
$GPGGA,150016.200,4308.4416,N,07729.6514,W,1,09,0.93,117.0,M,-34.4,M,,*50
lng=-77.494186, lat=43.140697, altitude=117.00, speed=5.05, satellites=9, angle=167.2800, fixquality=1
$GPRMC,150016.400,A,4308.4414,N,07729.6514,W,4.59,173.29,300319,,,A*72
$GPGGA,150016.600,4308.4413,N,07729.6514,W,1,08,0.98,116.9,M,-34.4,M,,*53
lng=-77.494186, lat=43.140689, altitude=117.00, speed=4.59, satellites=9, angle=173.2900, fixquality=1
$GPRMC,150016.800,A,4308.4413,N,07729.6515,W,4.23,181.22,300319,,,A*73
$GPGGA,150017.000,4308.4413,N,07729.6516,W,1,09,0.90,116.9,M,-34.4,M,,*5F
lng=-77.494186, lat=43.140689, altitude=116.90, speed=4.23, satellites=8, angle=181.2200, fixquality=1
$GPRMC,150017.200,A,4308.4413,N,07729.6517,W,4.42,192.51,300319,,,A*7B
$GPGGA,150017.400,4308.4410,N,07729.6518,W,1,08,0.98,116.8,M,-34.4,M,,*5E
lng=-77.494194, lat=43.140689, altitude=116.90, speed=4.42, satellites=9, angle=192.5100, fixquality=1
$GPRMC,150017.600,A,4308.4411,N,07729.6520,W,4.88,195.78,300319,,,A*73
$GPGGA,150017.800,4308.4409,N,07729.6521,W,1,08,0.98,116.7,M,-34.4,M,,*5F
lng=-77.494194, lat=43.140682, altitude=116.80, speed=4.88, satellites=8, angle=195.7800, fixquality=1
$GPRMC,150018.000,A,4308.4406,N,07729.6522,W,6.03,191.20,300319,,,A*76
$GPGGA,150018.200,4308.4404,N,07729.6525,W,1,09,0.90,116.6,M,-34.4,M,,*5B
lng=-77.494209, lat=43.140674, altitude=116.70, speed=6.03, satellites=8, angle=191.2000, fixquality=1
$GPRMC,150018.400,A,4308.4399,N,07729.6524,W,6.92,184.16,300319,,,A*7C
$GPGGA,150018.600,4308.4394,N,07729.6523,W,1,10,0.86,116.6,M,-34.4,M,,*58
lng=-77.494209, lat=43.140666, altitude=116.60, speed=6.92, satellites=9, angle=184.1600, fixquality=1
$GPRMC,150018.800,A,4308.4389,N,07729.6523,W,7.57,178.22,300319,,,A*7A
$GPGGA,150019.000,4308.4383,N,07729.6522,W,1,10,0.86,116.5,M,-34.4,M,,*5B
lng=-77.494209, lat=43.140647, altitude=116.60, speed=7.57, satellites=10, angle=178.2200, fixquality=1
$GPRMC,150019.200,A,4308.4376,N,07729.6518,W,8.30,171.56,300319,,,A*7D
$GPGGA,150019.400,4308.4368,N,07729.6515,W,1,10,0.86,116.5,M,-34.4,M,,*5E
lng=-77.494194, lat=43.140625, altitude=116.50, speed=8.30, satellites=10, angle=171.5600, fixquality=1
$GPRMC,150019.600,A,4308.4358,N,07729.6503,W,11.53,156.62,300319,,,A*40
$GPGGA,150019.800,4308.4350,N,07729.6499,W,1,10,0.86,116.5,M,-34.4,M,,*5C
lng=-77.494171, lat=43.140602, altitude=116.50, speed=11.53, satellites=10, angle=156.6200, fixquality=1
$GPRMC,150020.000,A,4308.4342,N,07729.6495,W,12.05,153.65,300319,,,A*4B
$GPGGA,150020.200,4308.4331,N,07729.6484,W,1,10,0.86,116.4,M,-34.4,M,,*56
lng=-77.494155, lat=43.140567, altitude=116.50, speed=12.05, satellites=10, angle=153.6500, fixquality=1
$GPRMC,150020.400,A,4308.4323,N,07729.6477,W,16.20,145.71,300319,,,A*45
$GPGGA,150020.600,4308.4316,N,07729.6467,W,1,10,0.86,116.4,M,-34.4,M,,*5A
lng=-77.494125, lat=43.140537, altitude=116.40, speed=16.20, satellites=10, angle=145.7100, fixquality=1
$GPRMC,150020.800,A,4308.4308,N,07729.6457,W,18.90,140.89,300319,,,A*45
$GPGGA,150021.000,4308.4300,N,07729.6446,W,1,10,0.86,116.4,M,-34.4,M,,*59
lng=-77.494094, lat=43.140510, altitude=116.40, speed=18.90, satellites=10, angle=140.8900, fixquality=1
$GPRMC,150021.200,A,4308.4291,N,07729.6435,W,21.08,138.60,300319,,,A*48
$GPGGA,150021.400,4308.4282,N,07729.6424,W,1,10,0.86,116.4,M,-34.4,M,,*52
lng=-77.494056, lat=43.140487, altitude=116.40, speed=21.08, satellites=10, angle=138.6000, fixquality=1
$GPRMC,150021.600,A,4308.4272,N,07729.6413,W,22.85,138.29,300319,,,A*4E
$GPGGA,150021.800,4308.4262,N,07729.6400,W,1,10,0.86,116.3,M,-34.4,M,,*51
lng=-77.494018, lat=43.140453, altitude=116.40, speed=22.85, satellites=10, angle=138.2900, fixquality=1
$GPRMC,150022.000,A,4308.4252,N,07729.6387,W,24.64,137.54,300319,,,A*4F
$GPGGA,150022.200,4308.4243,N,07729.6372,W,1,10,0.86,116.3,M,-34.4,M,,*59
lng=-77.493980, lat=43.140422, altitude=116.30, speed=24.64, satellites=10, angle=137.5400, fixquality=1
$GPRMC,150022.400,A,4308.4232,N,07729.6358,W,26.12,136.62,300319,,,A*48
$GPGGA,150022.600,4308.4223,N,07729.6342,W,1,10,0.86,116.4,M,-34.4,M,,*5F
lng=-77.493927, lat=43.140388, altitude=116.30, speed=26.12, satellites=10, angle=136.6200, fixquality=1
$GPRMC,150022.800,A,4308.4212,N,07729.6326,W,27.90,135.61,300319,,,A*44
$GPGGA,150023.000,4308.4200,N,07729.6310,W,1,10,0.86,116.4,M,-34.4,M,,*5E
lng=-77.493881, lat=43.140357, altitude=116.40, speed=27.90, satellites=10, angle=135.6100, fixquality=1
$GPRMC,150023.200,A,4308.4189,N,07729.6293,W,29.33,135.47,300319,,,A*42
$GPGGA,150023.400,4308.4178,N,07729.6274,W,1,10,0.86,116.4,M,-34.4,M,,*55
lng=-77.493820, lat=43.140316, altitude=116.40, speed=29.33, satellites=10, angle=135.4700, fixquality=1
$GPRMC,150023.600,A,4308.4168,N,07729.6253,W,30.90,132.08,300319,,,A*48
$GPGGA,150023.800,4308.4157,N,07729.6234,W,1,10,0.86,116.4,M,-34.4,M,,*50
lng=-77.493759, lat=43.140281, altitude=116.40, speed=30.90, satellites=10, angle=132.0800, fixquality=1
$GPRMC,150024.000,A,4308.4145,N,07729.6214,W,32.12,131.61,300319,,,A*41
$GPGGA,150024.200,4308.4133,N,07729.6194,W,1,10,0.86,116.5,M,-34.4,M,,*57
lng=-77.493690, lat=43.140243, altitude=116.40, speed=32.12, satellites=10, angle=131.6100, fixquality=1
$GPRMC,150024.400,A,4308.4121,N,07729.6175,W,33.06,131.28,300319,,,A*4A
$GPGGA,150024.600,4308.4109,N,07729.6154,W,1,10,0.86,116.5,M,-34.4,M,,*56
lng=-77.493629, lat=43.140201, altitude=116.50, speed=33.06, satellites=10, angle=131.2800, fixquality=1
$GPRMC,150024.800,A,4308.4098,N,07729.6134,W,33.61,131.08,300319,,,A*43
$GPGGA,150025.000,4308.4086,N,07729.6113,W,1,10,0.86,116.5,M,-34.4,M,,*54
lng=-77.493553, lat=43.140159, altitude=116.50, speed=33.61, satellites=10, angle=131.0800, fixquality=1
$GPRMC,150025.200,A,4308.4073,N,07729.6093,W,34.00,131.68,300319,,,A*47
$GPGGA,150025.400,4308.4061,N,07729.6073,W,1,10,0.86,116.6,M,-34.4,M,,*5D
lng=-77.493492, lat=43.140121, altitude=116.50, speed=34.00, satellites=10, angle=131.6800, fixquality=1
$GPRMC,150025.600,A,4308.4048,N,07729.6053,W,34.28,132.66,300319,,,A*40
$GPGGA,150025.800,4308.4034,N,07729.6034,W,1,10,0.86,116.6,M,-34.4,M,,*52
lng=-77.493423, lat=43.140079, altitude=116.60, speed=34.28, satellites=10, angle=132.6600, fixquality=1
$GPRMC,150026.000,A,4308.4020,N,07729.6015,W,34.51,133.95,300319,,,A*4A
$GPGGA,150026.200,4308.4007,N,07729.5996,W,1,10,0.86,116.6,M,-34.4,M,,*59
lng=-77.493362, lat=43.140029, altitude=116.60, speed=34.51, satellites=10, angle=133.9500, fixquality=1
$GPRMC,150026.400,A,4308.3993,N,07729.5977,W,35.28,134.99,300319,,,A*42
$GPGGA,150026.600,4308.3978,N,07729.5959,W,1,10,0.86,116.6,M,-34.4,M,,*58
lng=-77.493293, lat=43.139991, altitude=116.60, speed=35.28, satellites=10, angle=134.9900, fixquality=1
$GPRMC,150026.800,A,4308.3964,N,07729.5940,W,35.53,136.37,300319,,,A*48
$GPGGA,150027.000,4308.3949,N,07729.5921,W,1,10,0.86,116.6,M,-34.4,M,,*52
lng=-77.493240, lat=43.139942, altitude=116.60, speed=35.53, satellites=10, angle=136.3700, fixquality=1
$GPRMC,150027.200,A,4308.3934,N,07729.5903,W,35.61,137.91,300319,,,A*4D
$GPGGA,150027.400,4308.3919,N,07729.5886,W,1,10,0.86,116.6,M,-34.4,M,,*5F
lng=-77.493171, lat=43.139892, altitude=116.60, speed=35.61, satellites=10, angle=137.9100, fixquality=1
$GPRMC,150027.600,A,4308.3904,N,07729.5869,W,35.76,139.34,300319,,,A*40
$GPGGA,150027.800,4308.3888,N,07729.5852,W,1,10,0.86,116.5,M,-34.4,M,,*50
lng=-77.493118, lat=43.139842, altitude=116.60, speed=35.76, satellites=10, angle=139.3400, fixquality=1
$GPRMC,150028.000,A,4308.3872,N,07729.5835,W,35.83,141.42,300319,,,A*44
$GPGGA,150028.200,4308.3853,N,07729.5822,W,1,10,0.86,116.5,M,-34.4,M,,*54
lng=-77.493057, lat=43.139785, altitude=116.50, speed=35.83, satellites=10, angle=141.4200, fixquality=1
$GPRMC,150028.400,A,4308.3835,N,07729.5809,W,36.05,144.77,300319,,,A*42
$GPGGA,150028.600,4308.3817,N,07729.5794,W,1,10,0.86,116.6,M,-34.4,M,,*51
lng=-77.493019, lat=43.139720, altitude=116.50, speed=36.05, satellites=10, angle=144.7700, fixquality=1
$GPRMC,150028.800,A,4308.3798,N,07729.5779,W,36.27,146.53,300319,,,A*4A
$GPGGA,150029.000,4308.3778,N,07729.5765,W,1,10,0.86,116.7,M,-34.4,M,,*5F
lng=-77.492965, lat=43.139663, altitude=116.60, speed=36.27, satellites=10, angle=146.5300, fixquality=1
$GPRMC,150029.200,A,4308.3758,N,07729.5751,W,37.53,149.33,300319,,,A*4C
$GPGGA,150029.400,4308.3740,N,07729.5737,W,1,10,0.86,116.6,M,-34.4,M,,*56
lng=-77.492919, lat=43.139598, altitude=116.70, speed=37.53, satellites=10, angle=149.3300, fixquality=1
$GPRMC,150029.600,A,4308.3722,N,07729.5723,W,37.60,150.29,300319,,,A*43
$GPGGA,150029.800,4308.3704,N,07729.5708,W,1,10,0.86,116.5,M,-34.4,M,,*55
lng=-77.492874, lat=43.139533, altitude=116.60, speed=37.60, satellites=10, angle=150.2900, fixquality=1
$GPRMC,150030.000,A,4308.3685,N,07729.5694,W,37.73,151.23,300319,,,A*45
$GPGGA,150030.200,4308.3666,N,07729.5681,W,1,10,0.86,116.5,M,-34.4,M,,*52
lng=-77.492820, lat=43.139476, altitude=116.50, speed=37.73, satellites=10, angle=151.2300, fixquality=1
$GPRMC,150030.400,A,4308.3648,N,07729.5669,W,37.90,152.89,300319,,,A*4C
$GPGGA,150030.600,4308.3628,N,07729.5656,W,1,10,0.86,116.4,M,-34.4,M,,*57
lng=-77.492782, lat=43.139411, altitude=116.50, speed=37.90, satellites=10, angle=152.8900, fixquality=1
$GPRMC,150030.800,A,4308.3609,N,07729.5644,W,38.19,154.70,300319,,,A*44
$GPGGA,150031.000,4308.3589,N,07729.5632,W,1,10,0.86,116.3,M,-34.4,M,,*5D
lng=-77.492744, lat=43.139347, altitude=116.40, speed=38.19, satellites=10, angle=154.7000, fixquality=1
$GPRMC,150031.200,A,4308.3569,N,07729.5620,W,38.32,156.94,300319,,,A*49
$GPGGA,150031.400,4308.3549,N,07729.5609,W,1,09,0.90,116.2,M,-34.4,M,,*53
lng=-77.492698, lat=43.139282, altitude=116.30, speed=38.32, satellites=10, angle=156.9400, fixquality=1
$GPRMC,150031.600,A,4308.3529,N,07729.5599,W,38.44,159.62,300319,,,A*4F
$GPGGA,150031.800,4308.3509,N,07729.5589,W,1,10,0.86,116.1,M,-34.4,M,,*5C
lng=-77.492668, lat=43.139217, altitude=116.20, speed=38.44, satellites=9, angle=159.6200, fixquality=1
$GPRMC,150032.000,A,4308.3488,N,07729.5578,W,39.50,161.14,300319,,,A*41
$GPGGA,150032.200,4308.3467,N,07729.5567,W,1,10,0.86,116.0,M,-34.4,M,,*5D
lng=-77.492630, lat=43.139144, altitude=116.10, speed=39.50, satellites=10, angle=161.1400, fixquality=1
$GPRMC,150032.400,A,4308.3446,N,07729.5557,W,39.35,162.20,300319,,,A*4D
$GPGGA,150032.600,4308.3426,N,07729.5547,W,1,10,0.86,115.8,M,-34.4,M,,*55
lng=-77.492591, lat=43.139080, altitude=116.00, speed=39.35, satellites=10, angle=162.2000, fixquality=1
$GPRMC,150032.800,A,4308.3406,N,07729.5536,W,40.29,163.23,300319,,,A*43
$GPGGA,150033.000,4308.3384,N,07729.5526,W,1,09,0.90,115.3,M,-34.4,M,,*5E
lng=-77.492561, lat=43.139015, altitude=115.80, speed=40.29, satellites=10, angle=163.2300, fixquality=1
$GPRMC,150033.200,A,4308.3362,N,07729.5516,W,40.87,163.62,300319,,,A*4E
$GPGGA,150033.400,4308.3340,N,07729.5506,W,1,10,0.86,115.0,M,-34.4,M,,*5C
lng=-77.492530, lat=43.138938, altitude=115.30, speed=40.87, satellites=9, angle=163.6200, fixquality=1
$GPRMC,150033.600,A,4308.3317,N,07729.5497,W,41.56,165.21,300319,,,A*4C
$GPGGA,150033.800,4308.3294,N,07729.5488,W,1,09,0.90,114.6,M,-34.4,M,,*57
lng=-77.492500, lat=43.138858, altitude=115.00, speed=41.56, satellites=10, angle=165.2100, fixquality=1
$GPRMC,150034.000,A,4308.3271,N,07729.5480,W,41.98,166.16,300319,,,A*4F
$GPGGA,150034.200,4308.3248,N,07729.5474,W,1,09,0.90,114.3,M,-34.4,M,,*5D
lng=-77.492462, lat=43.138786, altitude=114.60, speed=41.98, satellites=9, angle=166.1600, fixquality=1
$GPRMC,150034.400,A,4308.3226,N,07729.5466,W,41.99,166.61,300319,,,A*40
$GPGGA,150034.600,4308.3202,N,07729.5458,W,1,10,0.86,113.9,M,-34.4,M,,*5B
lng=-77.492439, lat=43.138713, altitude=114.30, speed=41.99, satellites=9, angle=166.6100, fixquality=1
$GPRMC,150034.800,A,4308.3179,N,07729.5451,W,42.22,167.33,300319,,,A*44
$GPGGA,150035.000,4308.3155,N,07729.5444,W,1,10,0.86,113.5,M,-34.4,M,,*5C
lng=-77.492416, lat=43.138629, altitude=113.90, speed=42.22, satellites=10, angle=167.3300, fixquality=1
$GPRMC,150035.200,A,4308.3131,N,07729.5437,W,42.50,168.13,300319,,,A*4B
$GPGGA,150035.400,4308.3108,N,07729.5430,W,1,10,0.86,113.1,M,-34.4,M,,*57
lng=-77.492401, lat=43.138549, altitude=113.50, speed=42.50, satellites=10, angle=168.1300, fixquality=1
$GPRMC,150035.600,A,4308.3084,N,07729.5423,W,42.64,168.27,300319,,,A*45
$GPGGA,150035.800,4308.3061,N,07729.5416,W,1,10,0.86,112.8,M,-34.4,M,,*59
lng=-77.492378, lat=43.138477, altitude=113.10, speed=42.64, satellites=10, angle=168.2700, fixquality=1
$GPRMC,150036.000,A,4308.3037,N,07729.5410,W,42.71,168.38,300319,,,A*42
$GPGGA,150036.200,4308.3014,N,07729.5403,W,1,10,0.86,112.5,M,-34.4,M,,*5B
lng=-77.492347, lat=43.138393, altitude=112.80, speed=42.71, satellites=10, angle=168.3800, fixquality=1
$GPRMC,150036.400,A,4308.2991,N,07729.5397,W,42.80,168.38,300319,,,A*44
$GPGGA,150036.600,4308.2968,N,07729.5390,W,1,10,0.86,112.1,M,-34.4,M,,*55
lng=-77.492324, lat=43.138320, altitude=112.50, speed=42.80, satellites=10, angle=168.3800, fixquality=1
$GPRMC,150036.800,A,4308.2945,N,07729.5383,W,42.91,168.41,300319,,,A*4A
$GPGGA,150037.000,4308.2921,N,07729.5376,W,1,10,0.86,111.8,M,-34.4,M,,*5D
lng=-77.492301, lat=43.138240, altitude=112.10, speed=42.91, satellites=10, angle=168.4100, fixquality=1
$GPRMC,150037.200,A,4308.2897,N,07729.5369,W,43.10,168.72,300319,,,A*43
$GPGGA,150037.400,4308.2874,N,07729.5363,W,1,10,0.86,111.5,M,-34.4,M,,*51
lng=-77.492286, lat=43.138160, altitude=111.80, speed=43.10, satellites=10, angle=168.7200, fixquality=1
$GPRMC,150037.600,A,4308.2851,N,07729.5356,W,43.02,168.71,300319,,,A*41
$GPGGA,150037.800,4308.2828,N,07729.5350,W,1,10,0.86,111.2,M,-34.4,M,,*53
lng=-77.492263, lat=43.138084, altitude=111.50, speed=43.02, satellites=10, angle=168.7100, fixquality=1
$GPRMC,150038.000,A,4308.2806,N,07729.5344,W,42.81,168.82,300319,,,A*4F
$GPGGA,150038.200,4308.2783,N,07729.5338,W,1,10,0.86,110.9,M,-34.4,M,,*5C
lng=-77.492233, lat=43.138011, altitude=111.20, speed=42.81, satellites=10, angle=168.8200, fixquality=1
$GPRMC,150038.400,A,4308.2760,N,07729.5331,W,42.71,168.67,300319,,,A*42
$GPGGA,150038.600,4308.2737,N,07729.5326,W,1,10,0.86,110.6,M,-34.4,M,,*57
lng=-77.492218, lat=43.137931, altitude=110.90, speed=42.71, satellites=10, angle=168.6700, fixquality=1
$GPRMC,150038.800,A,4308.2714,N,07729.5320,W,42.59,168.82,300319,,,A*4C
$GPGGA,150039.000,4308.2692,N,07729.5314,W,1,09,0.90,110.4,M,-34.4,M,,*52
lng=-77.492202, lat=43.137859, altitude=110.60, speed=42.59, satellites=10, angle=168.8200, fixquality=1
$GPRMC,150039.200,A,4308.2669,N,07729.5309,W,42.00,168.40,300319,,,A*45
$GPGGA,150039.400,4308.2646,N,07729.5303,W,1,10,0.86,110.1,M,-34.4,M,,*53
lng=-77.492179, lat=43.137783, altitude=110.40, speed=42.00, satellites=9, angle=168.4000, fixquality=1
$GPRMC,150039.600,A,4308.2623,N,07729.5297,W,42.01,168.56,300319,,,A*4F
$GPGGA,150039.800,4308.2601,N,07729.5292,W,1,10,0.86,109.9,M,-34.4,M,,*55
lng=-77.492164, lat=43.137702, altitude=110.10, speed=42.01, satellites=10, angle=168.5600, fixquality=1
$GPRMC,150040.000,A,4308.2578,N,07729.5285,W,41.81,168.66,300319,,,A*41
$GPGGA,150040.200,4308.2555,N,07729.5279,W,1,10,0.86,109.6,M,-34.4,M,,*59
lng=-77.492141, lat=43.137630, altitude=109.90, speed=41.81, satellites=10, angle=168.6600, fixquality=1
$GPRMC,150040.400,A,4308.2533,N,07729.5272,W,41.70,168.34,300319,,,A*4B
$GPGGA,150040.600,4308.2510,N,07729.5266,W,1,10,0.86,109.4,M,-34.4,M,,*50
lng=-77.492118, lat=43.137557, altitude=109.60, speed=41.70, satellites=10, angle=168.3400, fixquality=1
$GPRMC,150040.800,A,4308.2487,N,07729.5259,W,41.90,168.48,300319,,,A*45
$GPGGA,150041.000,4308.2464,N,07729.5253,W,1,10,0.86,109.1,M,-34.4,M,,*56
lng=-77.492095, lat=43.137474, altitude=109.40, speed=41.90, satellites=10, angle=168.4800, fixquality=1
$GPRMC,150041.200,A,4308.2442,N,07729.5246,W,41.72,168.32,300319,,,A*48
$GPGGA,150041.400,4308.2420,N,07729.5240,W,1,10,0.86,108.8,M,-34.4,M,,*58
lng=-77.492073, lat=43.137401, altitude=109.10, speed=41.72, satellites=10, angle=168.3200, fixquality=1
$GPRMC,150041.600,A,4308.2398,N,07729.5234,W,41.75,168.32,300319,,,A*4E
$GPGGA,150041.800,4308.2376,N,07729.5229,W,1,10,0.86,108.6,M,-34.4,M,,*51
lng=-77.492057, lat=43.137329, altitude=108.80, speed=41.75, satellites=10, angle=168.3200, fixquality=1
$GPRMC,150042.000,A,4308.2354,N,07729.5223,W,41.60,168.74,300319,,,A*4B
$GPGGA,150042.200,4308.2332,N,07729.5217,W,1,10,0.86,108.4,M,-34.4,M,,*57
lng=-77.492042, lat=43.137256, altitude=108.60, speed=41.60, satellites=10, angle=168.7400, fixquality=1
$GPRMC,150042.400,A,4308.2310,N,07729.5211,W,40.79,168.85,300319,,,A*49
$GPGGA,150042.600,4308.2287,N,07729.5204,W,1,10,0.86,108.3,M,-34.4,M,,*59
lng=-77.492019, lat=43.137184, altitude=108.40, speed=40.79, satellites=10, angle=168.8500, fixquality=1
$GPRMC,150042.800,A,4308.2264,N,07729.5197,W,40.89,168.52,300319,,,A*4F
$GPGGA,150043.000,4308.2242,N,07729.5190,W,1,09,0.90,108.1,M,-34.4,M,,*54
lng=-77.491989, lat=43.137107, altitude=108.30, speed=40.89, satellites=10, angle=168.5200, fixquality=1
$GPRMC,150043.200,A,4308.2220,N,07729.5184,W,40.65,168.29,300319,,,A*48
$GPGGA,150043.400,4308.2198,N,07729.5177,W,1,09,0.90,107.9,M,-34.4,M,,*5A
lng=-77.491973, lat=43.137035, altitude=108.10, speed=40.65, satellites=9, angle=168.2900, fixquality=1
$GPRMC,150043.600,A,4308.2177,N,07729.5170,W,40.33,168.36,300319,,,A*4B
$GPGGA,150043.800,4308.2156,N,07729.5163,W,1,09,0.90,107.7,M,-34.4,M,,*5F
lng=-77.491950, lat=43.136962, altitude=107.90, speed=40.33, satellites=9, angle=168.3600, fixquality=1
$GPRMC,150044.000,A,4308.2134,N,07729.5157,W,40.23,168.66,300319,,,A*4C
$GPGGA,150044.200,4308.2113,N,07729.5151,W,1,09,0.90,107.5,M,-34.4,M,,*50
lng=-77.491928, lat=43.136890, altitude=107.70, speed=40.23, satellites=9, angle=168.6600, fixquality=1
$GPRMC,150044.400,A,4308.2091,N,07729.5145,W,40.00,168.76,300319,,,A*45
$GPGGA,150044.600,4308.2070,N,07729.5139,W,1,09,0.90,107.4,M,-34.4,M,,*5F
lng=-77.491912, lat=43.136817, altitude=107.50, speed=40.00, satellites=9, angle=168.7600, fixquality=1
$GPRMC,150044.800,A,4308.2050,N,07729.5133,W,39.59,168.86,300319,,,A*48
$GPGGA,150045.000,4308.2029,N,07729.5127,W,1,09,0.93,107.3,M,-34.4,M,,*5F
lng=-77.491889, lat=43.136753, altitude=107.40, speed=39.59, satellites=9, angle=168.8600, fixquality=1
$GPRMC,150045.200,A,4308.2008,N,07729.5122,W,39.48,169.12,300319,,,A*42
$GPGGA,150045.400,4308.1987,N,07729.5115,W,1,09,0.93,107.1,M,-34.4,M,,*56
lng=-77.491867, lat=43.136676, altitude=107.30, speed=39.48, satellites=9, angle=169.1200, fixquality=1
$GPRMC,150045.600,A,4308.1967,N,07729.5109,W,39.01,168.33,300319,,,A*43
$GPGGA,150045.800,4308.1946,N,07729.5103,W,1,09,0.93,107.0,M,-34.4,M,,*51
lng=-77.491844, lat=43.136611, altitude=107.10, speed=39.01, satellites=9, angle=168.3300, fixquality=1
$GPRMC,150046.000,A,4308.1926,N,07729.5097,W,38.74,167.70,300319,,,A*4E
$GPGGA,150046.200,4308.1905,N,07729.5091,W,1,09,0.93,106.8,M,-34.4,M,,*5C
lng=-77.491828, lat=43.136539, altitude=107.00, speed=38.74, satellites=9, angle=167.7000, fixquality=1
$GPRMC,150046.400,A,4308.1884,N,07729.5084,W,38.51,167.12,300319,,,A*42
$GPGGA,150046.600,4308.1864,N,07729.5078,W,1,09,0.93,106.5,M,-34.4,M,,*54
lng=-77.491806, lat=43.136474, altitude=106.80, speed=38.51, satellites=9, angle=167.1200, fixquality=1
$GPRMC,150046.800,A,4308.1843,N,07729.5072,W,38.38,166.50,300319,,,A*44
$GPGGA,150047.000,4308.1823,N,07729.5065,W,1,09,0.93,106.3,M,-34.4,M,,*5A
lng=-77.491790, lat=43.136402, altitude=106.50, speed=38.38, satellites=9, angle=166.5000, fixquality=1
$GPRMC,150047.200,A,4308.1803,N,07729.5060,W,38.14,166.34,300319,,,A*44
$GPGGA,150047.400,4308.1783,N,07729.5054,W,1,09,0.93,106.0,M,-34.4,M,,*5A
lng=-77.491767, lat=43.136337, altitude=106.30, speed=38.14, satellites=9, angle=166.3400, fixquality=1
$GPRMC,150047.600,A,4308.1762,N,07729.5048,W,38.11,166.43,300319,,,A*47
$GPGGA,150047.800,4308.1742,N,07729.5042,W,1,09,0.93,105.8,M,-34.4,M,,*57
lng=-77.491744, lat=43.136272, altitude=106.00, speed=38.11, satellites=9, angle=166.4300, fixquality=1
$GPRMC,150048.000,A,4308.1722,N,07729.5036,W,38.04,166.40,300319,,,A*44
$GPGGA,150048.200,4308.1702,N,07729.5030,W,1,09,0.93,105.5,M,-34.4,M,,*5E
lng=-77.491722, lat=43.136207, altitude=105.80, speed=38.04, satellites=9, angle=166.4000, fixquality=1
$GPRMC,150048.400,A,4308.1682,N,07729.5025,W,37.75,166.35,300319,,,A*42
$GPGGA,150048.600,4308.1663,N,07729.5019,W,1,09,0.93,105.2,M,-34.4,M,,*50
lng=-77.491706, lat=43.136131, altitude=105.50, speed=37.75, satellites=9, angle=166.3500, fixquality=1
$GPRMC,150048.800,A,4308.1644,N,07729.5015,W,37.23,165.94,300319,,,A*4C
$GPGGA,150049.000,4308.1625,N,07729.5010,W,1,09,0.93,104.9,M,-34.4,M,,*56
lng=-77.491691, lat=43.136074, altitude=105.20, speed=37.23, satellites=9, angle=165.9400, fixquality=1
$GPRMC,150049.200,A,4308.1606,N,07729.5004,W,36.63,165.99,300319,,,A*49
$GPGGA,150049.400,4308.1587,N,07729.4998,W,1,09,0.93,104.6,M,-34.4,M,,*5E
lng=-77.491676, lat=43.136009, altitude=104.90, speed=36.63, satellites=9, angle=165.9900, fixquality=1
$GPRMC,150049.600,A,4308.1569,N,07729.4992,W,35.68,165.85,300319,,,A*45
$GPGGA,150049.800,4308.1551,N,07729.4987,W,1,09,0.93,104.3,M,-34.4,M,,*52
lng=-77.491653, lat=43.135944, altitude=104.60, speed=35.68, satellites=9, angle=165.8500, fixquality=1
$GPRMC,150050.000,A,4308.1534,N,07729.4983,W,34.01,167.01,300319,,,A*43
$GPGGA,150050.200,4308.1516,N,07729.4978,W,1,09,0.93,104.1,M,-34.4,M,,*51
lng=-77.491645, lat=43.135887, altitude=104.30, speed=34.01, satellites=9, angle=167.0100, fixquality=1
$GPRMC,150050.400,A,4308.1498,N,07729.4972,W,33.34,167.15,300319,,,A*4A
$GPGGA,150050.600,4308.1480,N,07729.4966,W,1,09,0.93,103.8,M,-34.4,M,,*5A
lng=-77.491615, lat=43.135829, altitude=104.10, speed=33.34, satellites=9, angle=167.1500, fixquality=1
$GPRMC,150050.800,A,4308.1461,N,07729.4962,W,33.07,167.70,300319,,,A*42
$GPGGA,150051.000,4308.1443,N,07729.4957,W,1,09,0.93,103.5,M,-34.4,M,,*5D
lng=-77.491600, lat=43.135765, altitude=103.80, speed=33.07, satellites=9, angle=167.7000, fixquality=1
$GPRMC,150051.200,A,4308.1425,N,07729.4951,W,33.11,167.52,300319,,,A*4E
$GPGGA,150051.400,4308.1406,N,07729.4944,W,1,09,0.93,103.1,M,-34.4,M,,*5E
lng=-77.491584, lat=43.135707, altitude=103.50, speed=33.11, satellites=9, angle=167.5200, fixquality=1
$GPRMC,150051.600,A,4308.1388,N,07729.4937,W,33.07,167.05,300319,,,A*4F
$GPGGA,150051.800,4308.1368,N,07729.4930,W,1,09,0.93,102.6,M,-34.4,M,,*58
lng=-77.491561, lat=43.135643, altitude=103.10, speed=33.07, satellites=9, angle=167.0500, fixquality=1
$GPRMC,150052.000,A,4308.1349,N,07729.4923,W,33.43,168.03,300319,,,A*4B
$GPGGA,150052.200,4308.1330,N,07729.4917,W,1,09,0.93,102.2,M,-34.4,M,,*5D
lng=-77.491539, lat=43.135578, altitude=102.60, speed=33.43, satellites=9, angle=168.0300, fixquality=1
$GPRMC,150052.400,A,4308.1311,N,07729.4912,W,33.51,168.79,300319,,,A*4E
$GPGGA,150052.600,4308.1292,N,07729.4907,W,1,09,0.93,101.8,M,-34.4,M,,*58
lng=-77.491523, lat=43.135513, altitude=102.20, speed=33.51, satellites=9, angle=168.7900, fixquality=1
$GPRMC,150052.800,A,4308.1272,N,07729.4902,W,33.69,171.00,300319,,,A*4A
$GPGGA,150053.000,4308.1252,N,07729.4897,W,1,09,0.93,101.3,M,-34.4,M,,*50
lng=-77.491500, lat=43.135456, altitude=101.80, speed=33.69, satellites=9, angle=171.0000, fixquality=1
$GPRMC,150053.200,A,4308.1232,N,07729.4893,W,33.75,173.12,300319,,,A*40
$GPGGA,150053.400,4308.1213,N,07729.4889,W,1,09,0.93,100.9,M,-34.4,M,,*55
lng=-77.491485, lat=43.135383, altitude=101.30, speed=33.75, satellites=9, angle=173.1200, fixquality=1
$GPRMC,150053.600,A,4308.1194,N,07729.4887,W,33.64,174.89,300319,,,A*4B
$GPGGA,150053.800,4308.1175,N,07729.4885,W,1,09,0.93,100.5,M,-34.4,M,,*5A
lng=-77.491477, lat=43.135326, altitude=100.90, speed=33.64, satellites=9, angle=174.8900, fixquality=1
$GPRMC,150054.000,A,4308.1156,N,07729.4884,W,33.61,177.46,300319,,,A*42
$GPGGA,150054.200,4308.1137,N,07729.4883,W,1,09,0.93,100.1,M,-34.4,M,,*53
lng=-77.491470, lat=43.135261, altitude=100.50, speed=33.61, satellites=9, angle=177.4600, fixquality=1
$GPRMC,150054.400,A,4308.1117,N,07729.4882,W,33.86,177.93,300319,,,A*44
$GPGGA,150054.600,4308.1098,N,07729.4881,W,1,09,0.93,99.7,M,-34.4,M,,*66
lng=-77.491470, lat=43.135196, altitude=100.10, speed=33.86, satellites=9, angle=177.9300, fixquality=1
$GPRMC,150054.800,A,4308.1079,N,07729.4880,W,33.98,178.82,300319,,,A*43
$GPGGA,150055.000,4308.1059,N,07729.4880,W,1,09,0.93,99.3,M,-34.4,M,,*69
lng=-77.491462, lat=43.135131, altitude=99.70, speed=33.98, satellites=9, angle=178.8200, fixquality=1
$GPRMC,150055.200,A,4308.1040,N,07729.4879,W,33.83,179.48,300319,,,A*49
$GPGGA,150055.400,4308.1022,N,07729.4881,W,1,09,0.93,98.9,M,-34.4,M,,*6B
lng=-77.491462, lat=43.135066, altitude=99.30, speed=33.83, satellites=9, angle=179.4800, fixquality=1
$GPRMC,150055.600,A,4308.1003,N,07729.4882,W,33.64,181.43,300319,,,A*4B
$GPGGA,150055.800,4308.0984,N,07729.4882,W,1,08,0.97,98.5,M,-34.4,M,,*69
lng=-77.491470, lat=43.135002, altitude=98.90, speed=33.64, satellites=9, angle=181.4300, fixquality=1
$GPRMC,150056.000,A,4308.0965,N,07729.4883,W,33.94,182.05,300319,,,A*49
$GPGGA,150056.200,4308.0946,N,07729.4884,W,1,08,0.97,98.2,M,-34.4,M,,*6F
lng=-77.491470, lat=43.134944, altitude=98.50, speed=33.94, satellites=8, angle=182.0500, fixquality=1
$GPRMC,150056.400,A,4308.0928,N,07729.4884,W,33.97,181.88,300319,,,A*46
$GPGGA,150056.600,4308.0909,N,07729.4885,W,1,08,0.97,97.7,M,-34.4,M,,*6B
lng=-77.491470, lat=43.134880, altitude=98.20, speed=33.97, satellites=8, angle=181.8800, fixquality=1
$GPRMC,150056.800,A,4308.0890,N,07729.4886,W,33.99,182.38,300319,,,A*4C
$GPGGA,150057.000,4308.0872,N,07729.4888,W,1,08,0.97,97.3,M,-34.4,M,,*68
lng=-77.491477, lat=43.134815, altitude=97.70, speed=33.99, satellites=8, angle=182.3800, fixquality=1
$GPRMC,150057.200,A,4308.0853,N,07729.4889,W,33.98,183.30,300319,,,A*4F
$GPGGA,150057.400,4308.0834,N,07729.4891,W,1,08,0.97,97.0,M,-34.4,M,,*65
lng=-77.491477, lat=43.134757, altitude=97.30, speed=33.98, satellites=8, angle=183.3000, fixquality=1
$GPRMC,150057.600,A,4308.0815,N,07729.4893,W,33.97,183.92,300319,,,A*45
$GPGGA,150057.800,4308.0797,N,07729.4895,W,1,08,0.97,96.6,M,-34.4,M,,*6C
lng=-77.491485, lat=43.134693, altitude=97.00, speed=33.97, satellites=8, angle=183.9200, fixquality=1
$GPRMC,150058.000,A,4308.0779,N,07729.4898,W,33.35,185.13,300319,,,A*45
$GPGGA,150058.200,4308.0761,N,07729.4902,W,1,09,0.90,96.3,M,-34.4,M,,*6C
lng=-77.491493, lat=43.134635, altitude=96.60, speed=33.35, satellites=8, angle=185.1300, fixquality=1
$GPRMC,150058.400,A,4308.0743,N,07729.4906,W,33.10,186.62,300319,,,A*4C
$GPGGA,150058.600,4308.0726,N,07729.4911,W,1,10,0.86,95.9,M,-34.4,M,,*6F
lng=-77.491508, lat=43.134571, altitude=96.30, speed=33.10, satellites=9, angle=186.6200, fixquality=1
$GPRMC,150058.800,A,4308.0709,N,07729.4916,W,31.33,188.48,300319,,,A*4A
$GPGGA,150059.000,4308.0693,N,07729.4921,W,1,10,0.86,95.6,M,-34.4,M,,*6B
lng=-77.491531, lat=43.134513, altitude=95.90, speed=31.33, satellites=10, angle=188.4800, fixquality=1
$GPRMC,150059.200,A,4308.0677,N,07729.4925,W,30.11,189.81,300319,,,A*4C
$GPGGA,150059.400,4308.0661,N,07729.4930,W,1,10,0.86,95.3,M,-34.4,M,,*67
lng=-77.491546, lat=43.134464, altitude=95.60, speed=30.11, satellites=10, angle=189.8100, fixquality=1
$GPRMC,150059.600,A,4308.0645,N,07729.4935,W,29.11,191.00,300319,,,A*40
$GPGGA,150059.800,4308.0630,N,07729.4940,W,1,10,0.86,95.0,M,-34.4,M,,*6B
lng=-77.491561, lat=43.134407, altitude=95.30, speed=29.11, satellites=10, angle=191.0000, fixquality=1
$GPRMC,150100.000,A,4308.0615,N,07729.4946,W,28.03,191.72,300319,,,A*4D
$GPGGA,150100.200,4308.0600,N,07729.4951,W,1,10,0.86,94.6,M,-34.4,M,,*68
lng=-77.491577, lat=43.134357, altitude=95.00, speed=28.03, satellites=10, angle=191.7200, fixquality=1
$GPRMC,150100.400,A,4308.0586,N,07729.4956,W,27.11,192.78,300319,,,A*44
$GPGGA,150100.600,4308.0572,N,07729.4961,W,1,09,0.90,94.3,M,-34.4,M,,*63
lng=-77.491592, lat=43.134311, altitude=94.60, speed=27.11, satellites=10, angle=192.7800, fixquality=1
$GPRMC,150100.800,A,4308.0558,N,07729.4966,W,25.94,193.45,300319,,,A*48
$GPGGA,150101.000,4308.0545,N,07729.4971,W,1,10,0.86,93.9,M,-34.4,M,,*63
lng=-77.491607, lat=43.134262, altitude=94.30, speed=25.94, satellites=9, angle=193.4500, fixquality=1
$GPRMC,150101.200,A,4308.0531,N,07729.4975,W,25.27,194.80,300319,,,A*48
$GPGGA,150101.400,4308.0518,N,07729.4980,W,1,10,0.86,93.6,M,-34.4,M,,*6E
lng=-77.491622, lat=43.134220, altitude=93.90, speed=25.27, satellites=10, angle=194.8000, fixquality=1
$GPRMC,150101.600,A,4308.0505,N,07729.4985,W,24.93,195.31,300319,,,A*41
$GPGGA,150101.800,4308.0492,N,07729.4991,W,1,09,0.93,93.3,M,-34.4,M,,*68
lng=-77.491645, lat=43.134170, altitude=93.60, speed=24.93, satellites=10, angle=195.3100, fixquality=1
$GPRMC,150102.000,A,4308.0479,N,07729.4996,W,24.51,196.63,300319,,,A*46
$GPGGA,150102.200,4308.0467,N,07729.5003,W,1,10,0.86,93.0,M,-34.4,M,,*67
lng=-77.491661, lat=43.134132, altitude=93.30, speed=24.51, satellites=9, angle=196.6300, fixquality=1
$GPRMC,150102.400,A,4308.0455,N,07729.5009,W,24.24,198.04,300319,,,A*4F
$GPGGA,150102.600,4308.0443,N,07729.5015,W,1,10,0.86,92.6,M,-34.4,M,,*65
lng=-77.491683, lat=43.134090, altitude=93.00, speed=24.24, satellites=10, angle=198.0400, fixquality=1
$GPRMC,150102.800,A,4308.0432,N,07729.5022,W,23.69,199.95,300319,,,A*4C
$GPGGA,150103.000,4308.0421,N,07729.5029,W,1,09,0.93,92.2,M,-34.4,M,,*61
lng=-77.491706, lat=43.134048, altitude=92.60, speed=23.69, satellites=10, angle=199.9500, fixquality=1
$GPRMC,150103.200,A,4308.0410,N,07729.5036,W,23.18,201.40,300319,,,A*4E
$GPGGA,150103.400,4308.0398,N,07729.5042,W,1,09,0.93,91.9,M,-34.4,M,,*65
lng=-77.491722, lat=43.134017, altitude=92.20, speed=23.18, satellites=9, angle=201.4000, fixquality=1
$GPRMC,150103.600,A,4308.0387,N,07729.5049,W,22.83,202.47,300319,,,A*4C
$GPGGA,150103.800,4308.0376,N,07729.5055,W,1,09,0.93,91.6,M,-34.4,M,,*60
lng=-77.491744, lat=43.133975, altitude=91.90, speed=22.83, satellites=9, angle=202.4700, fixquality=1
$GPRMC,150104.000,A,4308.0365,N,07729.5062,W,22.37,203.34,300319,,,A*42
$GPGGA,150104.200,4308.0355,N,07729.5069,W,1,09,0.93,91.4,M,-34.4,M,,*61
lng=-77.491775, lat=43.133945, altitude=91.60, speed=22.37, satellites=9, angle=203.3400, fixquality=1
$GPRMC,150104.400,A,4308.0345,N,07729.5077,W,21.45,205.49,300319,,,A*4A
$GPGGA,150104.600,4308.0336,N,07729.5084,W,1,09,0.93,91.2,M,-34.4,M,,*65
lng=-77.491798, lat=43.133911, altitude=91.40, speed=21.45, satellites=9, angle=205.4900, fixquality=1
$GPRMC,150104.800,A,4308.0327,N,07729.5090,W,20.09,206.72,300319,,,A*49
$GPGGA,150105.000,4308.0318,N,07729.5097,W,1,09,0.93,91.0,M,-34.4,M,,*6E
lng=-77.491813, lat=43.133876, altitude=91.20, speed=20.09, satellites=9, angle=206.7200, fixquality=1
$GPRMC,150105.200,A,4308.0309,N,07729.5104,W,19.05,207.73,300319,,,A*44
$GPGGA,150105.400,4308.0299,N,07729.5110,W,1,09,0.93,90.8,M,-34.4,M,,*65
lng=-77.491836, lat=43.133846, altitude=91.00, speed=19.05, satellites=9, angle=207.7300, fixquality=1
$GPRMC,150105.600,A,4308.0291,N,07729.5116,W,18.17,207.51,300319,,,A*41
$GPGGA,150105.800,4308.0283,N,07729.5121,W,1,09,0.93,90.5,M,-34.4,M,,*6D
lng=-77.491859, lat=43.133823, altitude=90.80, speed=18.17, satellites=9, angle=207.5100, fixquality=1
$GPRMC,150106.000,A,4308.0275,N,07729.5126,W,16.58,206.64,300319,,,A*4F
$GPGGA,150106.200,4308.0267,N,07729.5128,W,1,09,0.93,90.3,M,-34.4,M,,*61
lng=-77.491874, lat=43.133789, altitude=90.50, speed=16.58, satellites=9, angle=206.6400, fixquality=1
$GPRMC,150106.400,A,4308.0260,N,07729.5131,W,15.77,205.74,300319,,,A*45
$GPGGA,150106.600,4308.0252,N,07729.5135,W,1,09,0.93,90.0,M,-34.4,M,,*6C
lng=-77.491889, lat=43.133766, altitude=90.30, speed=15.77, satellites=9, angle=205.7400, fixquality=1
$GPRMC,150106.800,A,4308.0245,N,07729.5138,W,14.63,205.09,300319,,,A*49
$GPGGA,150107.000,4308.0238,N,07729.5143,W,1,10,0.86,89.9,M,-34.4,M,,*6B
lng=-77.491897, lat=43.133739, altitude=90.00, speed=14.63, satellites=9, angle=205.0900, fixquality=1
$GPRMC,150107.200,A,4308.0232,N,07729.5146,W,13.61,205.71,300319,,,A*41
$GPGGA,150107.400,4308.0225,N,07729.5150,W,1,09,0.93,89.7,M,-34.4,M,,*63
lng=-77.491912, lat=43.133724, altitude=89.90, speed=13.61, satellites=10, angle=205.7100, fixquality=1
$GPRMC,150107.600,A,4308.0220,N,07729.5155,W,12.60,206.16,300319,,,A*46
$GPGGA,150107.800,4308.0214,N,07729.5159,W,1,09,0.93,89.6,M,-34.4,M,,*65
lng=-77.491928, lat=43.133701, altitude=89.70, speed=12.60, satellites=9, angle=206.1600, fixquality=1
$GPRMC,150108.000,A,4308.0210,N,07729.5162,W,11.33,206.42,300319,,,A*4C
$GPGGA,150108.200,4308.0205,N,07729.5166,W,1,09,0.93,89.4,M,-34.4,M,,*6E
lng=-77.491935, lat=43.133682, altitude=89.60, speed=11.33, satellites=9, angle=206.4200, fixquality=1
$GPRMC,150108.400,A,4308.0200,N,07729.5169,W,10.41,207.98,300319,,,A*40
$GPGGA,150108.600,4308.0195,N,07729.5173,W,1,09,0.93,89.5,M,-34.4,M,,*65
lng=-77.491950, lat=43.133666, altitude=89.40, speed=10.41, satellites=9, angle=207.9800, fixquality=1
$GPRMC,150108.800,A,4308.0190,N,07729.5176,W,10.08,208.53,300319,,,A*4D
$GPGGA,150109.000,4308.0186,N,07729.5180,W,1,09,1.01,89.5,M,-34.4,M,,*66
lng=-77.491958, lat=43.133651, altitude=89.50, speed=10.08, satellites=9, angle=208.5300, fixquality=1
$GPRMC,150109.200,A,4308.0181,N,07729.5184,W,10.00,209.90,300319,,,A*4D
$GPGGA,150109.400,4308.0177,N,07729.5188,W,1,10,0.86,89.5,M,-34.4,M,,*62
lng=-77.491973, lat=43.133632, altitude=89.50, speed=10.00, satellites=9, angle=209.9000, fixquality=1
$GPRMC,150109.600,A,4308.0173,N,07729.5192,W,9.69,209.76,300319,,,A*7C
$GPGGA,150109.800,4308.0168,N,07729.5196,W,1,09,0.93,89.4,M,-34.4,M,,*62
lng=-77.491981, lat=43.133617, altitude=89.50, speed=9.69, satellites=10, angle=209.7600, fixquality=1
$GPRMC,150110.000,A,4308.0163,N,07729.5200,W,9.67,209.99,300319,,,A*74
$GPGGA,150110.200,4308.0159,N,07729.5204,W,1,10,0.86,89.3,M,-34.4,M,,*61
lng=-77.491996, lat=43.133602, altitude=89.40, speed=9.67, satellites=9, angle=209.9900, fixquality=1
$GPRMC,150110.400,A,4308.0154,N,07729.5208,W,9.64,211.15,300319,,,A*72
$GPGGA,150110.600,4308.0150,N,07729.5211,W,1,09,0.93,89.2,M,-34.4,M,,*65
lng=-77.492019, lat=43.133594, altitude=89.30, speed=9.64, satellites=10, angle=211.1500, fixquality=1
$GPRMC,150110.800,A,4308.0146,N,07729.5215,W,9.31,210.79,300319,,,A*7A
$GPGGA,150111.000,4308.0141,N,07729.5219,W,1,10,0.86,89.2,M,-34.4,M,,*66
lng=-77.492027, lat=43.133579, altitude=89.20, speed=9.31, satellites=9, angle=210.7900, fixquality=1
$GPRMC,150111.200,A,4308.0137,N,07729.5223,W,8.93,210.57,300319,,,A*77
$GPGGA,150111.400,4308.0133,N,07729.5227,W,1,10,0.86,89.1,M,-34.4,M,,*69
lng=-77.492042, lat=43.133560, altitude=89.20, speed=8.93, satellites=10, angle=210.5700, fixquality=1
$GPRMC,150111.600,A,4308.0130,N,07729.5231,W,8.23,210.76,300319,,,A*7F
$GPGGA,150111.800,4308.0126,N,07729.5234,W,1,10,0.86,89.0,M,-34.4,M,,*62
lng=-77.492050, lat=43.133552, altitude=89.10, speed=8.23, satellites=10, angle=210.7600, fixquality=1
$GPRMC,150112.000,A,4308.0123,N,07729.5237,W,7.06,211.00,300319,,,A*76
$GPGGA,150112.200,4308.0120,N,07729.5240,W,1,10,0.92,88.9,M,-34.4,M,,*63
lng=-77.492065, lat=43.133537, altitude=89.00, speed=7.06, satellites=10, angle=211.0000, fixquality=1
$GPRMC,150112.400,A,4308.0118,N,07729.5243,W,6.30,210.01,300319,,,A*7D
$GPGGA,150112.600,4308.0116,N,07729.5246,W,1,08,1.02,88.8,M,-34.4,M,,*64
lng=-77.492073, lat=43.133529, altitude=88.90, speed=6.30, satellites=10, angle=210.0100, fixquality=1
$GPRMC,150112.800,A,4308.0114,N,07729.5248,W,4.87,206.45,300319,,,A*7F
$GPGGA,150113.000,4308.0113,N,07729.5250,W,1,08,1.02,88.8,M,-34.4,M,,*61
lng=-77.492080, lat=43.133522, altitude=88.80, speed=4.87, satellites=8, angle=206.4500, fixquality=1
$GPRMC,150113.200,A,4308.0112,N,07729.5251,W,3.74,203.26,300319,,,A*71
$GPGGA,150113.400,4308.0110,N,07729.5252,W,1,09,0.93,88.7,M,-34.4,M,,*63
lng=-77.492080, lat=43.133522, altitude=88.80, speed=3.74, satellites=8, angle=203.2600, fixquality=1
$GPRMC,150113.600,A,4308.0110,N,07729.5253,W,2.81,202.63,300319,,,A*7E
$GPGGA,150113.800,4308.0109,N,07729.5254,W,1,09,0.93,88.6,M,-34.4,M,,*60
lng=-77.492088, lat=43.133522, altitude=88.70, speed=2.81, satellites=9, angle=202.6300, fixquality=1
$GPRMC,150114.000,A,4308.0109,N,07729.5254,W,1.53,202.63,300319,,,A*7C
$GPGGA,150114.200,4308.0109,N,07729.5255,W,1,09,0.93,88.5,M,-34.4,M,,*6F
lng=-77.492088, lat=43.133510, altitude=88.60, speed=1.53, satellites=9, angle=202.6300, fixquality=1
$GPRMC,150114.400,A,4308.0108,N,07729.5255,W,1.13,202.63,300319,,,A*7C
$GPGGA,150114.600,4308.0108,N,07729.5255,W,1,10,0.86,88.5,M,-34.4,M,,*66
lng=-77.492088, lat=43.133510, altitude=88.50, speed=1.13, satellites=9, angle=202.6300, fixquality=1
$GPRMC,150114.800,A,4308.0108,N,07729.5255,W,0.68,202.63,300319,,,A*7D
$GPGGA,150115.000,4308.0109,N,07729.5255,W,1,10,0.86,88.4,M,-34.4,M,,*61
lng=-77.492088, lat=43.133510, altitude=88.50, speed=0.68, satellites=10, angle=202.6300, fixquality=1
$GPRMC,150115.200,A,4308.0109,N,07729.5255,W,0.45,202.63,300319,,,A*78
$GPGGA,150115.400,4308.0108,N,07729.5254,W,1,10,0.86,88.4,M,-34.4,M,,*65
lng=-77.492088, lat=43.133510, altitude=88.40, speed=0.45, satellites=10, angle=202.6300, fixquality=1
$GPRMC,150115.600,A,4308.0108,N,07729.5254,W,0.34,202.63,300319,,,A*7A
$GPGGA,150115.800,4308.0108,N,07729.5254,W,1,10,0.86,88.4,M,-34.4,M,,*69
lng=-77.492088, lat=43.133510, altitude=88.40, speed=0.34, satellites=10, angle=202.6300, fixquality=1
$GPRMC,150116.000,A,4308.0108,N,07729.5254,W,0.14,202.63,300319,,,A*7D
$GPGGA,150116.200,4308.0109,N,07729.5253,W,1,09,0.93,88.4,M,-34.4,M,,*6A
lng=-77.492088, lat=43.133510, altitude=88.40, speed=0.14, satellites=10, angle=202.6300, fixquality=1
$GPRMC,150116.400,A,4308.0109,N,07729.5253,W,0.04,202.63,300319,,,A*7E
$GPGGA,150116.600,4308.0109,N,07729.5253,W,1,09,0.93,88.4,M,-34.4,M,,*6E
lng=-77.492088, lat=43.133510, altitude=88.40, speed=0.04, satellites=9, angle=202.6300, fixquality=1
$GPRMC,150116.800,A,4308.0108,N,07729.5253,W,0.03,202.63,300319,,,A*74
$GPGGA,150117.000,4308.0108,N,07729.5252,W,1,09,0.93,88.3,M,-34.4,M,,*6E
lng=-77.492088, lat=43.133510, altitude=88.40, speed=0.03, satellites=9, angle=202.6300, fixquality=1
$GPRMC,150117.200,A,4308.0108,N,07729.5252,W,0.01,202.63,300319,,,A*7C
$GPGGA,150117.400,4308.0108,N,07729.5252,W,1,09,0.93,88.3,M,-34.4,M,,*6A
lng=-77.492088, lat=43.133510, altitude=88.30, speed=0.01, satellites=9, angle=202.6300, fixquality=1
$GPRMC,150117.600,A,4308.0108,N,07729.5252,W,0.01,202.63,300319,,,A*78
$GPGGA,150117.800,4308.0108,N,07729.5252,W,1,09,0.93,88.3,M,-34.4,M,,*66
lng=-77.492088, lat=43.133510, altitude=88.30, speed=0.01, satellites=9, angle=202.6300, fixquality=1
$GPRMC,150118.000,A,4308.0108,N,07729.5252,W,0.00,202.63,300319,,,A*70
$GPGGA,150118.200,4308.0108,N,07729.5252,W,1,09,0.95,88.3,M,-34.4,M,,*65
lng=-77.492088, lat=43.133510, altitude=88.30, speed=0.00, satellites=9, angle=202.6300, fixquality=1
$GPRMC,150118.400,A,4308.0108,N,07729.5252,W,0.24,202.63,300319,,,A*72
$GPGGA,150118.600,4308.0108,N,07729.5252,W,1,09,0.93,88.3,M,-34.4,M,,*67
lng=-77.492088, lat=43.133510, altitude=88.30, speed=0.24, satellites=9, angle=202.6300, fixquality=1
$GPRMC,150118.800,A,4308.0108,N,07729.5252,W,0.56,202.63,300319,,,A*7B
$GPGGA,150119.000,4308.0108,N,07729.5252,W,1,08,1.02,88.3,M,-34.4,M,,*68
lng=-77.492088, lat=43.133510, altitude=88.30, speed=0.56, satellites=9, angle=202.6300, fixquality=1
$GPRMC,150119.200,A,4308.0107,N,07729.5253,W,0.77,202.63,300319,,,A*7D
$GPGGA,150119.400,4308.0107,N,07729.5253,W,1,09,0.93,88.3,M,-34.4,M,,*6A
lng=-77.492088, lat=43.133510, altitude=88.30, speed=0.77, satellites=8, angle=202.6300, fixquality=1
$GPRMC,150119.600,A,4308.0106,N,07729.5253,W,1.06,213.00,300319,,,A*7A
$GPGGA,150119.800,4308.0106,N,07729.5254,W,1,08,1.02,88.3,M,-34.4,M,,*68
lng=-77.492088, lat=43.133510, altitude=88.30, speed=1.06, satellites=9, angle=213.0000, fixquality=1
