Vers 57
USE_SERIAL_FEEDBACK=false
DEVELOPMENT_MODE=false
USE_RMC_ONLY=false

$GPGGA,140631.400,4308.3036,N,07726.2645,W,1,04,2.11,140.1,M,-34.4,M,,*5F
$GPRMC,140631.400,A,4308.3036,N,07726.2645,W,0.40,101.51,210319,,,A*79
lng=-77.437744, lat=43.138393, altitude=140.10, speed=0.39, satellites=4, angle=151.3200, fixquality=1
$GPGGA,140631.600,4308.3046,N,07726.2642,W,1,04,2.11,142.5,M,-34.4,M,,*5B
$GPRMC,140631.600,A,4308.3046,N,07726.2642,W,0.45,98.73,210319,,,A*4F
lng=-77.437736, lat=43.138412, altitude=142.50, speed=0.40, satellites=4, angle=101.5100, fixquality=1
$GPGGA,140631.800,4308.3052,N,07726.2640,W,1,04,2.11,144.0,M,-34.4,M,,*51
$GPRMC,140631.800,A,4308.3052,N,07726.2640,W,0.46,93.61,210319,,,A*4D
lng=-77.437736, lat=43.138420, altitude=144.00, speed=0.45, satellites=4, angle=98.7300, fixquality=1
$GPGGA,140632.000,4308.3058,N,07726.2638,W,1,04,2.11,145.7,M,-34.4,M,,*59
$GPRMC,140632.000,A,4308.3058,N,07726.2638,W,0.42,105.17,210319,,,A*78
lng=-77.437728, lat=43.138427, altitude=145.70, speed=0.46, satellites=4, angle=93.6100, fixquality=1
$GPGGA,140632.200,4308.3059,N,07726.2636,W,1,04,2.11,146.5,M,-34.4,M,,*55
$GPRMC,140632.200,A,4308.3059,N,07726.2636,W,0.45,120.43,210319,,,A*74
lng=-77.437728, lat=43.138427, altitude=146.50, speed=0.42, satellites=4, angle=105.1700, fixquality=1
$GPGGA,140632.400,4308.3060,N,07726.2634,W,1,04,2.11,147.0,M,-34.4,M,,*5F
$GPRMC,140632.400,A,4308.3060,N,07726.2634,W,0.44,122.24,210319,,,A*78
lng=-77.437721, lat=43.138435, altitude=147.00, speed=0.45, satellites=4, angle=120.4300, fixquality=1
$GPGGA,140632.600,4308.3061,N,07726.2632,W,1,04,2.11,147.6,M,-34.4,M,,*5C
$GPRMC,140632.600,A,4308.3061,N,07726.2632,W,0.41,123.34,210319,,,A*78
lng=-77.437721, lat=43.138435, altitude=147.60, speed=0.44, satellites=4, angle=122.2400, fixquality=1
$GPGGA,140632.800,4308.3064,N,07726.2631,W,1,04,2.11,148.3,M,-34.4,M,,*5E
$GPRMC,140632.800,A,4308.3064,N,07726.2631,W,0.35,112.49,210319,,,A*7B
lng=-77.437721, lat=43.138442, altitude=148.30, speed=0.41, satellites=4, angle=123.3400, fixquality=1
$GPGGA,140633.000,4308.3069,N,07726.2629,W,1,04,2.11,149.5,M,-34.4,M,,*54
$GPRMC,140633.000,A,4308.3069,N,07726.2629,W,0.32,104.01,210319,,,A*7A
lng=-77.437713, lat=43.138450, altitude=149.50, speed=0.35, satellites=4, angle=112.4900, fixquality=1
$GPGGA,140633.200,4308.3073,N,07726.2629,W,1,04,2.11,150.4,M,-34.4,M,,*54
$GPRMC,140633.200,A,4308.3073,N,07726.2629,W,0.30,109.35,210319,,,A*7B
lng=-77.437713, lat=43.138450, altitude=150.40, speed=0.32, satellites=4, angle=104.0100, fixquality=1
$GPGGA,140633.400,4308.3078,N,07726.2628,W,1,04,2.11,151.4,M,-34.4,M,,*59
$GPRMC,140633.400,A,4308.3078,N,07726.2628,W,0.27,112.60,210319$GPGGA,140633.600,4308.3083,N,07726.2628,W,1,04,2.11,152.5,M,-34.4,M,,*5D
lng=-77.437713, lat=43.138462, altitude=151.40, speed=0.30, satellites=4, angle=109.3500, fixquality=1
$GPRMC,140633.800,A,4308.3086,N,07726.2628,W,0.22,135.98,210319,,,A*71
$GPGGA,140634.000,4308.3088,N,07726.2628,W,1,04,2.11,153.4,M,-34.4,M,,*57
lng=-77.437713, lat=43.138477, altitude=151.40, speed=0.22, satellites=4, angle=135.9800, fixquality=1
$GPRMC,140634.200,A,4308.3087,N,07726.2628,W,0.15,150.04,210319,,,A*7F
$GPGGA,140634.400,4308.3086,N,07726.2627,W,1,04,2.11,153.2,M,-34.4,M,,*54
lng=-77.437713, lat=43.138477, altitude=153.40, speed=0.15, satellites=4, angle=150.0400, fixquality=1
$GPRMC,140634.600,A,4308.3085,N,07726.2627,W,0.21,150.99,210319,,,A*75
$GPGGA,140634.800,4308.3084,N,07726.2626,W,1,04,2.11,152.9,M,-34.4,M,,*51
lng=-77.437713, lat=43.138477, altitude=153.20, speed=0.21, satellites=4, angle=150.9900, fixquality=1
$GPRMC,140635.000,A,4308.3083,N,07726.2626,W,0.22,143.66,210319,,,A*74
$GPGGA,140635.200,4308.3082,N,07726.2625,W,1,04,2.11,152.6,M,-34.4,M,,*50
lng=-77.437713, lat=43.138469, altitude=152.90, speed=0.22, satellites=4, angle=143.6600, fixquality=1
$GPRMC,140635.400,A,4308.3082,N,07726.2625,W,0.18,134.75,210319,,,A*79
$GPGGA,140635.600,4308.3080,N,07726.2624,W,1,04,2.11,152.2,M,-34.4,M,,*53
lng=-77.437713, lat=43.138469, altitude=152.60, speed=0.18, satellites=4, angle=134.7500, fixquality=1
$GPRMC,140635.800,A,4308.3078,N,07726.2623,W,0.17,137.65,210319,,,A*7B
$GPGGA,140636.000,4308.3077,N,07726.2622,W,1,04,2.11,151.3,M,-34.4,M,,*5A
lng=-77.437705, lat=43.138462, altitude=152.20, speed=0.17, satellites=4, angle=137.6500, fixquality=1
$GPRMC,140636.200,A,4308.3075,N,07726.2622,W,0.08,328.55,210319,,,A*7F
$GPGGA,140636.400,4308.3072,N,07726.2621,W,1,04,2.11,150.1,M,-34.4,M,,*5B
lng=-77.437705, lat=43.138462, altitude=151.30, speed=0.08, satellites=4, angle=328.5500, fixquality=1
$GPRMC,140636.600,A,4308.3068,N,07726.2620,W,0.05,312.67,210319,,,A*70
$GPGGA,140636.800,4308.3065,N,07726.2619,W,1,04,2.11,148.9,M,-34.4,M,,*5B
lng=-77.437705, lat=43.138442, altitude=150.10, speed=0.05, satellites=4, angle=312.6700, fixquality=1
$GPRMC,140637.000,A,4308.3063,N,07726.2619,W,0.10,218.90,210319,,,A*71
$GPGGA,140637.200,4308.3060,N,07726.2618,W,1,04,2.11,148.0,M,-34.4,M,,*5D
lng=-77.437698, lat=43.138435, altitude=148.90, speed=0.10, satellites=4, angle=218.9000, fixquality=1
$GPRMC,140637.400,A,4308.3057,N,07726.2617,W,0.07,207.77,210319,,,A*7D
$GPGGA,140637.600,4308.3053,N,07726.2616,W,1,04,2.11,146.5,M,-34.4,M,,*5C
lng=-77.437698, lat=43.138427, altitude=148.00, speed=0.07, satellites=4, angle=207.7700, fixquality=1
$GPRMC,140637.800,A,4308.3049,N,07726.2615,W,0.10,129.21,210319,,,A*76
$GPGGA,140638.000,4308.3045,N,07726.2613,W,1,04,2.11,144.9,M,-34.4,M,,*59
lng=-77.437698, lat=43.138412, altitude=146.50, speed=0.10, satellites=4, angle=129.2100, fixquality=1
$GPRMC,140638.200,A,4308.3042,N,07726.2613,W,0.14,135.64,210319,,,A*76
$GPGGA,140638.400,4308.3039,N,07726.2612,W,1,04,2.11,143.7,M,-34.4,M,,*5E
lng=-77.437690, lat=43.138404, altitude=144.90, speed=0.14, satellites=4, angle=135.6400, fixquality=1
$GPRMC,140638.600,A,4308.3036,N,07726.2611,W,0.16,142.42,210319,,,A*75
$GPGGA,140638.800,4308.3032,N,07726.2611,W,1,04,2.11,142.4,M,-34.4,M,,*58
lng=-77.437690, lat=43.138393, altitude=143.70, speed=0.16, satellites=4, angle=142.4200, fixquality=1
$GPRMC,140639.000,A,4308.3029,N,07726.2610,W,0.12,146.44,210319,,,A*7B
$GPGGA,140639.200,4308.3026,N,07726.2610,W,1,04,2.11,140.9,M,-34.4,M,,*58
lng=-77.437690, lat=43.138378, altitude=142.40, speed=0.12, satellites=4, angle=146.4400, fixquality=1
$GPRMC,140639.400,A,4308.3023,N,07726.2610,W,0.04,150.28,210319,,,A*7F
$GPGGA,140639.600,4308.3019,N,07726.2610,W,1,04,2.11,139.4,M,-34.4,M,,*53
lng=-77.437690, lat=43.138370, altitude=140.90, speed=0.04, satellites=4, angle=150.2800, fixquality=1
$GPRMC,140639.800,A,4308.3015,N,07726.2610,W,0.09,228.54,210319,,,A*7C
$GPGGA,140640.000,4308.3012,N,07726.2610,W,1,04,2.11,137.9,M,-34.4,M,,*53
lng=-77.437690, lat=43.138355, altitude=139.40, speed=0.09, satellites=4, angle=228.5400, fixquality=1
$GPRMC,140640.200,A,4308.3009,N,07726.2610,W,0.12,184.52,210319,,,A*7C
$GPGGA,140640.400,4308.3008,N,07726.2610,W,1,04,2.11,136.9,M,-34.4,M,,*5D
lng=-77.437690, lat=43.138347, altitude=137.90, speed=0.12, satellites=4, angle=184.5200, fixquality=1
$GPRMC,140640.600,A,4308.3006,N,07726.2609,W,0.19,185.06,210319,,,A*74
$GPGGA,140640.800,4308.3004,N,07726.2609,W,1,04,2.11,136.1,M,-34.4,M,,*5D
lng=-77.437675, lat=43.138347, altitude=136.90, speed=0.19, satellites=4, angle=185.0600, fixquality=1
$GPRMC,140641.000,A,4308.3002,N,07726.2609,W,0.08,165.40,210319,,,A*7B
$GPGGA,140641.200,4308.2999,N,07726.2608,W,1,04,2.11,134.9,M,-34.4,M,,*51
lng=-77.437675, lat=43.138339, altitude=136.10, speed=0.08, satellites=4, angle=165.4000, fixquality=1
$GPRMC,140641.400,A,4308.2996,N,07726.2608,W,0.11,151.13,210319,,,A*72
$GPGGA,140641.600,4308.2995,N,07726.2607,W,1,04,2.11,134.1,M,-34.4,M,,*5E
lng=-77.437675, lat=43.138328, altitude=134.90, speed=0.11, satellites=4, angle=151.1300, fixquality=1
$GPRMC,140641.800,A,4308.2993,N,07726.2607,W,0.13,142.61,210319,,,A*71
$GPGGA,140642.000,4308.2992,N,07726.2607,W,1,04,2.11,133.5,M,-34.4,M,,*5F
lng=-77.437675, lat=43.138320, altitude=134.10, speed=0.13, satellites=4, angle=142.6100, fixquality=1
$GPRMC,140642.200,A,4308.2990,N,07726.2607,W,0.14,162.10,210319,,,A*78
$GPGGA,140642.400,4308.2989,N,07726.2606,W,1,04,2.11,132.9,M,-34.4,M,,*5D
lng=-77.437675, lat=43.138313, altitude=133.50, speed=0.14, satellites=4, angle=162.1000, fixquality=1
$GPRMC,140642.600,A,4308.2987,N,07726.2606,W,0.15,127.20,210319,,,A*78
$GPGGA,140642.800,4308.2985,N,07726.2606,W,1,04,2.11,132.0,M,-34.4,M,,*54
lng=-77.437675, lat=43.138313, altitude=132.90, speed=0.15, satellites=4, angle=127.2000, fixquality=1
$GPRMC,140643.000,A,4308.2984,N,07726.2606,W,0.08,103.04,210319,,,A*70
$GPGGA,140643.200,4308.2983,N,07726.2606,W,1,04,2.11,131.4,M,-34.4,M,,*5E
lng=-77.437675, lat=43.138305, altitude=132.00, speed=0.08, satellites=4, angle=103.0400, fixquality=1
$GPRMC,140643.400,A,4308.2982,N,07726.2607,W,0.04,0.80,210319,,,A*71
$GPGGA,140643.600,4308.2980,N,07726.2607,W,1,04,8.32,130.8,M,-34.4,M,,*5E
lng=-77.437675, lat=43.138305, altitude=131.40, speed=0.04, satellites=4, angle=0.8000, fixquality=1
$GPRMC,140643.800,A,4308.2979,N,07726.2607,W,0.03,328.91,210319,,,A*77
$GPGGA,140644.000,4308.2977,N,07726.2607,W,1,04,2.11,130.2,M,-34.4,M,,*56
lng=-77.437675, lat=43.138298, altitude=130.80, speed=0.03, satellites=4, angle=328.9100, fixquality=1
$GPRMC,140644.200,A,4308.2975,N,07726.2607,W,0.06,50.74,210319,,,A*44
$GPGGA,140644.400,4308.2974,N,07726.2607,W,1,04,2.11,129.6,M,-34.4,M,,*5D
lng=-77.437675, lat=43.138290, altitude=130.20, speed=0.06, satellites=4, angle=50.7400, fixquality=1
$GPRMC,140644.600,A,4308.2973,N,07726.2607,W,0.07,62.18,210319,,,A*4C
$GPGGA,140644.800,4308.2972,N,07726.2607,W,1,04,2.11,128.9,M,-34.4,M,,*59
lng=-77.437675, lat=43.138290, altitude=129.60, speed=0.07, satellites=4, angle=62.1800, fixquality=1
$GPRMC,140645.000,A,4308.2971,N,07726.2608,W,0.14,20.05,210319,,,A*4E
$GPGGA,140645.200,4308.2970,N,07726.2608,W,1,04,2.11,128.4,M,-34.4,M,,*52
lng=-77.437675, lat=43.138282, altitude=128.90, speed=0.14, satellites=4, angle=20.0500, fixquality=1
$GPRMC,140645.400,A,4308.2970,N,07726.2608,W,0.19,30.97,210319,,,A*4C
$GPGGA,140645.600,4308.2969,N,07726.2607,W,1,04,2.11,128.0,M,-34.4,M,,*55
lng=-77.437675, lat=43.138282, altitude=128.40, speed=0.19, satellites=4, angle=30.9700, fixquality=1
$GPRMC,140645.800,A,4308.2968,N,07726.2607,W,0.23,37.12,210319,,,A*45
$GPGGA,140646.000,4308.2968,N,07726.2607,W,1,04,2.10,127.8,M,-34.4,M,,*57
lng=-77.437675, lat=43.138282, altitude=128.00, speed=0.23, satellites=4, angle=37.1200, fixquality=1
$GPRMC,140646.200,A,4308.2968,N,07726.2607,W,0.31,39.42,210319,,,A*44
$GPGGA,140646.400,4308.2967,N,07726.2607,W,1,04,2.10,127.6,M,-34.4,M,,*52
lng=-77.437675, lat=43.138282, altitude=127.80, speed=0.31, satellites=4, angle=39.4200, fixquality=1
$GPRMC,140646.600,A,4308.2966,N,07726.2607,W,0.28,44.28,210319,,,A*40
$GPGGA,140646.800,4308.2965,N,07726.2607,W,1,04,2.11,127.3,M,-34.4,M,,*58
lng=-77.437675, lat=43.138271, altitude=127.60, speed=0.28, satellites=4, angle=44.2800, fixquality=1
$GPRMC,140647.000,A,4308.2965,N,07726.2607,W,0.28,33.02,210319,,,A*4C
$GPGGA,140647.200,4308.2964,N,07726.2607,W,1,04,2.10,127.0,M,-34.4,M,,*50
lng=-77.437675, lat=43.138271, altitude=127.30, speed=0.28, satellites=4, angle=33.0200, fixquality=1
$GPRMC,140647.400,A,4308.2962,N,07726.2608,W,0.23,21.05,210319,,,A*4F
$GPGGA,140647.600,4308.2960,N,07726.2608,W,1,04,2.10,126.5,M,-34.4,M,,*5B
lng=-77.437675, lat=43.138271, altitude=127.00, speed=0.23, satellites=4, angle=21.0500, fixquality=1
$GPRMC,140647.800,A,4308.2958,N,07726.2609,W,0.05,357.70,210319,,,A*7F
$GPGGA,140648.000,4308.2957,N,07726.2610,W,1,04,8.27,125.9,M,-34.4,M,,*5E
lng=-77.437675, lat=43.138263, altitude=126.50, speed=0.05, satellites=4, angle=357.7000, fixquality=1
$GPRMC,140648.200,A,4308.2955,N,07726.2610,W,0.05,22.04,210319,,,A*4D
$GPGGA,140648.400,4308.2954,N,07726.2610,W,1,04,2.10,125.5,M,-34.4,M,,*5B
lng=-77.437690, lat=43.138256, altitude=125.90, speed=0.05, satellites=4, angle=22.0400, fixquality=1
$GPRMC,140648.600,A,4308.2953,N,07726.2609,W,0.10,77.38,210319,,,A*4C
$GPGGA,140648.800,4308.2952,N,07726.2609,W,1,04,2.10,125.1,M,-34.4,M,,*5D
lng=-77.437675, lat=43.138256, altitude=125.50, speed=0.10, satellites=4, angle=77.3800, fixquality=1
$GPRMC,140649.000,A,4308.2951,N,07726.2610,W,0.11,83.80,210319,,,A*48
$GPGGA,140649.200,4308.2950,N,07726.2610,W,1,04,2.10,124.7,M,-34.4,M,,*5B
lng=-77.437690, lat=43.138248, altitude=125.10, speed=0.11, satellites=4, angle=83.8000, fixquality=1
$GPRMC,140649.400,A,4308.2949,N,07726.2610,W,0.12,92.34,210319,,,A*49
$GPGGA,140649.600,4308.2949,N,07726.2610,W,1,04,2.10,124.3,M,-34.4,M,,*53
lng=-77.437690, lat=43.138248, altitude=124.70, speed=0.12, satellites=4, angle=92.3400, fixquality=1
$GPRMC,140649.800,A,4308.2949,N,07726.2610,W,0.11,58.19,210319,,,A*4F
$GPGGA,140650.000,4308.2950,N,07726.2610,W,1,04,2.10,124.1,M,-34.4,M,,*57
lng=-77.437690, lat=43.138248, altitude=124.30, speed=0.11, satellites=4, angle=58.1900, fixquality=1
$GPRMC,140650.200,A,4308.2950,N,07726.2610,W,0.16,67.10,210319,,,A*47
$GPGGA,140650.400,4308.2949,N,07726.2610,W,1,04,2.10,123.9,M,-34.4,M,,*54
lng=-77.437690, lat=43.138248, altitude=124.10, speed=0.16, satellites=4, angle=67.1000, fixquality=1
$GPRMC,140650.600,A,4308.2948,N,07726.2610,W,0.17,77.61,210319,,,A*4C
$GPGGA,140650.800,4308.2947,N,07726.2611,W,1,04,2.10,123.5,M,-34.4,M,,*5B
lng=-77.437690, lat=43.138248, altitude=123.90, speed=0.17, satellites=4, angle=77.6100, fixquality=1
$GPRMC,140651.000,A,4308.2946,N,07726.2611,W,0.13,102.56,210319,,,A*77
$GPGGA,140651.200,4308.2947,N,07726.2611,W,1,04,2.10,123.3,M,-34.4,M,,*56
lng=-77.437690, lat=43.138240, altitude=123.50, speed=0.13, satellites=4, angle=102.5600, fixquality=1
$GPRMC,140651.400,A,4308.2947,N,07726.2611,W,0.13,101.78,210319,,,A*7D
$GPGGA,140651.600,4308.2946,N,07726.2611,W,1,04,2.10,123.0,M,-34.4,M,,*50
lng=-77.437690, lat=43.138248, altitude=123.30, speed=0.13, satellites=4, angle=101.7800, fixquality=1
$GPRMC,140651.800,A,4308.2946,N,07726.2611,W,0.13,103.01,210319,,,A*7C
$GPGGA,140652.000,4308.2945,N,07726.2611,W,1,04,2.10,122.6,M,-34.4,M,,*51
lng=-77.437690, lat=43.138240, altitude=123.00, speed=0.13, satellites=4, angle=103.0100, fixquality=1
$GPRMC,140652.200,A,4308.2944,N,07726.2612,W,0.09,118.48,210319,,,A*78
$GPGGA,140652.400,4308.2943,N,07726.2612,W,1,04,2.10,122.1,M,-34.4,M,,*57
lng=-77.437690, lat=43.138240, altitude=122.60, speed=0.09, satellites=4, angle=118.4800, fixquality=1
$GPRMC,140652.600,A,4308.2942,N,07726.2612,W,0.14,141.78,210319,,,A*79
$GPGGA,140652.800,4308.2941,N,07726.2612,W,1,04,2.10,121.7,M,-34.4,M,,*5C
lng=-77.437690, lat=43.138240, altitude=122.10, speed=0.14, satellites=4, angle=141.7800, fixquality=1
$GPRMC,140653.000,A,4308.2940,N,07726.2612,W,0.20,147.06,210319,,,A*74
$GPGGA,140653.200,4308.2939,N,07726.2612,W,1,04,2.10,121.4,M,-34.4,M,,*5B
lng=-77.437690, lat=43.138233, altitude=121.70, speed=0.20, satellites=4, angle=147.0600, fixquality=1
$GPRMC,140653.400,A,4308.2938,N,07726.2613,W,0.24,163.30,210319,,,A*79
$GPGGA,140653.600,4308.2937,N,07726.2613,W,1,04,2.10,121.2,M,-34.4,M,,*56
lng=-77.437690, lat=43.138233, altitude=121.40, speed=0.24, satellites=4, angle=163.3000, fixquality=1
$GPRMC,140653.800,A,4308.2937,N,07726.2612,W,0.18,140.31,210319,,,A*74
$GPGGA,140654.000,4308.2938,N,07726.2612,W,1,04,2.10,120.9,M,-34.4,M,,*53
lng=-77.437690, lat=43.138225, altitude=121.20, speed=0.18, satellites=4, angle=140.3100, fixquality=1
$GPRMC,140654.200,A,4308.2938,N,07726.2612,W,0.15,67.32,210319,,,A*4C
$GPGGA,140654.400,4308.2938,N,07726.2612,W,1,04,2.10,120.6,M,-34.4,M,,*58
lng=-77.437690, lat=43.138233, altitude=120.90, speed=0.15, satellites=4, angle=67.3200, fixquality=1
$GPRMC,140654.600,A,4308.2938,N,07726.2612,W,0.28,44.37,210319,,,A*42
$GPGGA,140654.800,4308.2940,N,07726.2612,W,1,04,2.10,120.4,M,-34.4,M,,*59
lng=-77.437690, lat=43.138233, altitude=120.60, speed=0.28, satellites=4, angle=44.3700, fixquality=1
$GPRMC,140655.000,A,4308.2943,N,07726.2611,W,0.65,24.19,210319,,,A*49
$GPGGA,140655.200,4308.2944,N,07726.2611,W,1,04,2.10,120.5,M,-34.4,M,,*54
lng=-77.437690, lat=43.138240, altitude=120.40, speed=0.65, satellites=4, angle=24.1900, fixquality=1
$GPRMC,140655.400,A,4308.2945,N,07726.2611,W,0.75,18.84,210319,,,A*41
$GPGGA,140655.600,4308.2948,N,07726.2611,W,1,04,2.10,120.8,M,-34.4,M,,*51
lng=-77.437690, lat=43.138240, altitude=120.50, speed=0.75, satellites=4, angle=18.8400, fixquality=1
$GPRMC,140655.800,A,4308.2951,N,07726.2610,W,1.04,14.74,210319,,,A*4D
$GPGGA,140656.000,4308.2954,N,07726.2610,W,1,04,8.20,121.4,M,-34.4,M,,*5C
lng=-77.437690, lat=43.138248, altitude=120.80, speed=1.04, satellites=4, angle=14.7400, fixquality=1
$GPRMC,140656.200,A,4308.2957,N,07726.2609,W,1.30,13.46,210319,,,A*4B
$GPGGA,140656.400,4308.2960,N,07726.2608,W,1,04,8.19,122.1,M,-34.4,M,,*5A
lng=-77.437675, lat=43.138263, altitude=121.40, speed=1.30, satellites=4, angle=13.4600, fixquality=1
$GPRMC,140656.600,A,4308.2963,N,07726.2607,W,1.38,14.71,210319,,,A*4D
$GPGGA,140656.800,4308.2966,N,07726.2606,W,1,04,8.20,122.9,M,-34.4,M,,*5C
lng=-77.437675, lat=43.138271, altitude=122.10, speed=1.38, satellites=4, angle=14.7100, fixquality=1
$GPRMC,140657.000,A,4308.2968,N,07726.2605,W,1.55,14.75,210319,,,A*4C
$GPGGA,140657.200,4308.2970,N,07726.2605,W,1,04,8.19,123.3,M,-34.4,M,,*52
lng=-77.437675, lat=43.138282, altitude=122.90, speed=1.55, satellites=4, angle=14.7500, fixquality=1
$GPRMC,140657.400,A,4308.2972,N,07726.2604,W,1.79,16.06,210319,,,A*4A
$GPGGA,140657.600,4308.2974,N,07726.2603,W,1,04,2.10,123.6,M,-34.4,M,,*52
lng=-77.437667, lat=43.138290, altitude=123.30, speed=1.79, satellites=4, angle=16.0600, fixquality=1
$GPRMC,140657.800,A,4308.2976,N,07726.2602,W,2.80,18.56,210319,,,A*4A
$GPGGA,140658.001,4308.2978,N,07726.2601,W,1,04,2.10,123.8,M,-34.4,M,,*5A
lng=-77.437667, lat=43.138290, altitude=123.60, speed=2.80, satellites=4, angle=18.5600, fixquality=1
$GPRMC,140658.201,A,4308.2980,N,07726.2601,W,3.56,12.47,210319,,,A*44
$GPGGA,140658.401,4308.2982,N,07726.2600,W,1,04,8.18,123.8,M,-34.4,M,,*58
lng=-77.437667, lat=43.138298, altitude=123.80, speed=3.56, satellites=4, angle=12.4700, fixquality=1
$GPRMC,140658.601,A,4308.2984,N,07726.2600,W,3.48,8.82,210319,,,A*78
$GPGGA,140658.801,4308.2986,N,07726.2599,W,1,04,8.18,123.9,M,-34.4,M,,*52
lng=-77.437660, lat=43.138305, altitude=123.80, speed=3.48, satellites=4, angle=8.8200, fixquality=1
$GPRMC,140659.000,A,4308.2988,N,07726.2598,W,3.64,11.00,210319,,,A*4C
$GPGGA,140659.200,4308.2990,N,07726.2596,W,1,04,8.17,124.0,M,-34.4,M,,*51
lng=-77.437660, lat=43.138313, altitude=123.90, speed=3.64, satellites=4, angle=11.0000, fixquality=1
$GPRMC,140659.400,A,4308.2992,N,07726.2595,W,4.05,15.60,210319,,,A*4C
$GPGGA,140659.600,4308.2995,N,07726.2594,W,1,04,8.17,124.1,M,-34.4,M,,*53
lng=-77.437652, lat=43.138320, altitude=124.00, speed=4.05, satellites=4, angle=15.6000, fixquality=1
$GPRMC,140659.800,A,4308.2998,N,07726.2593,W,4.76,16.80,210319,,,A*45
$GPGGA,140700.000,4308.3002,N,07726.2592,W,1,04,8.17,124.3,M,-34.4,M,,*5A
lng=-77.437652, lat=43.138328, altitude=124.10, speed=4.76, satellites=4, angle=16.8000, fixquality=1
$GPRMC,140700.200,A,4308.3005,N,07726.2591,W,5.83,14.19,210319,,,A*45
$GPGGA,140700.400,4308.3009,N,07726.2589,W,1,04,8.16,124.5,M,-34.4,M,,*58
lng=-77.437652, lat=43.138339, altitude=124.30, speed=5.83, satellites=4, angle=14.1900, fixquality=1
$GPRMC,140700.600,A,4308.3013,N,07726.2588,W,6.73,14.04,210319,,,A*4E
$GPGGA,140700.800,4308.3017,N,07726.2587,W,1,04,8.16,124.6,M,-34.4,M,,*56
lng=-77.437644, lat=43.138355, altitude=124.50, speed=6.73, satellites=4, angle=14.0400, fixquality=1
$GPRMC,140701.000,A,4308.3021,N,07726.2586,W,6.89,10.85,210319,,,A*4E
$GPGGA,140701.200,4308.3025,N,07726.2585,W,1,04,8.15,124.6,M,-34.4,M,,*5D
lng=-77.437644, lat=43.138370, altitude=124.60, speed=6.89, satellites=4, angle=10.8500, fixquality=1
$GPRMC,140701.400,A,4308.3029,N,07726.2584,W,6.88,6.65,210319,,,A*78
$GPGGA,140701.600,4308.3032,N,07726.2584,W,1,04,8.15,124.6,M,-34.4,M,,*5E
lng=-77.437637, lat=43.138378, altitude=124.60, speed=6.88, satellites=4, angle=6.6500, fixquality=1
$GPRMC,140701.800,A,4308.3036,N,07726.2583,W,6.85,4.08,210319,,,A*79
$GPGGA,140702.000,4308.3039,N,07726.2583,W,1,04,8.15,124.7,M,-34.4,M,,*56
lng=-77.437637, lat=43.138393, altitude=124.60, speed=6.85, satellites=4, angle=4.0800, fixquality=1
$GPRMC,140702.200,A,4308.3043,N,07726.2582,W,6.65,3.23,210319,,,A*73
$GPGGA,140702.400,4308.3046,N,07726.2582,W,1,04,8.14,124.6,M,-34.4,M,,*5B
lng=-77.437637, lat=43.138404, altitude=124.70, speed=6.65, satellites=4, angle=3.2300, fixquality=1
$GPRMC,140702.600,A,4308.3048,N,07726.2581,W,6.46,3.06,210319,,,A*79
$GPGGA,140702.800,4308.3050,N,07726.2581,W,1,04,8.14,124.2,M,-34.4,M,,*57
lng=-77.437637, lat=43.138412, altitude=124.60, speed=6.46, satellites=4, angle=3.0600, fixquality=1
$GPRMC,140703.000,A,4308.3052,N,07726.2581,W,6.39,1.47,210319,,,A*7A
$GPGGA,140703.200,4308.3054,N,07726.2581,W,1,04,8.13,123.8,M,-34.4,M,,*52
lng=-77.437637, lat=43.138420, altitude=124.20, speed=6.39, satellites=4, angle=1.4700, fixquality=1
$GPRMC,140703.400,A,4308.3055,N,07726.2580,W,5.89,359.02,210319,,,A*7F
$GPGGA,140703.600,4308.3056,N,07726.2580,W,1,04,8.13,123.5,M,-34.4,M,,*58
lng=-77.437629, lat=43.138427, altitude=123.80, speed=5.89, satellites=4, angle=359.0200, fixquality=1
$GPRMC,140703.800,A,4308.3057,N,07726.2581,W,4.59,357.27,210319,,,A*75
$GPGGA,140704.000,4308.3059,N,07726.2581,W,1,04,8.12,123.3,M,-34.4,M,,*50
lng=-77.437637, lat=43.138427, altitude=123.50, speed=4.59, satellites=4, angle=357.2700, fixquality=1
$GPRMC,140704.200,A,4308.3059,N,07726.2582,W,3.54,352.34,210319,,,A*78
$GPGGA,140704.400,4308.3060,N,07726.2583,W,1,04,8.12,123.2,M,-34.4,M,,*5D
lng=-77.437637, lat=43.138427, altitude=123.30, speed=3.54, satellites=4, angle=352.3400, fixquality=1
$GPRMC,140704.600,A,4308.3060,N,07726.2584,W,2.79,345.21,210319,,,A*7C
$GPGGA,140704.800,4308.3060,N,07726.2584,W,1,04,8.12,123.0,M,-34.4,M,,*54
lng=-77.437637, lat=43.138435, altitude=123.20, speed=2.79, satellites=4, angle=345.2100, fixquality=1
$GPRMC,140705.000,A,4308.3059,N,07726.2585,W,1.58,335.80,210319,,,A*7C
$GPGGA,140705.200,4308.3058,N,07726.2585,W,1,04,2.10,122.7,M,-34.4,M,,*5B
lng=-77.437637, lat=43.138427, altitude=123.00, speed=1.58, satellites=4, angle=335.8000, fixquality=1
$GPRMC,140705.400,A,4308.3058,N,07726.2584,W,0.93,340.25,210319,,,A*73
$GPGGA,140705.600,4308.3058,N,07726.2584,W,1,04,2.10,122.6,M,-34.4,M,,*5F
lng=-77.437637, lat=43.138427, altitude=122.70, speed=0.93, satellites=4, angle=340.2500, fixquality=1
$GPRMC,140705.800,A,4308.3057,N,07726.2584,W,0.50,349.63,210319,,,A*74
$GPGGA,140706.000,4308.3057,N,07726.2584,W,1,04,8.11,122.5,M,-34.4,M,,*5D
lng=-77.437637, lat=43.138427, altitude=122.60, speed=0.50, satellites=4, angle=349.6300, fixquality=1
$GPRMC,140706.200,A,4308.3057,N,07726.2585,W,0.45,340.56,210319,,,A*77
$GPGGA,140706.400,4308.3056,N,07726.2585,W,1,04,2.10,122.4,M,-34.4,M,,*53
lng=-77.437637, lat=43.138427, altitude=122.50, speed=0.45, satellites=4, angle=340.5600, fixquality=1
$GPRMC,140706.600,A,4308.3056,N,07726.2585,W,0.47,335.69,210319,,,A*7E
$GPGGA,140706.800,4308.3055,N,07726.2585,W,1,04,2.10,122.2,M,-34.4,M,,*5A
lng=-77.437637, lat=43.138427, altitude=122.40, speed=0.47, satellites=4, angle=335.6900, fixquality=1
$GPRMC,140707.000,A,4308.3055,N,07726.2586,W,0.44,335.73,210319,,,A*71
$GPGGA,140707.200,4308.3055,N,07726.2585,W,1,04,2.10,122.1,M,-34.4,M,,*52
lng=-77.437644, lat=43.138427, altitude=122.20, speed=0.44, satellites=4, angle=335.7300, fixquality=1
$GPRMC,140707.400,A,4308.3054,N,07726.2585,W,0.41,339.31,210319,,,A*78
$GPGGA,140707.600,4308.3055,N,07726.2586,W,1,04,2.10,122.1,M,-34.4,M,,*55
lng=-77.437637, lat=43.138420, altitude=122.10, speed=0.41, satellites=4, angle=339.3100, fixquality=1
$GPRMC,140707.800,A,4308.3055,N,07726.2586,W,0.40,330.36,210319,,,A*79
$GPGGA,140708.000,4308.3054,N,07726.2586,W,1,04,2.10,122.1,M,-34.4,M,,*5D
lng=-77.437644, lat=43.138427, altitude=122.10, speed=0.40, satellites=4, angle=330.3600, fixquality=1
$GPRMC,140708.200,A,4308.3054,N,07726.2587,W,0.40,323.53,210319,,,A*7D
$GPGGA,140708.400,4308.3054,N,07726.2587,W,1,04,2.10,122.1,M,-34.4,M,,*58
lng=-77.437644, lat=43.138420, altitude=122.10, speed=0.40, satellites=4, angle=323.5300, fixquality=1
$GPRMC,140708.600,A,4308.3054,N,07726.2586,W,0.34,328.68,210319,,,A*78
$GPGGA,140708.800,4308.3053,N,07726.2585,W,1,04,2.10,122.1,M,-34.4,M,,*51
lng=-77.437644, lat=43.138420, altitude=122.10, speed=0.34, satellites=4, angle=328.6800, fixquality=1
$GPRMC,140709.000,A,4308.3053,N,07726.2585,W,0.18,342.92,210319,,,A*7C
$GPGGA,140709.200,4308.3053,N,07726.2585,W,1,04,2.10,122.0,M,-34.4,M,,*5B
lng=-77.437637, lat=43.138420, altitude=122.10, speed=0.18, satellites=4, angle=342.9200, fixquality=1
$GPRMC,140709.400,A,4308.3053,N,07726.2585,W,0.11,348.25,210319,,,A*77
$GPGGA,140709.600,4308.3053,N,07726.2585,W,1,04,8.08,122.0,M,-34.4,M,,*5C
lng=-77.437637, lat=43.138420, altitude=122.00, speed=0.11, satellites=4, angle=348.2500, fixquality=1
$GPRMC,140709.800,A,4308.3053,N,07726.2585,W,0.15,6.44,210319,,,A*71
$GPGGA,140710.000,4308.3053,N,07726.2585,W,1,04,8.07,122.0,M,-34.4,M,,*5D
lng=-77.437637, lat=43.138420, altitude=122.00, speed=0.15, satellites=4, angle=6.4400, fixquality=1
$GPRMC,140710.200,A,4308.3053,N,07726.2585,W,0.17,20.79,210319,,,A*4B
$GPGGA,140710.400,4308.3053,N,07726.2585,W,1,04,2.10,122.0,M,-34.4,M,,*55
lng=-77.437637, lat=43.138420, altitude=122.00, speed=0.17, satellites=4, angle=20.7900, fixquality=1
$GPRMC,140710.600,A,4308.3053,N,07726.2585,W,0.14,48.85,210319,,,A*41
$GPGGA,140710.800,4308.3053,N,07726.2585,W,1,04,2.10,122.0,M,-34.4,M,,*59
lng=-77.437637, lat=43.138420, altitude=122.00, speed=0.14, satellites=4, angle=48.8500, fixquality=1
$GPRMC,140711.000,A,4308.3053,N,07726.2585,W,0.12,95.38,210319,,,A*46
$GPGGA,140711.200,4308.3053,N,07726.2584,W,1,04,2.10,122.0,M,-34.4,M,,*53
lng=-77.437637, lat=43.138420, altitude=122.00, speed=0.12, satellites=4, angle=95.3800, fixquality=1
$GPRMC,140711.400,A,4308.3053,N,07726.2584,W,0.11,78.93,210319,,,A*42
$GPGGA,140711.600,4308.3053,N,07726.2584,W,1,04,2.10,122.0,M,-34.4,M,,*57
lng=-77.437637, lat=43.138420, altitude=122.00, speed=0.11, satellites=4, angle=78.9300, fixquality=1
$GPRMC,140711.800,A,4308.3053,N,07726.2584,W,0.11,92.70,210319,,,A*47
$GPGGA,140712.000,4308.3053,N,07726.2584,W,1,04,2.10,122.0,M,-34.4,M,,*52
lng=-77.437637, lat=43.138420, altitude=122.00, speed=0.11, satellites=4, angle=92.7000, fixquality=1
$GPRMC,140712.200,A,4308.3053,N,07726.2584,W,0.22,84.74,210319,,,A*4D
$GPGGA,140712.400,4308.3053,N,07726.2584,W,1,04,2.10,122.0,M,-34.4,M,,*56
lng=-77.437637, lat=43.138420, altitude=122.00, speed=0.22, satellites=4, angle=84.7400, fixquality=1
$GPRMC,140712.600,A,4308.3053,N,07726.2584,W,0.24,66.24,210319,,,A*46
$GPGGA,140712.800,4308.3053,N,07726.2583,W,1,04,2.10,122.0,M,-34.4,M,,*5D
lng=-77.437637, lat=43.138420, altitude=122.00, speed=0.24, satellites=4, angle=66.2400, fixquality=1
$GPRMC,140713.000,A,4308.3053,N,07726.2583,W,0.46,33.81,210319,,,A*4D
$GPGGA,140713.200,4308.3053,N,07726.2583,W,1,04,2.10,122.0,M,-34.4,M,,*56
lng=-77.437637, lat=43.138420, altitude=122.00, speed=0.46, satellites=4, angle=33.8100, fixquality=1
$GPRMC,140713.400,A,4308.3054,N,07726.2582,W,0.81,26.40,210319,,,A*4D
$GPGGA,140713.600,4308.3055,N,07726.2581,W,1,04,2.10,121.7,M,-34.4,M,,*52
lng=-77.437637, lat=43.138420, altitude=122.00, speed=0.81, satellites=4, angle=26.4000, fixquality=1
$GPRMC,140713.800,A,4308.3057,N,07726.2580,W,1.15,24.69,210319,,,A*45
$GPGGA,140714.000,4308.3058,N,07726.2579,W,1,04,2.10,121.6,M,-34.4,M,,*58
lng=-77.437629, lat=43.138427, altitude=121.70, speed=1.15, satellites=4, angle=24.6900, fixquality=1
$GPRMC,140714.200,A,4308.3060,N,07726.2579,W,1.35,20.38,210319,,,A*48
$GPGGA,140714.400,4308.3061,N,07726.2578,W,1,04,2.10,121.6,M,-34.4,M,,*57
lng=-77.437629, lat=43.138435, altitude=121.60, speed=1.35, satellites=4, angle=20.3800, fixquality=1
$GPRMC,140714.600,A,4308.3063,N,07726.2577,W,1.57,20.09,210319,,,A*47
$GPGGA,140714.800,4308.3064,N,07726.2575,W,1,04,2.10,121.4,M,-34.4,M,,*51
lng=-77.437629, lat=43.138435, altitude=121.60, speed=1.57, satellites=4, angle=20.0900, fixquality=1
$GPRMC,140715.000,A,4308.3064,N,07726.2574,W,1.68,22.48,210319,,,A*4F
$GPGGA,140715.200,4308.3065,N,07726.2573,W,1,04,2.10,121.3,M,-34.4,M,,*5A
lng=-77.437622, lat=43.138442, altitude=121.40, speed=1.68, satellites=4, angle=22.4800, fixquality=1
$GPRMC,140715.400,A,4308.3066,N,07726.2572,W,2.26,30.15,210319,,,A*4D
$GPGGA,140715.600,4308.3066,N,07726.2571,W,1,04,2.10,121.1,M,-34.4,M,,*5D
lng=-77.437622, lat=43.138442, altitude=121.30, speed=2.26, satellites=4, angle=30.1500, fixquality=1
$GPRMC,140715.800,A,4308.3067,N,07726.2570,W,2.91,31.69,210319,,,A*44
$GPGGA,140716.000,4308.3068,N,07726.2569,W,1,04,2.10,120.9,M,-34.4,M,,*56
lng=-77.437614, lat=43.138442, altitude=121.10, speed=2.91, satellites=4, angle=31.6900, fixquality=1
$GPRMC,140716.200,A,4308.3069,N,07726.2568,W,2.82,30.90,210319,,,A*4F
$GPGGA,140716.400,4308.3070,N,07726.2566,W,1,04,2.10,120.7,M,-34.4,M,,*5A
lng=-77.437614, lat=43.138450, altitude=120.90, speed=2.82, satellites=4, angle=30.9000, fixquality=1
$GPRMC,140716.600,A,4308.3071,N,07726.2565,W,2.89,33.87,210319,,,A*41
$GPGGA,140716.800,4308.3072,N,07726.2563,W,1,04,2.10,120.7,M,-34.4,M,,*51
lng=-77.437606, lat=43.138450, altitude=120.70, speed=2.89, satellites=4, angle=33.8700, fixquality=1
$GPRMC,140717.000,A,4308.3073,N,07726.2562,W,2.97,36.85,210319,,,A*4B
$GPGGA,140717.200,4308.3073,N,07726.2561,W,1,04,2.10,120.5,M,-34.4,M,,*5B
lng=-77.437606, lat=43.138450, altitude=120.70, speed=2.97, satellites=4, angle=36.8500, fixquality=1
$GPRMC,140717.400,A,4308.3073,N,07726.2560,W,2.41,42.35,210319,,,A*4E
$GPGGA,140717.600,4308.3072,N,07726.2559,W,1,04,2.10,120.3,M,-34.4,M,,*53
lng=-77.437599, lat=43.138450, altitude=120.50, speed=2.41, satellites=4, angle=42.3500, fixquality=1
$GPRMC,140717.800,A,4308.3073,N,07726.2558,W,1.83,51.59,210319,,,A*4C
$GPGGA,140718.000,4308.3073,N,07726.2557,W,1,04,2.10,120.3,M,-34.4,M,,*55
lng=-77.437599, lat=43.138450, altitude=120.30, speed=1.83, satellites=4, angle=51.5900, fixquality=1
$GPRMC,140718.200,A,4308.3072,N,07726.2556,W,1.78,66.40,210319,,,A*4E
$GPGGA,140718.400,4308.3072,N,07726.2554,W,1,04,2.10,120.1,M,-34.4,M,,*51
lng=-77.437591, lat=43.138450, altitude=120.30, speed=1.78, satellites=4, angle=66.4000, fixquality=1
$GPRMC,140718.600,A,4308.3072,N,07726.2553,W,1.66,69.36,210319,,,A*4E
$GPGGA,140718.800,4308.3072,N,07726.2552,W,1,04,2.10,120.0,M,-34.4,M,,*5A
lng=-77.437591, lat=43.138450, altitude=120.10, speed=1.66, satellites=4, angle=69.3600, fixquality=1
$GPRMC,140719.000,A,4308.3072,N,07726.2552,W,1.25,68.36,210319,,,A*4E
$GPGGA,140719.200,4308.3072,N,07726.2551,W,1,04,2.10,119.9,M,-34.4,M,,*51
lng=-77.437591, lat=43.138450, altitude=120.00, speed=1.25, satellites=4, angle=68.3600, fixquality=1
$GPRMC,140719.400,A,4308.3071,N,07726.2549,W,1.23,73.70,210319,,,A*4D
$GPGGA,140719.600,4308.3070,N,07726.2549,W,1,04,2.10,119.7,M,-34.4,M,,*50
lng=-77.437583, lat=43.138450, altitude=119.90, speed=1.23, satellites=4, angle=73.7000, fixquality=1
$GPRMC,140719.800,A,4308.3070,N,07726.2549,W,0.97,74.35,210319,,,A*48
$GPGGA,140720.000,4308.3069,N,07726.2549,W,1,04,2.10,119.5,M,-34.4,M,,*56
lng=-77.437583, lat=43.138450, altitude=119.70, speed=0.97, satellites=4, angle=74.3500, fixquality=1
$GPRMC,140720.200,A,4308.3069,N,07726.2549,W,0.79,73.15,210319,,,A*45
$GPGGA,140720.400,4308.3068,N,07726.2549,W,1,04,2.10,119.2,M,-34.4,M,,*54
lng=-77.437583, lat=43.138450, altitude=119.50, speed=0.79, satellites=4, angle=73.1500, fixquality=1
$GPRMC,140720.600,A,4308.3068,N,07726.2549,W,0.73,66.86,210319,,,A*44
$GPGGA,140720.800,4308.3068,N,07726.2551,W,1,04,2.10,119.1,M,-34.4,M,,*52
lng=-77.437583, lat=43.138442, altitude=119.20, speed=0.73, satellites=4, angle=66.8600, fixquality=1
$GPRMC,140721.000,A,4308.3069,N,07726.2553,W,0.54,30.36,210319,,,A*44
$GPGGA,140721.200,4308.3069,N,07726.2555,W,1,04,2.10,119.0,M,-34.4,M,,*5D
lng=-77.437591, lat=43.138450, altitude=119.10, speed=0.54, satellites=4, angle=30.3600, fixquality=1
$GPRMC,140721.400,A,4308.3069,N,07726.2556,W,0.48,355.36,210319,,,A*78
$GPGGA,140721.600,4308.3070,N,07726.2558,W,1,04,7.97,118.9,M,-34.4,M,,*5E
lng=-77.437591, lat=43.138450, altitude=119.00, speed=0.48, satellites=4, angle=355.3600, fixquality=1
$GPRMC,140721.800,A,4308.3070,N,07726.2561,W,0.79,321.36,210319,,,A*79
$GPGGA,140722.000,4308.3070,N,07726.2565,W,1,04,2.10,118.8,M,-34.4,M,,*5E
lng=-77.437599, lat=43.138450, altitude=118.90, speed=0.79, satellites=4, angle=321.3600, fixquality=1
$GPRMC,140722.200,A,4308.3071,N,07726.2569,W,1.33,306.28,210319,,,A*7C
$GPGGA,140722.400,4308.3071,N,07726.2571,W,1,04,2.10,118.6,M,-34.4,M,,*50
lng=-77.437614, lat=43.138450, altitude=118.80, speed=1.33, satellites=4, angle=306.2800, fixquality=1
$GPRMC,140722.600,A,4308.3071,N,07726.2573,W,1.48,303.28,210319,,,A*7A
$GPGGA,140722.800,4308.3071,N,07726.2575,W,1,04,2.10,118.4,M,-34.4,M,,*5A
lng=-77.437622, lat=43.138450, altitude=118.60, speed=1.48, satellites=4, angle=303.2800, fixquality=1
$GPRMC,140723.000,A,4308.3070,N,07726.2577,W,1.61,298.19,210319,,,A*72
$GPGGA,140723.200,4308.3070,N,07726.2580,W,1,04,2.09,118.2,M,-34.4,M,,*54
lng=-77.437629, lat=43.138450, altitude=118.40, speed=1.61, satellites=4, angle=298.1900, fixquality=1
$GPRMC,140723.400,A,4308.3069,N,07726.2583,W,2.05,287.29,210319,,,A*79
$GPGGA,140723.600,4308.3068,N,07726.2586,W,1,04,2.10,117.9,M,-34.4,M,,*53
lng=-77.437637, lat=43.138450, altitude=118.20, speed=2.05, satellites=4, angle=287.2900, fixquality=1
$GPRMC,140723.800,A,4308.3066,N,07726.2589,W,2.66,276.37,210319,,,A*74
$GPGGA,140724.000,4308.3066,N,07726.2593,W,1,04,2.09,117.6,M,-34.4,M,,*5F
lng=-77.437644, lat=43.138442, altitude=117.90, speed=2.66, satellites=4, angle=276.3700, fixquality=1
$GPRMC,140724.200,A,4308.3065,N,07726.2616,W,6.46,274.43,210319,,,A*78
$GPGGA,140724.400,4308.3067,N,07726.2629,W,1,05,1.86,119.1,M,-34.4,M,,*54
lng=-77.437698, lat=43.138442, altitude=117.60, speed=6.46, satellites=4, angle=274.4300, fixquality=1
$GPRMC,140724.600,A,4308.3069,N,07726.2644,W,8.54,274.97,210319,,,A*73
$GPGGA,140724.800,4308.3070,N,07726.2654,W,1,05,7.42,120.1,M,-34.4,M,,*50
lng=-77.437736, lat=43.138450, altitude=119.10, speed=8.54, satellites=5, angle=274.9700, fixquality=1
$GPRMC,140725.000,A,4308.3072,N,07726.2667,W,10.02,277.87,210319,,,A*47
$GPGGA,140725.200,4308.3074,N,07726.2677,W,1,05,1.86,121.1,M,-34.4,M,,*51
lng=-77.437774, lat=43.138450, altitude=120.10, speed=10.02, satellites=5, angle=277.8700, fixquality=1
$GPRMC,140725.400,A,4308.3076,N,07726.2687,W,10.01,278.45,210319,,,A*4B
$GPGGA,140725.600,4308.3077,N,07726.2696,W,1,05,1.86,121.7,M,-34.4,M,,*5F
lng=-77.437812, lat=43.138462, altitude=121.10, speed=10.01, satellites=5, angle=278.4500, fixquality=1
$GPRMC,140725.800,A,4308.3078,N,07726.2706,W,10.02,279.19,210319,,,A*4A
$GPGGA,140726.000,4308.3079,N,07726.2715,W,1,05,1.86,122.4,M,-34.4,M,,*5E
lng=-77.437843, lat=43.138462, altitude=121.70, speed=10.02, satellites=5, angle=279.1900, fixquality=1
$GPRMC,140726.200,A,4308.3080,N,07726.2724,W,10.11,279.90,210319,,,A*47
$GPGGA,140726.400,4308.3081,N,07726.2734,W,1,05,1.86,122.6,M,-34.4,M,,*5C
lng=-77.437873, lat=43.138469, altitude=122.40, speed=10.11, satellites=5, angle=279.9000, fixquality=1
$GPRMC,140726.600,A,4308.3083,N,07726.2745,W,10.63,279.93,210319,,,A*41
$GPGGA,140726.800,4308.3084,N,07726.2755,W,1,05,1.86,122.9,M,-34.4,M,,*5D
lng=-77.437904, lat=43.138469, altitude=122.60, speed=10.63, satellites=5, angle=279.9300, fixquality=1
$GPRMC,140727.000,A,4308.3086,N,07726.2765,W,11.27,280.79,210319,,,A*42
$GPGGA,140727.200,4308.3087,N,07726.2776,W,1,05,1.86,123.1,M,-34.4,M,,*5D
lng=-77.437942, lat=43.138477, altitude=122.90, speed=11.27, satellites=5, angle=280.7900, fixquality=1
$GPRMC,140727.400,A,4308.3089,N,07726.2787,W,12.03,280.27,210319,,,A*4B
$GPGGA,140727.600,4308.3090,N,07726.2799,W,1,05,1.86,123.1,M,-34.4,M,,*5E
lng=-77.437980, lat=43.138484, altitude=123.10, speed=12.03, satellites=5, angle=280.2700, fixquality=1
$GPRMC,140727.800,A,4308.3092,N,07726.2811,W,13.03,280.60,210319,,,A*4F
$GPGGA,140728.000,4308.3094,N,07726.2823,W,1,05,1.86,123.1,M,-34.4,M,,*5D
lng=-77.438018, lat=43.138484, altitude=123.10, speed=13.03, satellites=5, angle=280.6000, fixquality=1
$GPRMC,140728.200,A,4308.3097,N,07726.2834,W,13.57,282.49,210319,,,A*40
$GPGGA,140728.400,4308.3100,N,07726.2846,W,1,05,1.86,123.2,M,-34.4,M,,*55
lng=-77.438056, lat=43.138492, altitude=123.10, speed=13.57, satellites=5, angle=282.4900, fixquality=1
$GPRMC,140728.600,A,4308.3102,N,07726.2857,W,13.85,283.09,210319,,,A*46
$GPGGA,140728.800,4308.3104,N,07726.2869,W,1,05,1.86,123.4,M,-34.4,M,,*56
lng=-77.438095, lat=43.138500, altitude=123.20, speed=13.85, satellites=5, angle=283.0900, fixquality=1
$GPRMC,140729.000,A,4308.3107,N,07726.2881,W,14.27,283.39,210319,,,A*43
$GPGGA,140729.200,4308.3110,N,07726.2892,W,1,05,1.86,123.6,M,-34.4,M,,*5E
lng=-77.438133, lat=43.138507, altitude=123.40, speed=14.27, satellites=5, angle=283.3900, fixquality=1
$GPRMC,140729.400,A,4308.3113,N,07726.2905,W,14.69,284.11,210319,,,A*48
$GPGGA,140729.600,4308.3117,N,07726.2918,W,1,05,1.86,123.9,M,-34.4,M,,*51
lng=-77.438179, lat=43.138526, altitude=123.60, speed=14.69, satellites=5, angle=284.1100, fixquality=1
$GPRMC,140729.800,A,4308.3121,N,07726.2931,W,15.55,285.09,210319,,,A*44
$GPGGA,140730.000,4308.3126,N,07726.2943,W,1,05,1.86,124.1,M,-34.4,M,,*5C
lng=-77.438217, lat=43.138534, altitude=123.90, speed=15.55, satellites=5, angle=285.0900, fixquality=1
$GPRMC,140730.200,A,4308.3132,N,07726.2956,W,15.95,287.06,210319,,,A*44
$GPGGA,140730.400,4308.3137,N,07726.2969,W,1,06,1.15,124.8,M,-34.4,M,,*50
lng=-77.438255, lat=43.138549, altitude=124.10, speed=15.95, satellites=5, angle=287.0600, fixquality=1
$GPRMC,140730.600,A,4308.3143,N,07726.2982,W,16.44,288.46,210319,,,A*4B
$GPGGA,140730.800,4308.3154,N,07726.2998,W,1,06,1.15,125.4,M,-34.4,M,,*5A
lng=-77.438308, lat=43.138572, altitude=124.80, speed=16.44, satellites=6, angle=288.4600, fixquality=1
$GPRMC,140731.000,A,4308.3250,N,07726.3008,W,17.08,290.62,210319,,,A*41
$GPGGA,140731.200,4308.3273,N,07726.3021,W,1,06,1.15,132.0,M,-34.4,M,,*5F
lng=-77.438346, lat=43.138751, altitude=125.40, speed=17.08, satellites=6, angle=290.6200, fixquality=1
$GPRMC,140731.400,A,4308.3286,N,07726.3035,W,17.52,292.78,210319,,,A*46
$GPGGA,140731.600,4308.3294,N,07726.3049,W,1,06,1.15,133.0,M,-34.4,M,,*5D
lng=-77.438392, lat=43.138809, altitude=132.00, speed=17.52, satellites=6, angle=292.7800, fixquality=1
$GPRMC,140731.800,A,4308.3303,N,07726.3065,W,18.54,300.03,210319,,,A*4C
$GPGGA,140732.000,4308.3309,N,07726.3079,W,1,06,1.15,134.2,M,-34.4,M,,*5B
lng=-77.438446, lat=43.138835, altitude=133.00, speed=18.54, satellites=6, angle=300.0300, fixquality=1
$GPRMC,140732.200,A,4308.3314,N,07726.3093,W,18.64,301.03,210319,,,A*48
$GPGGA,140732.400,4308.3319,N,07726.3106,W,1,06,1.15,135.8,M,-34.4,M,,*5C
lng=-77.438484, lat=43.138858, altitude=134.20, speed=18.64, satellites=6, angle=301.0300, fixquality=1
$GPRMC,140732.600,A,4308.3325,N,07726.3120,W,18.68,301.59,210319,,,A*44
$GPGGA,140732.800,4308.3331,N,07726.3132,W,1,06,1.15,137.1,M,-34.4,M,,*56
lng=-77.438529, lat=43.138874, altitude=135.80, speed=18.68, satellites=6, angle=301.5900, fixquality=1
$GPRMC,140733.000,A,4308.3337,N,07726.3145,W,18.72,302.13,210319,,,A*45
$GPGGA,140733.200,4308.3342,N,07726.3158,W,1,06,1.15,138.1,M,-34.4,M,,*5A
lng=-77.438575, lat=43.138893, altitude=137.10, speed=18.72, satellites=6, angle=302.1300, fixquality=1
$GPRMC,140733.400,A,4308.3347,N,07726.3171,W,18.74,302.03,210319,,,A*46
$GPGGA,140733.600,4308.3353,N,07726.3184,W,1,06,1.15,138.9,M,-34.4,M,,*57
lng=-77.438613, lat=43.138908, altitude=138.10, speed=18.74, satellites=6, angle=302.0300, fixquality=1
$GPRMC,140733.800,A,4308.3359,N,07726.3197,W,19.00,302.28,210319,,,A*46
$GPGGA,140734.000,4308.3365,N,07726.3210,W,1,06,1.15,139.8,M,-34.4,M,,*5D
lng=-77.438667, lat=43.138931, altitude=138.90, speed=19.00, satellites=6, angle=302.2800, fixquality=1
$GPRMC,140734.200,A,4308.3371,N,07726.3223,W,19.32,302.64,210319,,,A*44
$GPGGA,140734.400,4308.3377,N,07726.3237,W,1,06,1.15,140.5,M,-34.4,M,,*5C
lng=-77.438705, lat=43.138950, altitude=139.80, speed=19.32, satellites=6, angle=302.6400, fixquality=1
$GPRMC,140734.600,A,4308.3383,N,07726.3251,W,19.96,302.72,210319,,,A*41
$GPGGA,140734.800,4308.3389,N,07726.3265,W,1,06,1.15,141.2,M,-34.4,M,,*50
lng=-77.438751, lat=43.138973, altitude=140.50, speed=19.96, satellites=6, angle=302.7200, fixquality=1
$GPRMC,140735.000,A,4308.3396,N,07726.3279,W,20.52,302.46,210319,,,A*4D
$GPGGA,140735.200,4308.3402,N,07726.3293,W,1,06,1.15,141.8,M,-34.4,M,,*5C
lng=-77.438804, lat=43.138988, altitude=141.20, speed=20.52, satellites=6, angle=302.4600, fixquality=1
$GPRMC,140735.400,A,4308.3408,N,07726.3308,W,20.98,302.12,210319,,,A*49
$GPGGA,140735.600,4308.3414,N,07726.3322,W,1,06,1.15,142.3,M,-34.4,M,,*5C
lng=-77.438842, lat=43.139015, altitude=141.80, speed=20.98, satellites=6, angle=302.1200, fixquality=1
$GPRMC,140735.800,A,4308.3421,N,07726.3337,W,21.51,302.54,210319,,,A*44
$GPGGA,140736.000,4308.3427,N,07726.3353,W,1,06,1.15,142.9,M,-34.4,M,,*55
lng=-77.438888, lat=43.139038, altitude=142.30, speed=21.51, satellites=6, angle=302.5400, fixquality=1
$GPRMC,140736.200,A,4308.3433,N,07726.3368,W,21.92,302.25,210319,,,A*4D
$GPGGA,140736.400,4308.3440,N,07726.3383,W,1,06,1.15,143.4,M,-34.4,M,,*51
lng=-77.438949, lat=43.139053, altitude=142.90, speed=21.92, satellites=6, angle=302.2500, fixquality=1
$GPRMC,140736.600,A,4308.3447,N,07726.3399,W,22.56,302.80,210319,,,A*40
$GPGGA,140736.800,4308.3454,N,07726.3416,W,1,06,1.15,144.1,M,-34.4,M,,*51
lng=-77.438995, lat=43.139080, altitude=143.40, speed=22.56, satellites=6, angle=302.8000, fixquality=1
$GPRMC,140737.000,A,4308.3461,N,07726.3432,W,23.01,303.10,210319,,,A*4E
$GPGGA,140737.200,4308.3468,N,07726.3447,W,1,06,1.15,144.6,M,-34.4,M,,*56
lng=-77.439056, lat=43.139102, altitude=144.10, speed=23.01, satellites=6, angle=303.1000, fixquality=1
$GPRMC,140737.400,A,4308.3476,N,07726.3462,W,23.31,303.02,210319,,,A*49
$GPGGA,140737.600,4308.3483,N,07726.3477,W,1,06,1.15,144.8,M,-34.4,M,,*5A
lng=-77.439102, lat=43.139125, altitude=144.60, speed=23.31, satellites=6, angle=303.0200, fixquality=1
$GPRMC,140737.800,A,4308.3490,N,07726.3492,W,23.43,303.18,210319,,,A*4C
$GPGGA,140738.000,4308.3498,N,07726.3507,W,1,06,1.15,145.1,M,-34.4,M,,*57
lng=-77.439155, lat=43.139152, altitude=144.80, speed=23.43, satellites=6, angle=303.1800, fixquality=1
$GPRMC,140738.200,A,4308.3506,N,07726.3522,W,23.80,304.14,210319,,,A*49
$GPGGA,140738.400,4308.3514,N,07726.3536,W,1,06,1.15,145.4,M,-34.4,M,,*51
lng=-77.439201, lat=43.139175, altitude=145.10, speed=23.80, satellites=6, angle=304.1400, fixquality=1
$GPRMC,140738.600,A,4308.3522,N,07726.3551,W,24.04,305.94,210319,,,A*4D
$GPGGA,140738.800,4308.3530,N,07726.3566,W,1,06,1.15,145.9,M,-34.4,M,,*53
lng=-77.439247, lat=43.139202, altitude=145.40, speed=24.04, satellites=6, angle=305.9400, fixquality=1
$GPRMC,140739.000,A,4308.3537,N,07726.3581,W,24.10,306.86,210319,,,A*46
$GPGGA,140739.200,4308.3545,N,07726.3596,W,1,06,1.15,146.4,M,-34.4,M,,*5B
lng=-77.439300, lat=43.139225, altitude=145.90, speed=24.10, satellites=6, angle=306.8600, fixquality=1
$GPRMC,140739.400,A,4308.3553,N,07726.3609,W,24.03,307.47,210319,,,A*4D
$GPGGA,140739.600,4308.3561,N,07726.3623,W,1,06,1.15,146.7,M,-34.4,M,,*57
lng=-77.439346, lat=43.139259, altitude=146.40, speed=24.03, satellites=6, angle=307.4700, fixquality=1
$GPRMC,140739.800,A,4308.3569,N,07726.3637,W,23.82,308.41,210319,,,A*42
$GPGGA,140740.000,4308.3578,N,07726.3651,W,1,06,1.15,147.0,M,-34.4,M,,*54
lng=-77.439399, lat=43.139282, altitude=146.70, speed=23.82, satellites=6, angle=308.4100, fixquality=1
$GPRMC,140740.200,A,4308.3587,N,07726.3664,W,23.77,310.00,210319,,,A*46
$GPGGA,140740.400,4308.3596,N,07726.3677,W,1,06,1.15,147.4,M,-34.4,M,,*50
lng=-77.439437, lat=43.139316, altitude=147.00, speed=23.77, satellites=6, angle=310.0000, fixquality=1
$GPRMC,140740.600,A,4308.3607,N,07726.3686,W,23.84,314.82,210319,,,A*47
$GPGGA,140740.800,4308.3621,N,07726.3695,W,1,06,1.15,147.9,M,-34.4,M,,*52
lng=-77.439476, lat=43.139347, altitude=147.40, speed=23.84, satellites=6, angle=314.8200, fixquality=1
$GPRMC,140741.000,A,4308.3631,N,07726.3705,W,24.32,320.59,210319,,,A*44
$GPGGA,140741.200,4308.3643,N,07726.3715,W,1,06,1.15,148.3,M,-34.4,M,,*51
lng=-77.439506, lat=43.139389, altitude=147.90, speed=24.32, satellites=6, angle=320.5900, fixquality=1
$GPRMC,140741.400,A,4308.3654,N,07726.3724,W,24.36,323.79,210319,,,A*45
$GPGGA,140741.600,4308.3666,N,07726.3732,W,1,06,1.15,148.7,M,-34.4,M,,*53
lng=-77.439544, lat=43.139419, altitude=148.30, speed=24.36, satellites=6, angle=323.7900, fixquality=1
$GPRMC,140741.800,A,4308.3679,N,07726.3740,W,24.65,328.18,210319,,,A*4E
$GPGGA,140742.000,4308.3691,N,07726.3748,W,1,06,1.15,149.0,M,-34.4,M,,*55
lng=-77.439567, lat=43.139461, altitude=148.70, speed=24.65, satellites=6, angle=328.1800, fixquality=1
$GPRMC,140742.200,A,4308.3703,N,07726.3755,W,24.72,331.53,210319,,,A*4E
$GPGGA,140742.400,4308.3715,N,07726.3763,W,1,06,1.15,149.4,M,-34.4,M,,*51
lng=-77.439590, lat=43.139503, altitude=149.00, speed=24.72, satellites=6, angle=331.5300, fixquality=1
$GPRMC,140742.600,A,4308.3728,N,07726.3770,W,24.71,333.63,210319,,,A*46
$GPGGA,140742.800,4308.3740,N,07726.3775,W,1,06,1.15,149.7,M,-34.4,M,,*59
lng=-77.439613, lat=43.139541, altitude=149.40, speed=24.71, satellites=6, angle=333.6300, fixquality=1
$GPRMC,140743.000,A,4308.3751,N,07726.3776,W,24.29,339.48,210319,,,A*47
$GPGGA,140743.200,4308.3764,N,07726.3780,W,1,06,1.15,150.5,M,-34.4,M,,*54
lng=-77.439620, lat=43.139583, altitude=149.70, speed=24.29, satellites=6, angle=339.4800, fixquality=1
$GPRMC,140743.400,A,4308.3777,N,07726.3786,W,24.25,342.22,210319,,,A*44
$GPGGA,140743.600,4308.3790,N,07726.3790,W,1,06,1.15,150.9,M,-34.4,M,,*56
lng=-77.439643, lat=43.139633, altitude=150.50, speed=24.25, satellites=6, angle=342.2200, fixquality=1
$GPRMC,140743.800,A,4308.3802,N,07726.3793,W,24.01,344.85,210319,,,A*4C
$GPGGA,140744.000,4308.3815,N,07726.3795,W,1,06,1.15,151.6,M,-34.4,M,,*5E
lng=-77.439659, lat=43.139671, altitude=150.90, speed=24.01, satellites=6, angle=344.8500, fixquality=1
$GPRMC,140744.200,A,4308.3827,N,07726.3799,W,23.75,346.20,210319,,,A*45
$GPGGA,140744.400,4308.3840,N,07726.3804,W,1,06,1.16,152.0,M,-34.4,M,,*5B
lng=-77.439666, lat=43.139713, altitude=151.60, speed=23.75, satellites=6, angle=346.2000, fixquality=1
$GPRMC,140744.600,A,4308.3853,N,07726.3808,W,23.67,347.29,210319,,,A*4E
$GPGGA,140744.800,4308.3866,N,07726.3812,W,1,06,1.16,152.4,M,-34.4,M,,*50
lng=-77.439682, lat=43.139755, altitude=152.00, speed=23.67, satellites=6, angle=347.2900, fixquality=1
$GPRMC,140745.000,A,4308.3879,N,07726.3815,W,23.59,348.88,210319,,,A*44
$GPGGA,140745.200,4308.3892,N,07726.3818,W,1,06,1.16,152.8,M,-34.4,M,,*56
lng=-77.439689, lat=43.139793, altitude=152.40, speed=23.59, satellites=6, angle=348.8800, fixquality=1
$GPRMC,140745.400,A,4308.3906,N,07726.3820,W,23.49,350.55,210319,,,A*47
$GPGGA,140745.600,4308.3919,N,07726.3823,W,1,06,1.16,153.0,M,-34.4,M,,*51
lng=-77.439697, lat=43.139842, altitude=152.80, speed=23.49, satellites=6, angle=350.5500, fixquality=1
$GPRMC,140745.800,A,4308.3932,N,07726.3825,W,23.45,352.03,210319,,,A*44
$GPGGA,140746.000,4308.3946,N,07726.3826,W,1,06,1.16,153.2,M,-34.4,M,,*59
lng=-77.439704, lat=43.139884, altitude=153.00, speed=23.45, satellites=6, angle=352.0300, fixquality=1
$GPRMC,140746.200,A,4308.3959,N,07726.3827,W,23.46,353.80,210319,,,A*4B
$GPGGA,140746.400,4308.3973,N,07726.3828,W,1,06,1.16,153.4,M,-34.4,M,,*53
lng=-77.439712, lat=43.139934, altitude=153.20, speed=23.46, satellites=6, angle=353.8000, fixquality=1
$GPRMC,140746.600,A,4308.3986,N,07726.3828,W,23.66,355.38,210319,,,A*45
$GPGGA,140746.800,4308.4000,N,07726.3828,W,1,06,1.16,153.7,M,-34.4,M,,*56
lng=-77.439712, lat=43.139972, altitude=153.40, speed=23.66, satellites=6, angle=355.3800, fixquality=1
$GPRMC,140747.000,A,4308.4014,N,07726.3827,W,23.92,357.22,210319,,,A*4A
$GPGGA,140747.200,4308.4027,N,07726.3824,W,1,06,1.16,154.0,M,-34.4,M,,*54
lng=-77.439712, lat=43.140022, altitude=153.70, speed=23.92, satellites=6, angle=357.2200, fixquality=1
$GPRMC,140747.400,A,4308.4042,N,07726.3823,W,24.35,358.96,210319,,,A*43
$GPGGA,140747.600,4308.4057,N,07726.3821,W,1,06,1.16,154.3,M,-34.4,M,,*51
lng=-77.439704, lat=43.140071, altitude=154.00, speed=24.35, satellites=6, angle=358.9600, fixquality=1
$GPRMC,140747.800,A,4308.4072,N,07726.3819,W,25.09,0.61,210319,,,A*4D
$GPGGA,140748.000,4308.4088,N,07726.3816,W,1,06,1.16,154.5,M,-34.4,M,,*58
lng=-77.439697, lat=43.140121, altitude=154.30, speed=25.09, satellites=6, angle=0.6100, fixquality=1
$GPRMC,140748.200,A,4308.4102,N,07726.3812,W,25.66,2.54,210319,,,A*48
$GPGGA,140748.400,4308.4117,N,07726.3810,W,1,06,1.15,154.8,M,-34.4,M,,*53
lng=-77.439689, lat=43.140171, altitude=154.50, speed=25.66, satellites=6, angle=2.5400, fixquality=1
$GPRMC,140748.600,A,4308.4131,N,07726.3807,W,25.76,3.53,210319,,,A*4F
$GPGGA,140748.800,4308.4146,N,07726.3805,W,1,06,1.15,155.0,M,-34.4,M,,*56
lng=-77.439682, lat=43.140216, altitude=154.80, speed=25.76, satellites=6, angle=3.5300, fixquality=1
$GPRMC,140749.000,A,4308.4160,N,07726.3801,W,25.97,4.42,210319,,,A*42
$GPGGA,140749.200,4308.4174,N,07726.3798,W,1,06,1.15,155.4,M,-34.4,M,,*53
lng=-77.439666, lat=43.140266, altitude=155.00, speed=25.97, satellites=6, angle=4.4200, fixquality=1
$GPRMC,140749.400,A,4308.4188,N,07726.3795,W,26.05,5.11,210319,,,A*4D
$GPGGA,140749.600,4308.4203,N,07726.3792,W,1,06,1.15,155.6,M,-34.4,M,,*5C
lng=-77.439659, lat=43.140316, altitude=155.40, speed=26.05, satellites=6, angle=5.1100, fixquality=1
$GPRMC,140749.800,A,4308.4217,N,07726.3788,W,26.09,6.22,210319,,,A*47
$GPGGA,140750.000,4308.4230,N,07726.3784,W,1,06,1.15,156.0,M,-34.4,M,,*50
lng=-77.439651, lat=43.140365, altitude=155.60, speed=26.09, satellites=6, angle=6.2200, fixquality=1
$GPRMC,140750.200,A,4308.4243,N,07726.3779,W,25.86,7.20,210319,,,A*4D
$GPGGA,140750.400,4308.4257,N,07726.3776,W,1,06,1.15,156.3,M,-34.4,M,,*5B
lng=-77.439628, lat=43.140403, altitude=156.00, speed=25.86, satellites=6, angle=7.2000, fixquality=1
$GPRMC,140750.600,A,4308.4271,N,07726.3773,W,25.76,7.55,210319,,,A*4F
$GPGGA,140750.800,4308.4284,N,07726.3769,W,1,06,1.15,156.6,M,-34.4,M,,*52
lng=-77.439620, lat=43.140453, altitude=156.30, speed=25.76, satellites=6, angle=7.5500, fixquality=1
$GPRMC,140751.000,A,4308.4298,N,07726.3766,W,25.36,8.20,210319,,,A*42
$GPGGA,140751.200,4308.4311,N,07726.3762,W,1,06,1.15,156.8,M,-34.4,M,,*51
lng=-77.439605, lat=43.140495, altitude=156.60, speed=25.36, satellites=6, angle=8.2000, fixquality=1
$GPRMC,140751.400,A,4308.4324,N,07726.3759,W,24.93,8.48,210319,,,A*4C
$GPGGA,140751.600,4308.4337,N,07726.3756,W,1,06,1.15,157.0,M,-34.4,M,,*5F
lng=-77.439598, lat=43.140544, altitude=156.80, speed=24.93, satellites=6, angle=8.4800, fixquality=1
$GPRMC,140751.800,A,4308.4350,N,07726.3752,W,24.68,8.82,210319,,,A*4A
$GPGGA,140752.000,4308.4363,N,07726.3749,W,1,06,1.15,157.2,M,-34.4,M,,*57
lng=-77.439582, lat=43.140583, altitude=157.00, speed=24.68, satellites=6, angle=8.8200, fixquality=1
$GPRMC,140752.200,A,4308.4376,N,07726.3745,W,24.23,8.99,210319,,,A*44
$GPGGA,140752.400,4308.4389,N,07726.3741,W,1,06,1.15,157.3,M,-34.4,M,,*5E
lng=-77.439575, lat=43.140625, altitude=157.20, speed=24.23, satellites=6, angle=8.9900, fixquality=1
$GPRMC,140752.600,A,4308.4401,N,07726.3738,W,23.46,9.09,210319,,,A*41
$GPGGA,140752.800,4308.4413,N,07726.3736,W,1,06,1.15,157.4,M,-34.4,M,,*51
lng=-77.439567, lat=43.140666, altitude=157.30, speed=23.46, satellites=6, angle=9.0900, fixquality=1
$GPRMC,140753.000,A,4308.4424,N,07726.3733,W,22.54,8.77,210319,,,A*40
$GPGGA,140753.200,4308.4436,N,07726.3731,W,1,06,1.16,157.5,M,-34.4,M,,*58
lng=-77.439559, lat=43.140705, altitude=157.40, speed=22.54, satellites=6, angle=8.7700, fixquality=1
$GPRMC,140753.400,A,4308.4448,N,07726.3728,W,22.09,8.68,210319,,,A*42
$GPGGA,140753.600,4308.4459,N,07726.3725,W,1,06,1.16,157.7,M,-34.4,M,,*52
lng=-77.439544, lat=43.140747, altitude=157.50, speed=22.09, satellites=6, angle=8.6800, fixquality=1
$GPRMC,140753.800,A,4308.4469,N,07726.3721,W,21.23,9.91,210319,,,A*48
$GPGGA,140754.000,4308.4479,N,07726.3717,W,1,06,1.16,157.9,M,-34.4,M,,*5E
lng=-77.439537, lat=43.140781, altitude=157.70, speed=21.23, satellites=6, angle=9.9100, fixquality=1
$GPRMC,140754.200,A,4308.4487,N,07726.3712,W,20.16,11.66,210319,,,A*73
$GPGGA,140754.400,4308.4495,N,07726.3706,W,1,06,1.16,158.2,M,-34.4,M,,*5C
lng=-77.439521, lat=43.140811, altitude=157.90, speed=20.16, satellites=6, angle=11.6600, fixquality=1
$GPRMC,140754.600,A,4308.4503,N,07726.3700,W,19.03,14.07,210319,,,A*75
$GPGGA,140754.800,4308.4509,N,07726.3694,W,1,06,1.16,158.4,M,-34.4,M,,*58
lng=-77.439498, lat=43.140834, altitude=158.20, speed=19.03, satellites=6, angle=14.0700, fixquality=1
$GPRMC,140755.000,A,4308.4516,N,07726.3689,W,17.61,16.52,210319,,,A*7E
$GPGGA,140755.200,4308.4522,N,07726.3683,W,1,06,1.15,158.7,M,-34.4,M,,*5C
lng=-77.439483, lat=43.140861, altitude=158.40, speed=17.61, satellites=6, angle=16.5200, fixquality=1
$GPRMC,140755.400,A,4308.4528,N,07726.3678,W,16.39,18.79,210319,,,A*72
$GPGGA,140755.600,4308.4530,N,07726.3671,W,1,06,1.15,158.9,M,-34.4,M,,*58
lng=-77.439460, lat=43.140876, altitude=158.70, speed=16.39, satellites=6, angle=18.7900, fixquality=1
$GPRMC,140755.800,A,4308.4532,N,07726.3668,W,14.43,20.87,210319,,,A*71
$GPGGA,140756.000,4308.4538,N,07726.3659,W,1,06,1.15,159.1,M,-34.4,M,,*56
lng=-77.439445, lat=43.140884, altitude=158.90, speed=14.43, satellites=6, angle=20.8700, fixquality=1
$GPRMC,140756.200,A,4308.4544,N,07726.3652,W,11.91,20.32,210319,,,A*74
$GPGGA,140756.400,4308.4547,N,07726.3647,W,1,06,1.15,159.3,M,-34.4,M,,*57
lng=-77.439422, lat=43.140911, altitude=159.10, speed=11.91, satellites=6, angle=20.3200, fixquality=1
$GPRMC,140756.600,A,4308.4549,N,07726.3645,W,7.98,14.40,210319,,,A*47
$GPGGA,140756.800,4308.4555,N,07726.3640,W,1,06,1.16,159.3,M,-34.4,M,,*5C
lng=-77.439407, lat=43.140918, altitude=159.30, speed=7.98, satellites=6, angle=14.4000, fixquality=1
$GPRMC,140757.000,A,4308.4559,N,07726.3637,W,5.54,12.06,210319,,,A*42
$GPGGA,140757.200,4308.4564,N,07726.3633,W,1,06,1.16,159.5,M,-34.4,M,,*57
lng=-77.439399, lat=43.140933, altitude=159.30, speed=5.54, satellites=6, angle=12.0600, fixquality=1
$GPRMC,140757.400,A,4308.4567,N,07726.3632,W,5.11,12.20,210319,,,A*4B
$GPGGA,140757.600,4308.4570,N,07726.3632,W,1,06,1.16,159.7,M,-34.4,M,,*55
lng=-77.439384, lat=43.140941, altitude=159.50, speed=5.11, satellites=6, angle=12.2000, fixquality=1
$GPRMC,140757.800,A,4308.4575,N,07726.3631,W,5.01,11.78,210319,,,A*48
$GPGGA,140758.000,4308.4583,N,07726.3631,W,1,06,1.16,160.3,M,-34.4,M,,*5D
lng=-77.439384, lat=43.140956, altitude=159.70, speed=5.01, satellites=6, angle=11.7800, fixquality=1
$GPRMC,140758.200,A,4308.4590,N,07726.3628,W,5.27,9.49,210319,,,A*71
$GPGGA,140758.400,4308.4595,N,07726.3628,W,1,06,1.16,160.9,M,-34.4,M,,*5C
lng=-77.439376, lat=43.140983, altitude=160.30, speed=5.27, satellites=6, angle=9.4900, fixquality=1
$GPRMC,140758.600,A,4308.4598,N,07726.3630,W,5.49,5.06,210319,,,A*7B
$GPGGA,140758.800,4308.4602,N,07726.3631,W,1,06,1.16,161.2,M,-34.4,M,,*5F
lng=-77.439376, lat=43.140998, altitude=160.90, speed=5.49, satellites=6, angle=5.0600, fixquality=1
$GPRMC,140759.000,A,4308.4608,N,07726.3632,W,6.34,1.25,210319,,,A*78
$GPGGA,140759.200,4308.4612,N,07726.3634,W,1,06,1.16,161.6,M,-34.4,M,,*54
lng=-77.439384, lat=43.141014, altitude=161.20, speed=6.34, satellites=6, angle=1.2500, fixquality=1
$GPRMC,140759.400,A,4308.4615,N,07726.3634,W,6.49,357.21,210319,,,A*78
$GPGGA,140759.600,4308.4619,N,07726.3636,W,1,06,1.16,161.7,M,-34.4,M,,*58
lng=-77.439384, lat=43.141025, altitude=161.60, speed=6.49, satellites=6, angle=357.2100, fixquality=1
$GPRMC,140759.800,A,4308.4623,N,07726.3637,W,6.69,351.88,210319,,,A*75
$GPGGA,140800.000,4308.4626,N,07726.3639,W,1,06,1.16,161.8,M,-34.4,M,,*51
lng=-77.439399, lat=43.141040, altitude=161.70, speed=6.69, satellites=6, angle=351.8800, fixquality=1
$GPRMC,140800.200,A,4308.4629,N,07726.3643,W,6.40,341.32,210319,,,A*7E
$GPGGA,140800.400,4308.4632,N,07726.3647,W,1,07,1.15,161.9,M,-34.4,M,,*5A
lng=-77.439407, lat=43.141048, altitude=161.80, speed=6.40, satellites=6, angle=341.3200, fixquality=1
$GPRMC,140800.600,A,4308.4634,N,07726.3654,W,6.47,324.69,210319,,,A*7A
$GPGGA,140800.800,4308.4636,N,07726.3659,W,1,07,1.15,162.0,M,-34.4,M,,*57
lng=-77.439422, lat=43.141056, altitude=161.90, speed=6.47, satellites=7, angle=324.6900, fixquality=1
$GPRMC,140801.000,A,4308.4638,N,07726.3666,W,6.77,311.19,210319,,,A*72
$GPGGA,140801.200,4308.4641,N,07726.3674,W,1,07,1.15,162.2,M,-34.4,M,,*51
lng=-77.439445, lat=43.141063, altitude=162.00, speed=6.77, satellites=7, angle=311.1900, fixquality=1
$GPRMC,140801.400,A,4308.4643,N,07726.3683,W,8.04,300.45,210319,,,A*72
$GPGGA,140801.600,4308.4646,N,07726.3693,W,1,06,1.28,162.4,M,-34.4,M,,*52
lng=-77.439468, lat=43.141071, altitude=162.20, speed=8.04, satellites=7, angle=300.4500, fixquality=1
$GPRMC,140801.800,A,4308.4648,N,07726.3707,W,10.70,292.37,210319,,,A*4D
$GPGGA,140802.000,4308.4650,N,07726.3721,W,1,06,1.28,162.6,M,-34.4,M,,*5A
lng=-77.439506, lat=43.141078, altitude=162.40, speed=10.70, satellites=6, angle=292.3700, fixquality=1
$GPRMC,140802.200,A,4308.4651,N,07726.3734,W,12.27,289.36,210319,,,A*47
$GPGGA,140802.400,4308.4653,N,07726.3747,W,1,07,1.15,162.7,M,-34.4,M,,*53
lng=-77.439559, lat=43.141090, altitude=162.60, speed=12.27, satellites=6, angle=289.3600, fixquality=1
$GPRMC,140802.600,A,4308.4654,N,07726.3761,W,13.50,286.79,210319,,,A*43
$GPGGA,140802.800,4308.4653,N,07726.3776,W,1,07,1.15,162.9,M,-34.4,M,,*53
lng=-77.439598, lat=43.141090, altitude=162.70, speed=13.50, satellites=7, angle=286.7900, fixquality=1
$GPRMC,140803.000,A,4308.4653,N,07726.3791,W,15.19,278.76,210319,,,A*49
$GPGGA,140803.200,4308.4652,N,07726.3806,W,1,07,1.15,163.0,M,-34.4,M,,*59
lng=-77.439651, lat=43.141090, altitude=162.90, speed=15.19, satellites=7, angle=278.7600, fixquality=1
$GPRMC,140803.400,A,4308.4653,N,07726.3822,W,16.56,276.48,210319,,,A*41
$GPGGA,140803.600,4308.4653,N,07726.3837,W,1,07,1.15,163.1,M,-34.4,M,,*5F
lng=-77.439704, lat=43.141090, altitude=163.00, speed=16.56, satellites=7, angle=276.4800, fixquality=1
$GPRMC,140803.800,A,4308.4653,N,07726.3853,W,17.93,275.25,210319,,,A*4B
$GPGGA,140804.000,4308.4654,N,07726.3870,W,1,07,1.15,163.1,M,-34.4,M,,*5A
lng=-77.439750, lat=43.141090, altitude=163.10, speed=17.93, satellites=7, angle=275.2500, fixquality=1
$GPRMC,140804.200,A,4308.4654,N,07726.3886,W,19.07,274.49,210319,,,A*41
$GPGGA,140804.400,4308.4654,N,07726.3902,W,1,07,1.15,163.2,M,-34.4,M,,*59
lng=-77.439811, lat=43.141090, altitude=163.10, speed=19.07, satellites=7, angle=274.4900, fixquality=1
$GPRMC,140804.600,A,4308.4655,N,07726.3919,W,19.82,273.69,210319,,,A*4B
$GPGGA,140804.800,4308.4655,N,07726.3937,W,1,07,1.15,163.3,M,-34.4,M,,*53
lng=-77.439865, lat=43.141090, altitude=163.20, speed=19.82, satellites=7, angle=273.6900, fixquality=1
$GPRMC,140805.000,A,4308.4656,N,07726.3954,W,20.61,273.36,210319,,,A*4B
$GPGGA,140805.200,4308.4656,N,07726.3971,W,1,07,1.15,163.3,M,-34.4,M,,*59
lng=-77.439926, lat=43.141098, altitude=163.30, speed=20.61, satellites=7, angle=273.3600, fixquality=1
$GPRMC,140805.400,A,4308.4657,N,07726.3989,W,20.94,273.77,210319,,,A*41
$GPGGA,140805.600,4308.4658,N,07726.4006,W,1,07,1.15,163.4,M,-34.4,M,,*5A
lng=-77.439979, lat=43.141098, altitude=163.30, speed=20.94, satellites=7, angle=273.7700, fixquality=1
$GPRMC,140805.800,A,4308.4658,N,07726.4023,W,21.25,274.29,210319,,,A*4B
$GPGGA,140806.000,4308.4660,N,07726.4043,W,1,07,1.15,163.5,M,-34.4,M,,*54
