Vers 57
USE_SERIAL_FEEDBACK=false
DEVELOPMENT_MODE=false
USE_RMC_ONLY=false

$GPRMC,145251.800,A,4308.3042,N,07726.2628,W,0.00,148.41,300319,,,D*77
$GPGGA,145252.000,4308.3042,N,07726.2628,W,2,10,0.92,154.7,M,-34.4,M,0000,0000*5B
lng=-77.437713, lat=43.138404, altitude=154.70, speed=0.00, satellites=10, angle=148.4100, fixquality=2
$GPRMC,145252.200,A,4308.3042,N,07726.2628,W,0.00,148.41,300319,,,D*7E
$GPGGA,145252.400,4308.3042,N,07726.2628,W,2,10,0.92,154.6,M,-34.4,M,0000,0000*5E
lng=-77.437713, lat=43.138404, altitude=154.70, speed=0.00, satellites=10, angle=148.4100, fixquality=2
$GPRMC,145252.600,A,4308.3042,N,07726.2628,W,0.00,148.41,300319,,,D*7A
$GPGGA,145252.800,4308.3042,N,07726.2628,W,2,10,0.92,154.6,M,-34.4,M,0000,0000*52
lng=-77.437713, lat=43.138404, altitude=154.60, speed=0.00, satellites=10, angle=148.4100, fixquality=2
$GPRMC,145253.000,A,4308.3042,N,07726.2628,W,0.00,148.41,300319,,,D*7D
$GPGGA,145253.200,4308.3042,N,07726.2628,W,2,10,0.92,154.6,M,-34.4,M,0000,0000*59
lng=-77.437713, lat=43.138404, altitude=154.60, speed=0.00, satellites=10, angle=148.4100, fixquality=2
$GPRMC,145253.400,A,4308.3042,N,07726.2628,W,0.01,148.41,300319,,,D*78
$GPGGA,145253.600,4308.3042,N,07726.2628,W,2,10,0.92,154.6,M,-34.4,M,0000,0000*5D
lng=-77.437713, lat=43.138404, altitude=154.60, speed=0.01, satellites=10, angle=148.4100, fixquality=2
$GPRMC,145253.800,A,4308.3042,N,07726.2628,W,0.01,148.41,300319,,,D*74
$GPGGA,145254.000,4308.3042,N,07726.2628,W,2,10,0.92,154.6,M,-34.4,M,0000,0000*5C
lng=-77.437713, lat=43.138404, altitude=154.60, speed=0.01, satellites=10, angle=148.4100, fixquality=2
$GPRMC,145254.200,A,4308.3042,N,07726.2628,W,0.00,148.41,300319,,,D*78
$GPGGA,145254.400,4308.3042,N,07726.2628,W,2,10,0.92,154.6,M,-34.4,M,0000,0000*58
lng=-77.437713, lat=43.138404, altitude=154.60, speed=0.00, satellites=10, angle=148.4100, fixquality=2
$GPRMC,145254.600,A,4308.3042,N,07726.2628,W,0.00,148.41,300319,,,D*7C
$GPGGA,145254.800,4308.3042,N,07726.2628,W,2,10,0.92,154.6,M,-34.4,M,0000,0000*54
lng=-77.437713, lat=43.138404, altitude=154.60, speed=0.00, satellites=10, angle=148.4100, fixquality=2
$GPRMC,145255.000,A,4308.3042,N,07726.2628,W,0.00,148.41,300319,,,D*7B
$GPGGA,145255.200,4308.3042,N,07726.2628,W,2,10,0.92,154.6,M,-34.4,M,0000,0000*5F
lng=-77.437713, lat=43.138404, altitude=154.60, speed=0.00, satellites=10, angle=148.4100, fixquality=2
$GPRMC,145255.400,A,4308.3042,N,07726.2628,W,0.00,148.41,300319,,,D*7F
$GPGGA,145255.600,4308.3042,N,07726.2628,W,2,10,0.92,154.6,M,-34.4,M,0000,0000*5B
lng=-77.437713, lat=43.138404, altitude=154.60, speed=0.00, satellites=10, angle=148.4100, fixquality=2
$GPRMC,145255.800,A,4308.3042,N,07726.2628,W,0.00,148.41,300319,,,D*73
$GPGGA,145256.000,4308.3042,N,07726.2628,W,2,10,0.92,154.6,M,-34.4,M,0000,0000*5E
lng=-77.437713, lat=43.138404, altitude=154.60, speed=0.00, satellites=10, angle=148.4100, fixquality=2
$GPRMC,145256.200,A,4308.3042,N,07726.2628,W,0.00,148.41,300319,,,D*7A
$GPGGA,145256.400,4308.3042,N,07726.2628,W,2,10,0.92,154.6,M,-34.4,M,0000,0000*5A
lng=-77.437713, lat=43.138404, altitude=154.60, speed=0.00, satellites=10, angle=148.4100, fixquality=2
$GPRMC,145256.600,A,4308.3042,N,07726.2628,W,0.01,148.41,300319,,,D*7F
$GPGGA,145256.800,4308.3042,N,07726.2628,W,2,10,0.92,154.6,M,-34.4,M,0000,0000*56
lng=-77.437713, lat=43.138404, altitude=154.60, speed=0.01, satellites=10, angle=148.4100, fixquality=2
$GPRMC,145257.000,A,4308.3042,N,07726.2628,W,0.00,148.41,300319,,,D*79
$GPGGA,145257.200,4308.3042,N,07726.2628,W,2,10,0.92,154.6,M,-34.4,M,0000,0000*5D
lng=-77.437713, lat=43.138404, altitude=154.60, speed=0.00, satellites=10, angle=148.4100, fixquality=2
$GPRMC,145257.400,A,4308.3042,N,07726.2628,W,0.00,148.41,300319,,,D*7D
$GPGGA,145257.600,4308.3042,N,07726.2628,W,2,10,0.92,154.6,M,-34.4,M,0000,0000*59
lng=-77.437713, lat=43.138404, altitude=154.60, speed=0.00, satellites=10, angle=148.4100, fixquality=2
$GPRMC,145257.800,A,4308.3042,N,07726.2628,W,0.00,148.41,300319,,,D*71
$GPGGA,145258.000,4308.3042,N,07726.2628,W,2,10,0.92,154.6,M,-34.4,M,0000,0000*50
lng=-77.437713, lat=43.138404, altitude=154.60, speed=0.00, satellites=10, angle=148.4100, fixquality=2
$GPRMC,145258.200,A,4308.3042,N,07726.2628,W,0.00,148.41,300319,,,D*74
$GPGGA,145258.400,4308.3042,N,07726.2628,W,2,10,0.92,154.6,M,-34.4,M,0000,0000*54
lng=-77.437713, lat=43.138404, altitude=154.60, speed=0.00, satellites=10, angle=148.4100, fixquality=2
$GPRMC,145258.600,A,4308.3042,N,07726.2628,W,0.00,148.41,300319,,,D*70
$GPGGA,145258.800,4308.3042,N,07726.2628,W,2,10,0.92,154.6,M,-34.4,M,0000,0000*58
lng=-77.437713, lat=43.138404, altitude=154.60, speed=0.00, satellites=10, angle=148.4100, fixquality=2
$GPRMC,145259.000,A,4308.3042,N,07726.2628,W,0.00,148.41,300319,,,D*77
$GPGGA,145259.200,4308.3042,N,07726.2628,W,2,10,0.92,154.6,M,-34.4,M,0000,0000*53
lng=-77.437713, lat=43.138404, altitude=154.60, speed=0.00, satellites=10, angle=148.4100, fixquality=2
$GPRMC,145259.400,A,4308.3042,N,07726.2628,W,0.01,148.41,300319,,,D*72
$GPGGA,145259.600,4308.3042,N,07726.2628,W,2,10,0.92,154.6,M,-34.4,M,0000,0000*57
lng=-77.437713, lat=43.138404, altitude=154.60, speed=0.01, satellites=10, angle=148.4100, fixquality=2
$GPRMC,145259.800,A,4308.3042,N,07726.2628,W,0.00,148.41,300319,,,D*7F
$GPGGA,145300.000,4308.3042,N,07726.2628,W,2,10,0.92,154.6,M,-34.4,M,0000,0000*5C
lng=-77.437713, lat=43.138404, altitude=154.60, speed=0.00, satellites=10, angle=148.4100, fixquality=2
$GPRMC,145300.200,A,4308.3042,N,07726.2628,W,0.00,148.41,300319,,,D*78
$GPGGA,145300.400,4308.3042,N,07726.2628,W,2,10,0.92,154.6,M,-34.4,M,0000,0000*58
lng=-77.437713, lat=43.138404, altitude=154.60, speed=0.00, satellites=10, angle=148.4100, fixquality=2
$GPRMC,145300.600,A,4308.3042,N,07726.2628,W,0.00,148.41,300319,,,D*7C
$GPGGA,145300.800,4308.3042,N,07726.2628,W,2,10,0.92,154.6,M,-34.4,M,0000,0000*54
lng=-77.437713, lat=43.138404, altitude=154.60, speed=0.00, satellites=10, angle=148.4100, fixquality=2
$GPRMC,145301.000,A,4308.3042,N,07726.2628,W,0.00,148.41,300319,,,D*7B
$GPGGA,145301.200,4308.3042,N,07726.2628,W,2,10,0.92,154.6,M,-34.4,M,0000,0000*5F
lng=-77.437713, lat=43.138404, altitude=154.60, speed=0.00, satellites=10, angle=148.4100, fixquality=2
$GPRMC,145301.400,A,4308.3042,N,07726.2628,W,0.00,148.41,300319,,,D*7F
$GPGGA,145301.600,4308.3042,N,07726.2628,W,2,10,0.92,154.6,M,-34.4,M,0000,0000*5B
lng=-77.437713, lat=43.138404, altitude=154.60, speed=0.00, satellites=10, angle=148.4100, fixquality=2
$GPRMC,145301.800,A,4308.3042,N,07726.2628,W,0.00,148.41,300319,,,D*73
$GPGGA,145302.000,4308.3042,N,07726.2628,W,2,10,0.92,154.6,M,-34.4,M,0000,0000*5E
lng=-77.437713, lat=43.138404, altitude=154.60, speed=0.00, satellites=10, angle=148.4100, fixquality=2
$GPRMC,145302.200,A,4308.3042,N,07726.2628,W,0.00,148.41,300319,,,D*7A
$GPGGA,145302.400,4308.3042,N,07726.2628,W,2,10,0.92,154.6,M,-34.4,M,0000,0000*5A
lng=-77.437713, lat=43.138404, altitude=154.60, speed=0.00, satellites=10, angle=148.4100, fixquality=2
$GPRMC,145302.600,A,4308.3042,N,07726.2628,W,0.00,148.41,300319,,,D*7E
$GPGGA,145302.800,4308.3042,N,07726.2628,W,2,10,0.92,154.6,M,-34.4,M,0000,0000*56
lng=-77.437713, lat=43.138404, altitude=154.60, speed=0.00, satellites=10, angle=148.4100, fixquality=2
$GPRMC,145303.000,A,4308.3042,N,07726.2628,W,0.00,148.41,300319,,,D*79
$GPGGA,145303.200,4308.3042,N,07726.2628,W,2,10,0.92,154.6,M,-34.4,M,0000,0000*5D
lng=-77.437713, lat=43.138404, altitude=154.60, speed=0.00, satellites=10, angle=148.4100, fixquality=2
$GPRMC,145303.400,A,4308.3042,N,07726.2628,W,0.01,148.41,300319,,,D*7C
$GPGGA,145303.600,4308.3042,N,07726.2628,W,2,10,0.92,154.6,M,-34.4,M,0000,0000*59
lng=-77.437713, lat=43.138404, altitude=154.60, speed=0.01, satellites=10, angle=148.4100, fixquality=2
$GPRMC,145303.800,A,4308.3042,N,07726.2628,W,0.00,148.41,300319,,,D*71
$GPGGA,145304.000,4308.3042,N,07726.2628,W,2,10,0.92,154.6,M,-34.4,M,0000,0000*58
lng=-77.437713, lat=43.138404, altitude=154.60, speed=0.00, satellites=10, angle=148.4100, fixquality=2
$GPRMC,145304.200,A,4308.3042,N,07726.2628,W,0.01,148.41,300319,,,D*7D
$GPGGA,145304.400,4308.3042,N,07726.2628,W,2,10,0.92,154.6,M,-34.4,M,0000,0000*5C
lng=-77.437713, lat=43.138404, altitude=154.60, speed=0.01, satellites=10, angle=148.4100, fixquality=2
$GPRMC,145304.600,A,4308.3042,N,07726.2628,W,0.00,148.41,300319,,,D*78
$GPGGA,145304.800,4308.3042,N,07726.2628,W,2,10,0.92,154.6,M,-34.4,M,0000,0000*50
lng=-77.437713, lat=43.138404, altitude=154.60, speed=0.00, satellites=10, angle=148.4100, fixquality=2
$GPRMC,145305.000,A,4308.3042,N,07726.2628,W,0.00,148.41,300319,,,D*7F
$GPGGA,145305.200,4308.3042,N,07726.2628,W,2,10,0.92,154.6,M,-34.4,M,0000,0000*5B
lng=-77.437713, lat=43.138404, altitude=154.60, speed=0.00, satellites=10, angle=148.4100, fixquality=2
$GPRMC,145305.400,A,4308.3042,N,07726.2628,W,0.01,148.41,300319,,,D*7A
$GPGGA,145305.600,4308.3042,N,07726.2628,W,2,09,1.08,154.6,M,-34.4,M,0000,0000*55
lng=-77.437713, lat=43.138404, altitude=154.60, speed=0.01, satellites=10, angle=148.4100, fixquality=2
$GPRMC,145305.800,A,4308.3042,N,07726.2628,W,0.00,148.41,300319,,,D*77
$GPGGA,145306.000,4308.3042,N,07726.2628,W,2,08,1.08,154.6,M,-34.4,M,0000,0000*51
lng=-77.437713, lat=43.138404, altitude=154.60, speed=0.00, satellites=9, angle=148.4100, fixquality=2
$GPRMC,145306.200,A,4308.3042,N,07726.2628,W,0.01,148.41,300319,,,D*7F
$GPGGA,145306.400,4308.3042,N,07726.2628,W,2,08,1.08,154.6,M,-34.4,M,0000,0000*55
lng=-77.437713, lat=43.138404, altitude=154.60, speed=0.01, satellites=8, angle=148.4100, fixquality=2
$GPRMC,145306.600,A,4308.3042,N,07726.2628,W,0.01,148.41,300319,,,D*7B
$GPGGA,145306.800,4308.3042,N,07726.2628,W,2,08,1.08,154.6,M,-34.4,M,0000,0000*59
lng=-77.437713, lat=43.138404, altitude=154.60, speed=0.01, satellites=8, angle=148.4100, fixquality=2
$GPRMC,145307.000,A,4308.3042,N,07726.2628,W,0.01,148.41,300319,,,D*7C
$GPGGA,145307.200,4308.3042,N,07726.2628,W,2,08,1.08,154.6,M,-34.4,M,0000,0000*52
lng=-77.437713, lat=43.138404, altitude=154.60, speed=0.01, satellites=8, angle=148.4100, fixquality=2
$GPRMC,145307.400,A,4308.3042,N,07726.2628,W,0.01,148.41,300319,,,D*78
$GPGGA,145307.600,4308.3042,N,07726.2628,W,2,08,1.08,154.6,M,-34.4,M,0000,0000*56
lng=-77.437713, lat=43.138404, altitude=154.60, speed=0.01, satellites=8, angle=148.4100, fixquality=2
$GPRMC,145307.800,A,4308.3042,N,07726.2628,W,0.01,148.41,300319,,,D*74
$GPGGA,145308.000,4308.3042,N,07726.2628,W,2,08,1.08,154.6,M,-34.4,M,0000,0000*5F
lng=-77.437713, lat=43.138404, altitude=154.60, speed=0.01, satellites=8, angle=148.4100, fixquality=2
$GPRMC,145308.200,A,4308.3042,N,07726.2628,W,0.01,148.41,300319,,,D*71
$GPGGA,145308.400,4308.3042,N,07726.2628,W,2,08,1.08,154.5,M,-34.4,M,0000,0000*58
lng=-77.437713, lat=43.138404, altitude=154.60, speed=0.01, satellites=8, angle=148.4100, fixquality=2
$GPRMC,145308.600,A,4308.3042,N,07726.2628,W,0.01,148.41,300319,,,D*75
$GPGGA,145308.800,4308.3042,N,07726.2628,W,2,09,0.95,154.5,M,-34.4,M,0000,0000*50
lng=-77.437713, lat=43.138404, altitude=154.50, speed=0.01, satellites=8, angle=148.4100, fixquality=2
$GPRMC,145309.000,A,4308.3042,N,07726.2628,W,0.05,148.41,300319,,,D*76
$GPGGA,145309.200,4308.3042,N,07726.2628,W,2,08,0.98,154.5,M,-34.4,M,0000,0000*57
lng=-77.437713, lat=43.138404, altitude=154.50, speed=0.05, satellites=9, angle=148.4100, fixquality=2
$GPRMC,145309.400,A,4308.3042,N,07726.2628,W,0.06,148.41,300319,,,D*71
$GPGGA,145309.600,4308.3042,N,07726.2628,W,2,08,1.08,154.5,M,-34.4,M,0000,0000*5B
lng=-77.437713, lat=43.138404, altitude=154.50, speed=0.06, satellites=8, angle=148.4100, fixquality=2
$GPRMC,145309.800,A,4308.3042,N,07726.2628,W,0.03,148.41,300319,,,D*78
$GPGGA,145310.000,4308.3042,N,07726.2628,W,2,08,1.08,154.5,M,-34.4,M,0000,0000*55
lng=-77.437713, lat=43.138404, altitude=154.50, speed=0.03, satellites=8, angle=148.4100, fixquality=2
$GPRMC,145310.200,A,4308.3042,N,07726.2628,W,0.05,148.41,300319,,,D*7C
$GPGGA,145310.400,4308.3042,N,07726.2628,W,2,09,1.08,154.5,M,-34.4,M,0000,0000*50
lng=-77.437713, lat=43.138404, altitude=154.50, speed=0.05, satellites=8, angle=148.4100, fixquality=2
$GPRMC,145310.600,A,4308.3042,N,07726.2627,W,0.16,148.41,300319,,,D*75
$GPGGA,145310.800,4308.3042,N,07726.2627,W,2,08,0.98,154.5,M,-34.4,M,0000,0000*5A
lng=-77.437713, lat=43.138404, altitude=154.50, speed=0.16, satellites=9, angle=148.4100, fixquality=2
$GPRMC,145311.000,A,4308.3042,N,07726.2627,W,0.13,148.41,300319,,,D*77
$GPGGA,145311.200,4308.3042,N,07726.2627,W,2,08,1.08,154.5,M,-34.4,M,0000,0000*59
lng=-77.437713, lat=43.138404, altitude=154.50, speed=0.13, satellites=8, angle=148.4100, fixquality=2
$GPRMC,145311.400,A,4308.3042,N,07726.2627,W,0.38,48.45,300319,,,D*4F
$GPGGA,145311.600,4308.3042,N,07726.2627,W,2,09,0.95,154.5,M,-34.4,M,0000,0000*59
lng=-77.437713, lat=43.138404, altitude=154.50, speed=0.38, satellites=8, angle=48.4500, fixquality=2
$GPRMC,145311.800,A,4308.3042,N,07726.2627,W,0.55,41.60,300319,,,D*46
$GPGGA,145312.000,4308.3043,N,07726.2626,W,2,09,0.95,154.5,M,-34.4,M,0000,0000*5C
lng=-77.437713, lat=43.138404, altitude=154.50, speed=0.55, satellites=9, angle=41.6000, fixquality=2
$GPRMC,145312.200,A,4308.3045,N,07726.2626,W,1.25,30.29,300319,,,D*44
$GPGGA,145312.400,4308.3048,N,07726.2625,W,2,09,0.95,154.5,M,-34.4,M,0000,0000*50
lng=-77.437713, lat=43.138412, altitude=154.50, speed=1.25, satellites=9, angle=30.2900, fixquality=2
$GPRMC,145312.600,A,4308.3049,N,07726.2624,W,2.10,20.08,300319,,,D*49
$GPGGA,145312.800,4308.3051,N,07726.2622,W,2,09,0.95,154.4,M,-34.4,M,0000,0000*52
lng=-77.437705, lat=43.138412, altitude=154.50, speed=2.10, satellites=9, angle=20.0800, fixquality=2
$GPRMC,145313.000,A,4308.3056,N,07726.2618,W,2.51,20.29,300319,,,D*49
$GPGGA,145313.200,4308.3060,N,07726.2614,W,2,09,0.95,154.4,M,-34.4,M,0000,0000*5E
lng=-77.437698, lat=43.138427, altitude=154.40, speed=2.51, satellites=9, angle=20.2900, fixquality=2
$GPRMC,145313.400,A,4308.3064,N,07726.2610,W,2.82,26.58,300319,,,D*4A
$GPGGA,145313.600,4308.3069,N,07726.2607,W,2,09,0.95,154.2,M,-34.4,M,0000,0000*57
lng=-77.437690, lat=43.138442, altitude=154.40, speed=2.82, satellites=9, angle=26.5800, fixquality=2
$GPRMC,145313.800,A,4308.3072,N,07726.2604,W,3.08,22.60,300319,,,D*48
$GPGGA,145314.000,4308.3076,N,07726.2601,W,2,09,0.95,154.2,M,-34.4,M,0000,0000*5E
lng=-77.437667, lat=43.138450, altitude=154.20, speed=3.08, satellites=9, angle=22.6000, fixquality=2
$GPRMC,145314.200,A,4308.3081,N,07726.2600,W,3.32,15.71,300319,,,D*40
$GPGGA,145314.400,4308.3085,N,07726.2599,W,2,08,0.98,154.1,M,-34.4,M,0000,0000*5B
lng=-77.437660, lat=43.138469, altitude=154.20, speed=3.32, satellites=9, angle=15.7100, fixquality=2
$GPRMC,145314.600,A,4308.3092,N,07726.2599,W,3.69,11.14,300319,,,D*4C
$GPGGA,145314.800,4308.3096,N,07726.2598,W,2,10,0.92,154.1,M,-34.4,M,0000,0000*57
lng=-77.437660, lat=43.138484, altitude=154.10, speed=3.69, satellites=8, angle=11.1400, fixquality=2
$GPRMC,145315.000,A,4308.3101,N,07726.2597,W,4.45,9.17,300319,,,D*7D
$GPGGA,145315.200,4308.3106,N,07726.2596,W,2,09,1.08,154.0,M,-34.4,M,0000,0000*51
lng=-77.437660, lat=43.138500, altitude=154.10, speed=4.45, satellites=10, angle=9.1700, fixquality=2
$GPRMC,145315.400,A,4308.3110,N,07726.2595,W,4.70,7.20,300319,,,D*77
$GPGGA,145315.600,4308.3114,N,07726.2594,W,2,08,1.08,153.8,M,-34.4,M,0000,0000*5A
lng=-77.437652, lat=43.138515, altitude=154.00, speed=4.70, satellites=9, angle=7.2000, fixquality=2
$GPRMC,145315.800,A,4308.3116,N,07726.2593,W,4.75,6.48,300319,,,D*71
$GPGGA,145316.000,4308.3119,N,07726.2592,W,2,08,1.08,153.7,M,-34.4,M,0000,0000*5B
lng=-77.437652, lat=43.138526, altitude=153.80, speed=4.75, satellites=8, angle=6.4800, fixquality=2
$GPRMC,145316.200,A,4308.3122,N,07726.2591,W,4.52,5.13,300319,,,D*75
$GPGGA,145316.400,4308.3124,N,07726.2590,W,2,08,1.08,153.6,M,-34.4,M,0000,0000*52
lng=-77.437652, lat=43.138534, altitude=153.70, speed=4.52, satellites=8, angle=5.1300, fixquality=2
$GPRMC,145316.600,A,4308.3126,N,07726.2590,W,4.06,2.94,300319,,,D*7D
$GPGGA,145316.800,4308.3128,N,07726.2590,W,2,09,0.92,153.4,M,-34.4,M,0000,0000*53
lng=-77.437644, lat=43.138542, altitude=153.60, speed=4.06, satellites=8, angle=2.9400, fixquality=2
$GPRMC,145317.000,A,4308.3131,N,07726.2590,W,3.80,359.82,300319,,,D*7F
$GPGGA,145317.200,4308.3133,N,07726.2590,W,2,09,0.92,153.3,M,-34.4,M,0000,0000*55
lng=-77.437644, lat=43.138549, altitude=153.40, speed=3.80, satellites=9, angle=359.8200, fixquality=2
$GPRMC,145317.400,A,4308.3135,N,07726.2590,W,3.17,357.86,300319,,,D*7B
$GPGGA,145317.600,4308.3137,N,07726.2590,W,2,10,0.92,153.1,M,-34.4,M,0000,0000*5F
lng=-77.437644, lat=43.138557, altitude=153.30, speed=3.17, satellites=9, angle=357.8600, fixquality=2
$GPRMC,145317.800,A,4308.3139,N,07726.2591,W,2.81,354.86,300319,,,D*77
$GPGGA,145318.000,4308.3141,N,07726.2592,W,2,10,0.92,152.8,M,-34.4,M,0000,0000*5D
lng=-77.437652, lat=43.138565, altitude=153.10, speed=2.81, satellites=10, angle=354.8600, fixquality=2
$GPRMC,145318.200,A,4308.3143,N,07726.2593,W,2.19,350.27,300319,,,D*73
$GPGGA,145318.400,4308.3145,N,07726.2594,W,2,09,1.08,152.6,M,-34.4,M,0000,0000*5F
lng=-77.437652, lat=43.138572, altitude=152.80, speed=2.19, satellites=10, angle=350.2700, fixquality=2
$GPRMC,145318.600,A,4308.3146,N,07726.2594,W,2.06,357.31,300319,,,D*7B
$GPGGA,145318.800,4308.3147,N,07726.2594,W,2,10,0.92,152.4,M,-34.4,M,0000,0000*59
lng=-77.437652, lat=43.138572, altitude=152.60, speed=2.06, satellites=9, angle=357.3100, fixquality=2
$GPRMC,145319.000,A,4308.3149,N,07726.2593,W,2.05,7.64,300319,,,D*71
$GPGGA,145319.200,4308.3151,N,07726.2593,W,2,10,0.92,152.2,M,-34.4,M,0000,0000*54
lng=-77.437652, lat=43.138584, altitude=152.40, speed=2.05, satellites=10, angle=7.6400, fixquality=2
$GPRMC,145319.400,A,4308.3156,N,07726.2591,W,2.54,16.91,300319,,,D*47
$GPGGA,145319.600,4308.3158,N,07726.2593,W,2,09,0.95,152.1,M,-34.4,M,0000,0000*55
lng=-77.437652, lat=43.138591, altitude=152.20, speed=2.54, satellites=10, angle=16.9100, fixquality=2
$GPRMC,145319.800,A,4308.3160,N,07726.2595,W,2.88,21.60,300319,,,D*41
$GPGGA,145320.000,4308.3162,N,07726.2595,W,2,10,0.86,151.9,M,-34.4,M,0000,0000*57
lng=-77.437652, lat=43.138599, altitude=152.10, speed=2.88, satellites=9, angle=21.6000, fixquality=2
$GPRMC,145320.200,A,4308.3163,N,07726.2595,W,2.91,31.09,300319,,,D*44
$GPGGA,145320.400,4308.3164,N,07726.2593,W,2,10,0.86,151.7,M,-34.4,M,0000,0000*5D
lng=-77.437652, lat=43.138607, altitude=151.90, speed=2.91, satellites=10, angle=31.0900, fixquality=2
$GPRMC,145320.600,A,4308.3166,N,07726.2591,W,2.93,53.39,300319,,,D*44
$GPGGA,145320.800,4308.3168,N,07726.2588,W,2,10,0.86,151.5,M,-34.4,M,0000,0000*55
lng=-77.437652, lat=43.138607, altitude=151.70, speed=2.93, satellites=10, angle=53.3900, fixquality=2
$GPRMC,145321.000,A,4308.3169,N,07726.2585,W,2.93,56.79,300319,,,D*48
$GPGGA,145321.200,4308.3168,N,07726.2582,W,2,10,0.86,151.3,M,-34.4,M,0000,0000*52
lng=-77.437637, lat=43.138614, altitude=151.50, speed=2.93, satellites=10, angle=56.7900, fixquality=2
$GPRMC,145321.400,A,4308.3168,N,07726.2580,W,2.79,64.27,300319,,,D*46
$GPGGA,145321.600,4308.3167,N,07726.2578,W,2,10,0.86,151.1,M,-34.4,M,0000,0000*5E
lng=-77.437629, lat=43.138614, altitude=151.30, speed=2.79, satellites=10, angle=64.2700, fixquality=2
$GPRMC,145321.800,A,4308.3167,N,07726.2577,W,2.71,71.54,300319,,,D*45
$GPGGA,145322.000,4308.3165,N,07726.2575,W,2,10,0.86,151.0,M,-34.4,M,0000,0000*55
lng=-77.437629, lat=43.138614, altitude=151.10, speed=2.71, satellites=10, angle=71.5400, fixquality=2
$GPRMC,145322.200,A,4308.3164,N,07726.2574,W,1.53,88.10,300319,,,D*49
$GPGGA,145322.400,4308.3163,N,07726.2572,W,2,10,0.86,150.8,M,-34.4,M,0000,0000*59
lng=-77.437622, lat=43.138607, altitude=151.00, speed=1.53, satellites=10, angle=88.1000, fixquality=2
$GPRMC,145322.600,A,4308.3162,N,07726.2572,W,0.78,85.84,300319,,,D*45
$GPGGA,145322.800,4308.3161,N,07726.2573,W,2,10,0.86,150.6,M,-34.4,M,0000,0000*58
lng=-77.437622, lat=43.138607, altitude=150.80, speed=0.78, satellites=10, angle=85.8400, fixquality=2
$GPRMC,145323.000,A,4308.3161,N,07726.2573,W,0.43,85.84,300319,,,D*48
$GPGGA,145323.200,4308.3161,N,07726.2573,W,2,10,0.86,150.7,M,-34.4,M,0000,0000*52
lng=-77.437622, lat=43.138599, altitude=150.60, speed=0.43, satellites=10, angle=85.8400, fixquality=2
$GPRMC,145323.400,A,4308.3160,N,07726.2574,W,0.46,85.84,300319,,,D*4F
$GPGGA,145323.600,4308.3159,N,07726.2575,W,2,10,0.86,150.7,M,-34.4,M,0000,0000*5B
lng=-77.437622, lat=43.138599, altitude=150.70, speed=0.46, satellites=10, angle=85.8400, fixquality=2
$GPRMC,145323.800,A,4308.3159,N,07726.2576,W,1.15,273.91,300319,,,D*73
$GPGGA,145324.000,4308.3158,N,07726.2578,W,2,10,0.86,150.5,M,-34.4,M,0000,0000*54
lng=-77.437629, lat=43.138599, altitude=150.70, speed=1.15, satellites=10, angle=273.9100, fixquality=2
$GPRMC,145324.200,A,4308.3158,N,07726.2582,W,4.09,269.79,300319,,,D*71
$GPGGA,145324.400,4308.3158,N,07726.2586,W,2,10,0.92,150.4,M,-34.4,M,0000,0000*55
lng=-77.437637, lat=43.138599, altitude=150.50, speed=4.09, satellites=10, angle=269.7900, fixquality=2
$GPRMC,145324.600,A,4308.3158,N,07726.2590,W,5.84,271.72,300319,,,D*70
$GPGGA,145324.800,4308.3159,N,07726.2595,W,2,10,0.92,150.4,M,-34.4,M,0000,0000*5A
lng=-77.437644, lat=43.138599, altitude=150.40, speed=5.84, satellites=10, angle=271.7200, fixquality=2
$GPRMC,145325.000,A,4308.3159,N,07726.2601,W,7.36,273.39,300319,,,D*7B
$GPGGA,145325.200,4308.3160,N,07726.2606,W,2,10,0.92,150.3,M,-34.4,M,0000,0000*55
lng=-77.437667, lat=43.138599, altitude=150.40, speed=7.36, satellites=10, angle=273.3900, fixquality=2
$GPRMC,145325.400,A,4308.3160,N,07726.2613,W,8.45,275.50,300319,,,D*74
$GPGGA,145325.600,4308.3162,N,07726.2618,W,2,10,0.92,150.2,M,-34.4,M,0000,0000*5D
lng=-77.437690, lat=43.138599, altitude=150.30, speed=8.45, satellites=10, angle=275.5000, fixquality=2
$GPRMC,145325.800,A,4308.3164,N,07726.2625,W,9.49,278.79,300319,,,D*72
$GPGGA,145326.000,4308.3166,N,07726.2631,W,2,10,0.92,150.1,M,-34.4,M,0000,0000*54
lng=-77.437713, lat=43.138607, altitude=150.20, speed=9.49, satellites=10, angle=278.7900, fixquality=2
$GPRMC,145326.200,A,4308.3167,N,07726.2637,W,10.52,279.31,300319,,,D*44
$GPGGA,145326.400,4308.3169,N,07726.2644,W,2,10,0.92,150.0,M,-34.4,M,0000,0000*5C
lng=-77.437728, lat=43.138614, altitude=150.10, speed=10.52, satellites=10, angle=279.3100, fixquality=2
$GPRMC,145326.600,A,4308.3170,N,07726.2650,W,11.44,279.95,300319,,,D*4F
$GPGGA,145326.800,4308.3172,N,07726.2659,W,2,10,0.92,150.1,M,-34.4,M,0000,0000*57
lng=-77.437751, lat=43.138614, altitude=150.00, speed=11.44, satellites=10, angle=279.9500, fixquality=2
$GPRMC,145327.000,A,4308.3174,N,07726.2667,W,12.31,280.58,300319,,,D*4E
$GPGGA,145327.200,4308.3176,N,07726.2676,W,2,10,0.92,150.0,M,-34.4,M,0000,0000*54
lng=-77.437774, lat=43.138622, altitude=150.10, speed=12.31, satellites=10, angle=280.5800, fixquality=2
$GPRMC,145327.400,A,4308.3177,N,07726.2684,W,13.08,281.61,300319,,,D*44
$GPGGA,145327.600,4308.3179,N,07726.2694,W,2,10,0.92,150.0,M,-34.4,M,0000,0000*53
lng=-77.437812, lat=43.138629, altitude=150.00, speed=13.08, satellites=10, angle=281.6100, fixquality=2
$GPRMC,145327.800,A,4308.3181,N,07726.2703,W,13.90,281.95,300319,,,D*45
$GPGGA,145328.000,4308.3182,N,07726.2714,W,2,10,0.92,150.0,M,-34.4,M,0000,0000*57
lng=-77.437843, lat=43.138629, altitude=150.00, speed=13.90, satellites=10, angle=281.9500, fixquality=2
$GPRMC,145328.200,A,4308.3184,N,07726.2724,W,14.39,285.48,300319,,,D*40
$GPGGA,145328.400,4308.3186,N,07726.2735,W,2,10,0.92,150.0,M,-34.4,M,0000,0000*54
lng=-77.437873, lat=43.138637, altitude=150.00, speed=14.39, satellites=10, angle=285.4800, fixquality=2
$GPRMC,145328.600,A,4308.3188,N,07726.2746,W,15.20,287.56,300319,,,D*48
$GPGGA,145328.800,4308.3190,N,07726.2757,W,2,10,0.92,150.1,M,-34.4,M,0000,0000*5A
lng=-77.437904, lat=43.138648, altitude=150.00, speed=15.20, satellites=10, angle=287.5600, fixquality=2
$GPRMC,145329.000,A,4308.3194,N,07726.2768,W,15.97,288.65,300319,,,D*4D
$GPGGA,145329.200,4308.3196,N,07726.2780,W,2,10,0.92,150.1,M,-34.4,M,0000,0000*5D
lng=-77.437950, lat=43.138656, altitude=150.10, speed=15.97, satellites=10, angle=288.6500, fixquality=2
$GPRMC,145329.400,A,4308.3198,N,07726.2792,W,16.90,290.25,300319,,,D*49
$GPGGA,145329.600,4308.3201,N,07726.2804,W,2,10,0.92,150.1,M,-34.4,M,0000,0000*57
lng=-77.437988, lat=43.138664, altitude=150.10, speed=16.90, satellites=10, angle=290.2500, fixquality=2
$GPRMC,145329.800,A,4308.3204,N,07726.2817,W,17.74,291.58,300319,,,D*41
$GPGGA,145330.000,4308.3207,N,07726.2830,W,2,10,0.92,150.1,M,-34.4,M,0000,0000*58
lng=-77.438026, lat=43.138671, altitude=150.10, speed=17.74, satellites=10, angle=291.5800, fixquality=2
$GPRMC,145330.200,A,4308.3211,N,07726.2843,W,18.45,292.56,300319,,,D*46
$GPGGA,145330.400,4308.3215,N,07726.2856,W,2,10,0.92,150.1,M,-34.4,M,0000,0000*5F
lng=-77.438072, lat=43.138687, altitude=150.10, speed=18.45, satellites=10, angle=292.5600, fixquality=2
$GPRMC,145330.600,A,4308.3219,N,07726.2869,W,19.11,294.34,300319,,,D*40
$GPGGA,145330.800,4308.3223,N,07726.2883,W,2,10,0.92,150.0,M,-34.4,M,0000,0000*5F
lng=-77.438117, lat=43.138694, altitude=150.10, speed=19.11, satellites=10, angle=294.3400, fixquality=2
$GPRMC,145331.000,A,4308.3227,N,07726.2897,W,19.93,294.92,300319,,,D*4D
$GPGGA,145331.200,4308.3232,N,07726.2911,W,2,10,0.92,150.1,M,-34.4,M,0000,0000*5F
lng=-77.438156, lat=43.138713, altitude=150.00, speed=19.93, satellites=10, angle=294.9200, fixquality=2
$GPRMC,145331.400,A,4308.3237,N,07726.2925,W,20.60,298.46,300319,,,D*43
$GPGGA,145331.600,4308.3243,N,07726.2939,W,2,10,0.92,150.1,M,-34.4,M,0000,0000*57
lng=-77.438209, lat=43.138729, altitude=150.10, speed=20.60, satellites=10, angle=298.4600, fixquality=2
$GPRMC,145331.800,A,4308.3249,N,07726.2954,W,21.49,298.58,300319,,,D*45
$GPGGA,145332.000,4308.3255,N,07726.2968,W,2,10,0.92,150.2,M,-34.4,M,0000,0000*52
lng=-77.438255, lat=43.138744, altitude=150.10, speed=21.49, satellites=10, angle=298.5800, fixquality=2
$GPRMC,145332.200,A,4308.3261,N,07726.2984,W,22.56,299.18,300319,,,D*43
$GPGGA,145332.400,4308.3267,N,07726.2999,W,2,10,0.92,150.2,M,-34.4,M,0000,0000*59
lng=-77.438308, lat=43.138771, altitude=150.20, speed=22.56, satellites=10, angle=299.1800, fixquality=2
$GPRMC,145332.600,A,4308.3274,N,07726.3015,W,23.38,300.49,300319,,,D*4F
$GPGGA,145332.800,4308.3281,N,07726.3030,W,2,10,0.92,150.3,M,-34.4,M,0000,0000*57
lng=-77.438354, lat=43.138793, altitude=150.20, speed=23.38, satellites=10, angle=300.4900, fixquality=2
$GPRMC,145333.000,A,4308.3288,N,07726.3047,W,24.22,300.28,300319,,,D*47
$GPGGA,145333.200,4308.3295,N,07726.3063,W,2,10,0.92,150.4,M,-34.4,M,0000,0000*58
lng=-77.438407, lat=43.138809, altitude=150.30, speed=24.22, satellites=10, angle=300.2800, fixquality=2
$GPRMC,145333.400,A,4308.3302,N,07726.3079,W,24.70,300.84,300319,,,D*4C
$GPGGA,145333.600,4308.3308,N,07726.3096,W,2,10,0.92,150.4,M,-34.4,M,0000,0000*53
lng=-77.438468, lat=43.138835, altitude=150.40, speed=24.70, satellites=10, angle=300.8400, fixquality=2
$GPRMC,145333.800,A,4308.3315,N,07726.3112,W,25.20,301.61,300319,,,D*44
$GPGGA,145334.000,4308.3322,N,07726.3128,W,2,10,0.92,150.6,M,-34.4,M,0000,0000*5C
lng=-77.438514, lat=43.138858, altitude=150.40, speed=25.20, satellites=10, angle=301.6100, fixquality=2
$GPRMC,145334.200,A,4308.3330,N,07726.3145,W,25.44,301.47,300319,,,D*4A
$GPGGA,145334.400,4308.3337,N,07726.3162,W,2,10,0.92,150.7,M,-34.4,M,0000,0000*53
lng=-77.438575, lat=43.138881, altitude=150.60, speed=25.44, satellites=10, angle=301.4700, fixquality=2
$GPRMC,145334.600,A,4308.3344,N,07726.3179,W,25.80,301.26,300319,,,D*4D
$GPGGA,145334.800,4308.3352,N,07726.3196,W,2,10,0.92,150.8,M,-34.4,M,0000,0000*58
lng=-77.438629, lat=43.138908, altitude=150.70, speed=25.80, satellites=10, angle=301.2600, fixquality=2
$GPRMC,145335.000,A,4308.3360,N,07726.3213,W,26.42,302.31,300319,,,D*4B
$GPGGA,145335.200,4308.3367,N,07726.3231,W,2,10,0.92,150.8,M,-34.4,M,0000,0000*5B
lng=-77.438690, lat=43.138931, altitude=150.80, speed=26.42, satellites=10, angle=302.3100, fixquality=2
$GPRMC,145335.400,A,4308.3375,N,07726.3249,W,26.78,302.93,300319,,,D*45
$GPGGA,145335.600,4308.3383,N,07726.3266,W,2,10,0.92,150.8,M,-34.4,M,0000,0000*57
lng=-77.438743, lat=43.138957, altitude=150.80, speed=26.78, satellites=10, angle=302.9300, fixquality=2
$GPRMC,145335.800,A,4308.3392,N,07726.3284,W,26.87,303.32,300319,,,D*4B
$GPGGA,145336.000,4308.3400,N,07726.3301,W,2,10,0.92,151.0,M,-34.4,M,0000,0000*57
lng=-77.438812, lat=43.138988, altitude=150.80, speed=26.87, satellites=10, angle=303.3200, fixquality=2
$GPRMC,145336.200,A,4308.3408,N,07726.3319,W,27.08,302.68,300319,,,D*4B
$GPGGA,145336.400,4308.3416,N,07726.3336,W,2,10,0.92,151.0,M,-34.4,M,0000,0000*50
lng=-77.438865, lat=43.139015, altitude=151.00, speed=27.08, satellites=10, angle=302.6800, fixquality=2
$GPRMC,145336.600,A,4308.3424,N,07726.3354,W,27.16,303.96,300319,,,D*47
$GPGGA,145336.800,4308.3433,N,07726.3371,W,2,10,0.92,151.1,M,-34.4,M,0000,0000*59
lng=-77.438926, lat=43.139038, altitude=151.00, speed=27.16, satellites=10, angle=303.9600, fixquality=2
$GPRMC,145337.000,A,4308.3441,N,07726.3389,W,27.24,304.40,300319,,,D*4E
$GPGGA,145337.200,4308.3450,N,07726.3406,W,2,10,0.92,151.1,M,-34.4,M,0000,0000*50
lng=-77.438980, lat=43.139072, altitude=151.10, speed=27.24, satellites=10, angle=304.4000, fixquality=2
$GPRMC,145337.400,A,4308.3458,N,07726.3423,W,27.27,305.02,300319,,,D*41
$GPGGA,145337.600,4308.3467,N,07726.3440,W,2,10,0.92,151.1,M,-34.4,M,0000,0000*52
lng=-77.439041, lat=43.139095, altitude=151.10, speed=27.27, satellites=10, angle=305.0200, fixquality=2
$GPRMC,145337.800,A,4308.3476,N,07726.3458,W,27.03,305.17,300319,,,D*4F
$GPGGA,145338.000,4308.3484,N,07726.3474,W,2,10,0.86,151.2,M,-34.4,M,0000,0000*57
lng=-77.439094, lat=43.139125, altitude=151.10, speed=27.03, satellites=10, angle=305.1700, fixquality=2
$GPRMC,145338.200,A,4308.3493,N,07726.3491,W,27.06,307.89,300319,,,D*44
$GPGGA,145338.400,4308.3503,N,07726.3507,W,2,10,0.92,151.2,M,-34.4,M,0000,0000*5D
lng=-77.439155, lat=43.139152, altitude=151.20, speed=27.06, satellites=10, angle=307.8900, fixquality=2
$GPRMC,145338.600,A,4308.3512,N,07726.3523,W,27.50,310.33,300319,,,D*44
$GPGGA,145338.800,4308.3522,N,07726.3539,W,2,10,0.86,151.2,M,-34.4,M,0000,0000*5A
lng=-77.439208, lat=43.139183, altitude=151.20, speed=27.50, satellites=10, angle=310.3300, fixquality=2
$GPRMC,145339.000,A,4308.3531,N,07726.3555,W,27.37,309.48,300319,,,D*46
$GPGGA,145339.200,4308.3541,N,07726.3570,W,2,10,0.86,151.2,M,-34.4,M,0000,0000*59
lng=-77.439254, lat=43.139217, altitude=151.20, speed=27.37, satellites=10, angle=309.4800, fixquality=2
$GPRMC,145339.400,A,4308.3552,N,07726.3584,W,26.50,315.03,300319,,,D*49
$GPGGA,145339.600,4308.3562,N,07726.3598,W,2,10,0.86,151.2,M,-34.4,M,0000,0000*5A
lng=-77.439308, lat=43.139247, altitude=151.20, speed=26.50, satellites=10, angle=315.0300, fixquality=2
$GPRMC,145339.800,A,4308.3573,N,07726.3612,W,26.53,317.91,300319,,,D*40
$GPGGA,145340.000,4308.3585,N,07726.3625,W,2,10,0.86,151.1,M,-34.4,M,0000,0000*5D
lng=-77.439353, lat=43.139289, altitude=151.20, speed=26.53, satellites=10, angle=317.9100, fixquality=2
$GPRMC,145340.200,A,4308.3597,N,07726.3638,W,26.59,321.66,300319,,,D*41
$GPGGA,145340.400,4308.3609,N,07726.3650,W,2,10,0.86,151.1,M,-34.4,M,0000,0000*5C
lng=-77.439399, lat=43.139331, altitude=151.10, speed=26.59, satellites=10, angle=321.6600, fixquality=2
$GPRMC,145340.600,A,4308.3622,N,07726.3662,W,26.81,325.04,300319,,,D*42
$GPGGA,145340.800,4308.3634,N,07726.3672,W,2,10,0.86,151.0,M,-34.4,M,0000,0000*5F
lng=-77.439437, lat=43.139369, altitude=151.10, speed=26.81, satellites=10, angle=325.0400, fixquality=2
$GPRMC,145341.000,A,4308.3646,N,07726.3683,W,26.72,326.79,300319,,,D*4D
$GPGGA,145341.200,4308.3659,N,07726.3693,W,2,10,0.86,151.0,M,-34.4,M,0000,0000*50
lng=-77.439468, lat=43.139411, altitude=151.00, speed=26.72, satellites=10, angle=326.7900, fixquality=2
$GPRMC,145341.400,A,4308.3672,N,07726.3703,W,26.29,329.53,300319,,,D*4E
$GPGGA,145341.600,4308.3685,N,07726.3712,W,2,10,0.86,151.0,M,-34.4,M,0000,0000*5D
lng=-77.439498, lat=43.139453, altitude=151.00, speed=26.29, satellites=10, angle=329.5300, fixquality=2
$GPRMC,145341.800,A,4308.3698,N,07726.3721,W,26.34,333.20,300319,,,D*45
$GPGGA,145342.000,4308.3711,N,07726.3729,W,2,10,0.86,151.0,M,-34.4,M,0000,0000*5C
lng=-77.439537, lat=43.139492, altitude=151.00, speed=26.34, satellites=10, angle=333.2000, fixquality=2
$GPRMC,145342.200,A,4308.3725,N,07726.3736,W,26.85,337.72,300319,,,D*44
$GPGGA,145342.400,4308.3738,N,07726.3743,W,2,10,0.86,151.0,M,-34.4,M,0000,0000*5F
lng=-77.439559, lat=43.139541, altitude=151.00, speed=26.85, satellites=10, angle=337.7200, fixquality=2
$GPRMC,145342.600,A,4308.3752,N,07726.3750,W,27.04,342.24,300319,,,D*49
$GPGGA,145342.800,4308.3767,N,07726.3756,W,2,09,0.89,150.9,M,-34.4,M,0000,0000*52
lng=-77.439582, lat=43.139583, altitude=151.00, speed=27.04, satellites=10, angle=342.2400, fixquality=2
$GPRMC,145343.000,A,4308.3781,N,07726.3762,W,27.18,345.02,300319,,,D*4F
$GPGGA,145343.200,4308.3796,N,07726.3767,W,2,10,0.86,150.9,M,-34.4,M,0000,0000*52
lng=-77.439598, lat=43.139633, altitude=150.90, speed=27.18, satellites=9, angle=345.0200, fixquality=2
$GPRMC,145343.400,A,4308.3811,N,07726.3771,W,27.30,348.11,300319,,,D*4A
$GPGGA,145343.600,4308.3826,N,07726.3774,W,2,10,0.86,150.8,M,-34.4,M,0000,0000*51
lng=-77.439613, lat=43.139682, altitude=150.90, speed=27.30, satellites=10, angle=348.1100, fixquality=2
$GPRMC,145343.800,A,4308.3841,N,07726.3777,W,27.91,351.09,300319,,,D*4F
$GPGGA,145344.000,4308.3856,N,07726.3780,W,2,10,0.86,150.8,M,-34.4,M,0000,0000*5C
lng=-77.439628, lat=43.139736, altitude=150.80, speed=27.91, satellites=10, angle=351.0900, fixquality=2
$GPRMC,145344.200,A,4308.3871,N,07726.3782,W,28.27,353.86,300319,,,D*4C
$GPGGA,145344.400,4308.3887,N,07726.3783,W,2,10,0.86,150.7,M,-34.4,M,0000,0000*58
lng=-77.439643, lat=43.139785, altitude=150.80, speed=28.27, satellites=10, angle=353.8600, fixquality=2
$GPRMC,145344.600,A,4308.3902,N,07726.3783,W,28.29,356.57,300319,,,D*4B
$GPGGA,145344.800,4308.3917,N,07726.3784,W,2,10,0.86,150.7,M,-34.4,M,0000,0000*5B
lng=-77.439643, lat=43.139835, altitude=150.70, speed=28.29, satellites=10, angle=356.5700, fixquality=2
$GPRMC,145345.000,A,4308.3932,N,07726.3784,W,28.22,358.41,300319,,,D*4A
$GPGGA,145345.200,4308.3946,N,07726.3782,W,2,10,0.86,150.7,M,-34.4,M,0000,0000*52
lng=-77.439643, lat=43.139884, altitude=150.70, speed=28.22, satellites=10, angle=358.4100, fixquality=2
$GPRMC,145345.400,A,4308.3961,N,07726.3780,W,26.89,1.61,300319,,,D*4E
$GPGGA,145345.600,4308.3975,N,07726.3778,W,2,10,0.86,150.6,M,-34.4,M,0000,0000*52
lng=-77.439628, lat=43.139934, altitude=150.70, speed=26.89, satellites=10, angle=1.6100, fixquality=2
$GPRMC,145345.800,A,4308.3989,N,07726.3776,W,26.11,3.97,300319,,,D*47
$GPGGA,145346.000,4308.4003,N,07726.3773,W,2,10,0.86,150.6,M,-34.4,M,0000,0000*53
lng=-77.439620, lat=43.139980, altitude=150.60, speed=26.11, satellites=10, angle=3.9700, fixquality=2
$GPRMC,145346.200,A,4308.4017,N,07726.3771,W,25.22,5.42,300319,,,D*4D
$GPGGA,145346.400,4308.4030,N,07726.3769,W,2,10,0.92,150.7,M,-34.4,M,0000,0000*58
lng=-77.439613, lat=43.140029, altitude=150.60, speed=25.22, satellites=10, angle=5.4200, fixquality=2
$GPRMC,145346.600,A,4308.4043,N,07726.3766,W,24.64,6.17,300319,,,D*4E
$GPGGA,145346.800,4308.4057,N,07726.3764,W,2,10,0.92,150.7,M,-34.4,M,0000,0000*58
lng=-77.439605, lat=43.140071, altitude=150.70, speed=24.64, satellites=10, angle=6.1700, fixquality=2
$GPRMC,145347.000,A,4308.4070,N,07726.3761,W,24.10,6.75,300319,,,D*49
$GPGGA,145347.200,4308.4084,N,07726.3758,W,2,10,0.92,150.8,M,-34.4,M,0000,0000*5D
lng=-77.439598, lat=43.140121, altitude=150.70, speed=24.10, satellites=10, angle=6.7500, fixquality=2
$GPRMC,145347.400,A,4308.4097,N,07726.3756,W,23.61,7.47,300319,,,D*41
$GPGGA,145347.600,4308.4110,N,07726.3753,W,2,10,0.92,150.8,M,-34.4,M,0000,0000*5E
lng=-77.439590, lat=43.140159, altitude=150.80, speed=23.61, satellites=10, angle=7.4700, fixquality=2
$GPRMC,145347.800,A,4308.4123,N,07726.3751,W,23.29,7.73,300319,,,D*4F
$GPGGA,145348.000,4308.4135,N,07726.3749,W,2,10,0.92,150.9,M,-34.4,M,0000,0000*5A
lng=-77.439582, lat=43.140201, altitude=150.80, speed=23.29, satellites=10, angle=7.7300, fixquality=2
$GPRMC,145348.200,A,4308.4148,N,07726.3746,W,22.65,8.19,300319,,,D*4B
$GPGGA,145348.400,4308.4161,N,07726.3743,W,2,09,0.96,150.9,M,-34.4,M,0000,0000*59
lng=-77.439575, lat=43.140251, altitude=150.90, speed=22.65, satellites=10, angle=8.1900, fixquality=2
$GPRMC,145348.600,A,4308.4174,N,07726.3740,W,22.32,9.88,300319,,,D*4D
$GPGGA,145348.800,4308.4186,N,07726.3737,W,2,10,0.92,151.0,M,-34.4,M,0000,0000*5B
lng=-77.439567, lat=43.140293, altitude=150.90, speed=22.32, satellites=9, angle=9.8800, fixquality=2
$GPRMC,145349.000,A,4308.4198,N,07726.3733,W,22.01,10.07,300319,,,D*73
$GPGGA,145349.200,4308.4210,N,07726.3730,W,2,10,0.92,151.0,M,-34.4,M,0000,0000*5B
lng=-77.439559, lat=43.140331, altitude=151.00, speed=22.01, satellites=10, angle=10.0700, fixquality=2
$GPRMC,145349.400,A,4308.4222,N,07726.3727,W,21.46,9.97,300319,,,D*41
$GPGGA,145349.600,4308.4234,N,07726.3725,W,2,10,0.92,151.0,M,-34.4,M,0000,0000*5D
lng=-77.439544, lat=43.140373, altitude=151.00, speed=21.46, satellites=10, angle=9.9700, fixquality=2
$GPRMC,145349.800,A,4308.4245,N,07726.3722,W,21.15,9.50,300319,,,D*44
$GPGGA,145350.000,4308.4257,N,07726.3719,W,2,10,0.92,151.1,M,-34.4,M,0000,0000*58
lng=-77.439537, lat=43.140403, altitude=151.00, speed=21.15, satellites=10, angle=9.5000, fixquality=2
$GPRMC,145350.200,A,4308.4268,N,07726.3716,W,20.53,9.36,300319,,,D*4D
$GPGGA,145350.400,4308.4279,N,07726.3713,W,2,10,0.92,151.1,M,-34.4,M,0000,0000*5A
lng=-77.439529, lat=43.140445, altitude=151.10, speed=20.53, satellites=10, angle=9.3600, fixquality=2
$GPRMC,145350.600,A,4308.4290,N,07726.3710,W,20.19,9.75,300319,,,D*41
$GPGGA,145350.800,4308.4301,N,07726.3707,W,2,10,0.92,151.2,M,-34.4,M,0000,0000*5E
lng=-77.439521, lat=43.140487, altitude=151.10, speed=20.19, satellites=10, angle=9.7500, fixquality=2
$GPRMC,145351.000,A,4308.4312,N,07726.3704,W,19.96,9.50,300319,,,D*42
$GPGGA,145351.200,4308.4322,N,07726.3702,W,2,10,0.92,151.1,M,-34.4,M,0000,0000*52
lng=-77.439506, lat=43.140518, altitude=151.20, speed=19.96, satellites=10, angle=9.5000, fixquality=2
$GPRMC,145351.400,A,4308.4333,N,07726.3699,W,19.64,10.13,300319,,,D*72
$GPGGA,145351.600,4308.4344,N,07726.3696,W,2,10,0.92,151.0,M,-34.4,M,0000,0000*5B
lng=-77.439498, lat=43.140552, altitude=151.10, speed=19.64, satellites=10, angle=10.1300, fixquality=2
$GPRMC,145351.800,A,4308.4354,N,07726.3693,W,19.38,10.41,300319,,,D*7B
$GPGGA,145352.000,4308.4363,N,07726.3689,W,2,10,0.92,150.8,M,-34.4,M,0000,0000*5C
lng=-77.439483, lat=43.140590, altitude=151.00, speed=19.38, satellites=10, angle=10.4100, fixquality=2
$GPRMC,145352.200,A,4308.4371,N,07726.3686,W,18.10,11.53,300319,,,D*78
$GPGGA,145352.400,4308.4380,N,07726.3683,W,2,10,0.92,150.0,M,-34.4,M,0000,0000*57
lng=-77.439476, lat=43.140617, altitude=150.80, speed=18.10, satellites=10, angle=11.5300, fixquality=2
$GPRMC,145352.600,A,4308.4390,N,07726.3679,W,17.84,12.27,300319,,,D*71
$GPGGA,145352.800,4308.4400,N,07726.3676,W,2,10,0.92,150.1,M,-34.4,M,0000,0000*5F
lng=-77.439460, lat=43.140647, altitude=150.00, speed=17.84, satellites=10, angle=12.2700, fixquality=2
$GPRMC,145353.000,A,4308.4409,N,07726.3673,W,17.13,12.31,300319,,,D*72
$GPGGA,145353.200,4308.4418,N,07726.3669,W,2,10,0.92,150.1,M,-34.4,M,0000,0000*53
lng=-77.439453, lat=43.140682, altitude=150.10, speed=17.13, satellites=10, angle=12.3100, fixquality=2
$GPRMC,145353.400,A,4308.4426,N,07726.3665,W,16.74,12.39,300319,,,D*74
$GPGGA,145353.600,4308.4434,N,07726.3660,W,2,10,0.92,150.1,M,-34.4,M,0000,0000*50
lng=-77.439445, lat=43.140705, altitude=150.10, speed=16.74, satellites=10, angle=12.3900, fixquality=2
$GPRMC,145353.800,A,4308.4443,N,07726.3656,W,16.32,12.84,300319,,,D*7F
$GPGGA,145354.000,4308.4451,N,07726.3652,W,2,10,0.92,150.0,M,-34.4,M,0000,0000*52
lng=-77.439430, lat=43.140739, altitude=150.10, speed=16.32, satellites=10, angle=12.8400, fixquality=2
$GPRMC,145354.200,A,4308.4460,N,07726.3648,W,16.04,13.08,300319,,,D*7C
$GPGGA,145354.400,4308.4468,N,07726.3645,W,2,10,0.92,149.9,M,-34.4,M,0000,0000*5B
lng=-77.439414, lat=43.140762, altitude=150.00, speed=16.04, satellites=10, angle=13.0800, fixquality=2
$GPRMC,145354.600,A,4308.4477,N,07726.3643,W,15.36,13.16,300319,,,D*78
$GPGGA,145354.800,4308.4484,N,07726.3640,W,2,10,0.92,149.7,M,-34.4,M,0000,0000*5E
lng=-77.439407, lat=43.140796, altitude=149.90, speed=15.36, satellites=10, angle=13.1600, fixquality=2
$GPRMC,145355.000,A,4308.4492,N,07726.3637,W,13.84,13.32,300319,,,D*7E
$GPGGA,145355.200,4308.4500,N,07726.3635,W,2,10,0.92,149.6,M,-34.4,M,0000,0000*5B
lng=-77.439399, lat=43.140819, altitude=149.70, speed=13.84, satellites=10, angle=13.3200, fixquality=2
$GPRMC,145355.400,A,4308.4506,N,07726.3633,W,11.72,13.34,300319,,,D*7F
$GPGGA,145355.600,4308.4513,N,07726.3631,W,2,10,0.92,149.5,M,-34.4,M,0000,0000*5A
lng=-77.439384, lat=43.140846, altitude=149.60, speed=11.72, satellites=10, angle=13.3400, fixquality=2
$GPRMC,145355.800,A,4308.4519,N,07726.3629,W,9.88,13.75,300319,,,D*4F
$GPGGA,145356.000,4308.4524,N,07726.3627,W,2,10,0.92,149.4,M,-34.4,M,0000,0000*5D
lng=-77.439376, lat=43.140861, altitude=149.50, speed=9.88, satellites=10, angle=13.7500, fixquality=2
$GPRMC,145356.200,A,4308.4528,N,07726.3626,W,7.68,12.49,300319,,,D*45
$GPGGA,145356.400,4308.4532,N,07726.3624,W,2,10,0.92,149.3,M,-34.4,M,0000,0000*5A
lng=-77.439376, lat=43.140876, altitude=149.40, speed=7.68, satellites=10, angle=12.4900, fixquality=2
$GPRMC,145356.600,A,4308.4535,N,07726.3623,W,5.75,10.04,300319,,,D*4D
$GPGGA,145356.800,4308.4538,N,07726.3622,W,2,10,0.92,149.2,M,-34.4,M,0000,0000*5B
lng=-77.439369, lat=43.140892, altitude=149.30, speed=5.75, satellites=10, angle=10.0400, fixquality=2
$GPRMC,145357.000,A,4308.4540,N,07726.3622,W,3.92,12.15,300319,,,D*44
$GPGGA,145357.200,4308.4542,N,07726.3621,W,2,10,0.92,149.1,M,-34.4,M,0000,0000*5D
lng=-77.439369, lat=43.140903, altitude=149.20, speed=3.92, satellites=10, angle=12.1500, fixquality=2
$GPRMC,145357.400,A,4308.4543,N,07726.3620,W,2.32,14.65,300319,,,D*4B
$GPGGA,145357.600,4308.4544,N,07726.3620,W,2,10,0.92,149.1,M,-34.4,M,0000,0000*5E
lng=-77.439361, lat=43.140903, altitude=149.10, speed=2.32, satellites=10, angle=14.6500, fixquality=2
$GPRMC,145357.800,A,4308.4545,N,07726.3619,W,2.17,14.65,300319,,,D*4C
$GPGGA,145358.000,4308.4547,N,07726.3618,W,2,10,0.86,149.0,M,-34.4,M,0000,0000*5B
lng=-77.439361, lat=43.140911, altitude=149.10, speed=2.17, satellites=10, angle=14.6500, fixquality=2
$GPRMC,145358.200,A,4308.4549,N,07726.3618,W,3.44,20.26,300319,,,D*43
$GPGGA,145358.400,4308.4551,N,07726.3617,W,2,10,0.86,149.0,M,-34.4,M,0000,0000*57
lng=-77.439361, lat=43.140918, altitude=149.00, speed=3.44, satellites=10, angle=20.2600, fixquality=2
$GPRMC,145358.600,A,4308.4553,N,07726.3616,W,4.01,13.43,300319,,,D*47
$GPGGA,145358.800,4308.4555,N,07726.3615,W,2,10,0.92,148.9,M,-34.4,M,0000,0000*50
lng=-77.439361, lat=43.140918, altitude=149.00, speed=4.01, satellites=10, angle=13.4300, fixquality=2
$GPRMC,145359.000,A,4308.4557,N,07726.3615,W,4.59,8.72,300319,,,D*72
$GPGGA,145359.200,4308.4560,N,07726.3616,W,2,10,0.92,148.7,M,-34.4,M,0000,0000*50
lng=-77.439353, lat=43.140926, altitude=148.90, speed=4.59, satellites=10, angle=8.7200, fixquality=2
$GPRMC,145359.400,A,4308.4565,N,07726.3616,W,5.71,358.91,300319,,,D*74
$GPGGA,145359.600,4308.4569,N,07726.3614,W,2,10,0.92,148.6,M,-34.4,M,0000,0000*5E
lng=-77.439361, lat=43.140941, altitude=148.70, speed=5.71, satellites=10, angle=358.9100, fixquality=2
$GPRMC,145359.800,A,4308.4573,N,07726.3615,W,6.39,355.97,300319,,,D*78
$GPGGA,145400.000,4308.4577,N,07726.3617,W,2,10,0.92,148.5,M,-34.4,M,0000,0000*5C
lng=-77.439353, lat=43.140956, altitude=148.60, speed=6.39, satellites=10, angle=355.9700, fixquality=2
$GPRMC,145400.200,A,4308.4583,N,07726.3620,W,8.51,342.29,300319,,,D*73
$GPGGA,145400.400,4308.4589,N,07726.3624,W,2,10,0.92,148.3,M,-34.4,M,0000,0000*5F
lng=-77.439361, lat=43.140975, altitude=148.50, speed=8.51, satellites=10, angle=342.2900, fixquality=2
$GPRMC,145400.600,A,4308.4595,N,07726.3629,W,10.84,329.80,300319,,,D*46
$GPGGA,145400.800,4308.4601,N,07726.3634,W,2,10,0.86,148.2,M,-34.4,M,0000,0000*55
lng=-77.439376, lat=43.140991, altitude=148.30, speed=10.84, satellites=10, angle=329.8000, fixquality=2
$GPRMC,145401.000,A,4308.4607,N,07726.3640,W,11.88,325.76,300319,,,D*4E
$GPGGA,145401.200,4308.4614,N,07726.3648,W,2,09,0.95,148.0,M,-34.4,M,0000,0000*59
lng=-77.439399, lat=43.141014, altitude=148.20, speed=11.88, satellites=10, angle=325.7600, fixquality=2
$GPRMC,145401.400,A,4308.4620,N,07726.3658,W,14.07,317.94,300319,,,D*49
$GPGGA,145401.600,4308.4626,N,07726.3671,W,2,09,0.95,147.9,M,-34.4,M,0000,0000*50
lng=-77.439430, lat=43.141033, altitude=148.00, speed=14.07, satellites=9, angle=317.9400, fixquality=2
$GPRMC,145401.800,A,4308.4632,N,07726.3682,W,16.89,308.51,300319,,,D*42
$GPGGA,145402.000,4308.4639,N,07726.3694,W,2,10,0.86,147.8,M,-34.4,M,0000,0000*5B
lng=-77.439468, lat=43.141056, altitude=147.90, speed=16.89, satellites=9, angle=308.5100, fixquality=2
$GPRMC,145402.200,A,4308.4645,N,07726.3707,W,18.54,305.45,300319,,,D*41
$GPGGA,145402.400,4308.4649,N,07726.3721,W,2,10,0.86,147.7,M,-34.4,M,0000,0000*58
lng=-77.439506, lat=43.141071, altitude=147.80, speed=18.54, satellites=10, angle=305.4500, fixquality=2
$GPRMC,145402.600,A,4308.4654,N,07726.3736,W,20.33,300.70,300319,,,D*4E
$GPGGA,145402.800,4308.4659,N,07726.3750,W,2,10,0.86,147.6,M,-34.4,M,0000,0000*52
lng=-77.439559, lat=43.141090, altitude=147.70, speed=20.33, satellites=10, angle=300.7000, fixquality=2
$GPRMC,145403.000,A,4308.4664,N,07726.3766,W,21.44,298.89,300319,,,D*48
$GPGGA,145403.200,4308.4669,N,07726.3782,W,2,10,0.86,147.5,M,-34.4,M,0000,0000*56
lng=-77.439605, lat=43.141105, altitude=147.60, speed=21.44, satellites=10, angle=298.8900, fixquality=2
$GPRMC,145403.400,A,4308.4673,N,07726.3799,W,22.48,296.89,300319,,,D*4B
$GPGGA,145403.600,4308.4677,N,07726.3817,W,2,10,0.86,147.4,M,-34.4,M,0000,0000*5F
lng=-77.439666, lat=43.141120, altitude=147.50, speed=22.48, satellites=10, angle=296.8900, fixquality=2
$GPRMC,145403.800,A,4308.4680,N,07726.3835,W,22.98,293.77,300319,,,D*4B
$GPGGA,145404.000,4308.4678,N,07726.3858,W,2,10,0.86,147.3,M,-34.4,M,0000,0000*5D
lng=-77.439720, lat=43.141128, altitude=147.40, speed=22.98, satellites=10, angle=293.7700, fixquality=2
$GPRMC,145404.200,A,4308.4678,N,07726.3879,W,24.52,283.32,300319,,,D*49
$GPGGA,145404.400,4308.4679,N,07726.3899,W,2,10,0.92,147.2,M,-34.4,M,0000,0000*51
lng=-77.439796, lat=43.141128, altitude=147.30, speed=24.52, satellites=10, angle=283.3200, fixquality=2
$GPRMC,145404.600,A,4308.4680,N,07726.3918,W,24.10,279.48,300319,,,D*42
$GPGGA,145404.800,4308.4682,N,07726.3937,W,2,10,0.86,147.1,M,-34.4,M,0000,0000*5A
lng=-77.439857, lat=43.141128, altitude=147.20, speed=24.10, satellites=10, angle=279.4800, fixquality=2
$GPRMC,145405.000,A,4308.4683,N,07726.3956,W,24.09,278.17,300319,,,D*4F
$GPGGA,145405.200,4308.4684,N,07726.3975,W,2,10,0.86,147.0,M,-34.4,M,0000,0000*50
lng=-77.439926, lat=43.141136, altitude=147.10, speed=24.09, satellites=10, angle=278.1700, fixquality=2
$GPRMC,145405.400,A,4308.4686,N,07726.3993,W,23.88,277.91,300319,,,D*48
$GPGGA,145405.600,4308.4688,N,07726.4011,W,2,10,0.92,146.9,M,-34.4,M,0000,0000*59
lng=-77.439987, lat=43.141147, altitude=147.00, speed=23.88, satellites=10, angle=277.9100, fixquality=2
$GPRMC,145405.800,A,4308.4690,N,07726.4029,W,23.29,277.41,300319,,,D*4A
$GPGGA,145406.000,4308.4691,N,07726.4047,W,2,10,0.86,146.8,M,-34.4,M,0000,0000*53
lng=-77.440048, lat=43.141155, altitude=146.90, speed=23.29, satellites=10, angle=277.4100, fixquality=2
$GPRMC,145406.200,A,4308.4693,N,07726.4064,W,22.33,276.06,300319,,,D*41
$GPGGA,145406.400,4308.4694,N,07726.4081,W,2,10,0.86,146.7,M,-34.4,M,0000,0000*57
lng=-77.440101, lat=43.141155, altitude=146.80, speed=22.33, satellites=10, angle=276.0600, fixquality=2
$GPRMC,145406.600,A,4308.4696,N,07726.4099,W,21.28,274.94,300319,,,D*42
$GPGGA,145406.800,4308.4699,N,07726.4113,W,2,10,0.86,146.7,M,-34.4,M,0000,0000*5C
lng=-77.440162, lat=43.141162, altitude=146.70, speed=21.28, satellites=10, angle=274.9400, fixquality=2
$GPRMC,145407.000,A,4308.4700,N,07726.4128,W,18.60,275.69,300319,,,D*45
$GPGGA,145407.200,4308.4701,N,07726.4142,W,2,10,0.92,146.6,M,-34.4,M,0000,0000*57
lng=-77.440208, lat=43.141170, altitude=146.70, speed=18.60, satellites=10, angle=275.6900, fixquality=2
$GPRMC,145407.400,A,4308.4702,N,07726.4156,W,16.84,274.80,300319,,,D*48
$GPGGA,145407.600,4308.4703,N,07726.4169,W,2,10,0.92,146.5,M,-34.4,M,0000,0000*5B
lng=-77.440261, lat=43.141170, altitude=146.60, speed=16.84, satellites=10, angle=274.8000, fixquality=2
$GPRMC,145407.800,A,4308.4704,N,07726.4182,W,15.30,275.77,300319,,,D*4E
$GPGGA,145408.000,4308.4705,N,07726.4195,W,2,10,0.92,146.6,M,-34.4,M,0000,0000*54
lng=-77.440299, lat=43.141170, altitude=146.50, speed=15.30, satellites=10, angle=275.7700, fixquality=2
$GPRMC,145408.200,A,4308.4706,N,07726.4207,W,14.07,277.73,300319,,,D*44
$GPGGA,145408.400,4308.4707,N,07726.4219,W,2,10,0.92,146.4,M,-34.4,M,0000,0000*57
lng=-77.440345, lat=43.141178, altitude=146.60, speed=14.07, satellites=10, angle=277.7300, fixquality=2
$GPRMC,145408.600,A,4308.4707,N,07726.4230,W,13.20,277.32,300319,,,D*42
$GPGGA,145408.800,4308.4708,N,07726.4241,W,2,10,0.86,146.3,M,-34.4,M,0000,0000*5B
lng=-77.440383, lat=43.141178, altitude=146.40, speed=13.20, satellites=10, angle=277.3200, fixquality=2
$GPRMC,145409.000,A,4308.4709,N,07726.4251,W,12.87,277.92,300319,,,D*4A
$GPGGA,145409.200,4308.4710,N,07726.4261,W,2,10,0.86,146.2,M,-34.4,M,0000,0000*5A
lng=-77.440422, lat=43.141178, altitude=146.30, speed=12.87, satellites=10, angle=277.9200, fixquality=2
$GPRMC,145409.400,A,4308.4711,N,07726.4269,W,11.83,279.39,300319,,,D*44
$GPGGA,145409.600,4308.4712,N,07726.4278,W,2,10,0.92,146.1,M,-34.4,M,0000,0000*52
lng=-77.440444, lat=43.141185, altitude=146.20, speed=11.83, satellites=10, angle=279.3900, fixquality=2
$GPRMC,145409.800,A,4308.4713,N,07726.4286,W,10.57,281.01,300319,,,D*4F
$GPGGA,145410.000,4308.4714,N,07726.4292,W,2,10,0.86,146.0,M,-34.4,M,0000,0000*5A
lng=-77.440475, lat=43.141185, altitude=146.10, speed=10.57, satellites=10, angle=281.0100, fixquality=2
$GPRMC,145410.200,A,4308.4714,N,07726.4299,W,9.10,280.67,300319,,,D*7E
$GPGGA,145410.400,4308.4714,N,07726.4305,W,2,10,0.92,145.9,M,-34.4,M,0000,0000*5E
lng=-77.440498, lat=43.141185, altitude=146.00, speed=9.10, satellites=10, angle=280.6700, fixquality=2
$GPRMC,145410.600,A,4308.4714,N,07726.4311,W,7.80,279.24,300319,,,D*7D
$GPGGA,145410.800,4308.4714,N,07726.4316,W,2,10,0.86,145.9,M,-34.4,M,0000,0000*55
lng=-77.440521, lat=43.141185, altitude=145.90, speed=7.80, satellites=10, angle=279.2400, fixquality=2
$GPRMC,145411.000,A,4308.4714,N,07726.4321,W,6.68,277.76,300319,,,D*77
$GPGGA,145411.200,4308.4714,N,07726.4325,W,2,10,0.92,145.8,M,-34.4,M,0000,0000*5A
lng=-77.440536, lat=43.141185, altitude=145.90, speed=6.68, satellites=10, angle=277.7600, fixquality=2
$GPRMC,145411.400,A,4308.4714,N,07726.4329,W,5.25,279.06,300319,,,D*78
$GPGGA,145411.600,4308.4713,N,07726.4332,W,2,10,0.92,145.8,M,-34.4,M,0000,0000*5F
lng=-77.440551, lat=43.141185, altitude=145.80, speed=5.25, satellites=10, angle=279.0600, fixquality=2
$GPRMC,145411.800,A,4308.4713,N,07726.4335,W,4.07,281.66,300319,,,D*7E
$GPGGA,145412.000,4308.4713,N,07726.4337,W,2,10,0.86,145.7,M,-34.4,M,0000,0000*55
lng=-77.440559, lat=43.141185, altitude=145.80, speed=4.07, satellites=10, angle=281.6600, fixquality=2
$GPRMC,145412.200,A,4308.4713,N,07726.4338,W,2.27,287.94,300319,,,D*75
$GPGGA,145412.400,4308.4712,N,07726.4338,W,2,10,0.86,145.7,M,-34.4,M,0000,0000*5F
lng=-77.440559, lat=43.141185, altitude=145.70, speed=2.27, satellites=10, angle=287.9400, fixquality=2
$GPRMC,145412.600,A,4308.4712,N,07726.4339,W,1.07,287.94,300319,,,D*70
$GPGGA,145412.800,4308.4712,N,07726.4339,W,2,10,0.86,145.7,M,-34.4,M,0000,0000*52
lng=-77.440567, lat=43.141185, altitude=145.70, speed=1.07, satellites=10, angle=287.9400, fixquality=2
$GPRMC,145413.000,A,4308.4712,N,07726.4339,W,0.75,287.94,300319,,,D*73
$GPGGA,145413.200,4308.4712,N,07726.4339,W,2,10,0.86,145.7,M,-34.4,M,0000,0000*59
lng=-77.440567, lat=43.141185, altitude=145.70, speed=0.75, satellites=10, angle=287.9400, fixquality=2
$GPRMC,145413.400,A,4308.4711,N,07726.4339,W,0.69,287.94,300319,,,D*79
$GPGGA,145413.600,4308.4711,N,07726.4339,W,2,10,0.86,145.7,M,-34.4,M,0000,0000*5E
lng=-77.440567, lat=43.141185, altitude=145.70, speed=0.69, satellites=10, angle=287.9400, fixquality=2
$GPRMC,145413.800,A,4308.4712,N,07726.4338,W,0.69,287.94,300319,,,D*77
$GPGGA,145414.000,4308.4710,N,07726.4335,W,2,10,0.86,145.8,M,-34.4,M,0000,0000*5D
lng=-77.440559, lat=43.141185, altitude=145.70, speed=0.69, satellites=10, angle=287.9400, fixquality=2
$GPRMC,145414.200,A,4308.4709,N,07726.4334,W,0.02,287.94,300319,,,D*71
$GPGGA,145414.400,4308.4709,N,07726.4334,W,2,10,0.86,145.8,M,-34.4,M,0000,0000*50
lng=-77.440559, lat=43.141178, altitude=145.80, speed=0.02, satellites=10, angle=287.9400, fixquality=2
$GPRMC,145414.600,A,4308.4709,N,07726.4334,W,0.04,287.94,300319,,,D*73
$GPGGA,145414.800,4308.4709,N,07726.4334,W,2,10,0.86,145.8,M,-34.4,M,0000,0000*5C
lng=-77.440559, lat=43.141178, altitude=145.80, speed=0.04, satellites=10, angle=287.9400, fixquality=2
$GPRMC,145415.000,A,4308.4709,N,07726.4334,W,0.08,287.94,300319,,,D*78
$GPGGA,145415.200,4308.4710,N,07726.4334,W,2,10,0.86,145.8,M,-34.4,M,0000,0000*5F
lng=-77.440559, lat=43.141178, altitude=145.80, speed=0.08, satellites=10, angle=287.9400, fixquality=2
$GPRMC,145415.400,A,4308.4710,N,07726.4334,W,0.09,287.94,300319,,,D*75
$GPGGA,145415.600,4308.4710,N,07726.4334,W,2,10,0.86,145.8,M,-34.4,M,0000,0000*5B
lng=-77.440559, lat=43.141185, altitude=145.80, speed=0.09, satellites=10, angle=287.9400, fixquality=2
$GPRMC,145415.800,A,4308.4710,N,07726.4334,W,0.03,287.94,300319,,,D*73
$GPGGA,145416.000,4308.4710,N,07726.4334,W,2,10,0.86,145.8,M,-34.4,M,0000,0000*5E
lng=-77.440559, lat=43.141185, altitude=145.80, speed=0.03, satellites=10, angle=287.9400, fixquality=2
$GPRMC,145416.200,A,4308.4710,N,07726.4334,W,0.02,287.94,300319,,,D*7B
$GPGGA,145416.400,4308.4710,N,07726.4334,W,2,10,0.86,145.8,M,-34.4,M,0000,0000*5A
lng=-77.440559, lat=43.141185, altitude=145.80, speed=0.02, satellites=10, angle=287.9400, fixquality=2
$GPRMC,145416.600,A,4308.4710,N,07726.4334,W,0.02,287.94,300319,,,D*7F
$GPGGA,145416.800,4308.4710,N,07726.4334,W,2,10,0.86,145.8,M,-34.4,M,0000,0000*56
lng=-77.440559, lat=43.141185, altitude=145.80, speed=0.02, satellites=10, angle=287.9400, fixquality=2
$GPRMC,145417.000,A,4308.4710,N,07726.4334,W,0.02,287.94,300319,,,D*78
$GPGGA,145417.200,4308.4710,N,07726.4334,W,2,10,0.86,145.8,M,-34.4,M,0000,0000*5D
lng=-77.440559, lat=43.141185, altitude=145.80, speed=0.02, satellites=10, angle=287.9400, fixquality=2
$GPRMC,145417.400,A,4308.4710,N,07726.4334,W,0.05,287.94,300319,,,D*7B
$GPGGA,145417.600,4308.4710,N,07726.4334,W,2,10,0.86,145.8,M,-34.4,M,0000,0000*59
lng=-77.440559, lat=43.141185, altitude=145.80, speed=0.05, satellites=10, angle=287.9400, fixquality=2
$GPRMC,145417.800,A,4308.4710,N,07726.4334,W,0.00,287.94,300319,,,D*72
$GPGGA,145418.000,4308.4710,N,07726.4334,W,2,10,0.92,145.8,M,-34.4,M,0000,0000*55
lng=-77.440559, lat=43.141185, altitude=145.80, speed=0.00, satellites=10, angle=287.9400, fixquality=2
$GPRMC,145418.200,A,4308.4710,N,07726.4334,W,0.00,287.94,300319,,,D*77
$GPGGA,145418.400,4308.4710,N,07726.4334,W,2,10,0.92,145.8,M,-34.4,M,0000,0000*51
lng=-77.440559, lat=43.141185, altitude=145.80, speed=0.00, satellites=10, angle=287.9400, fixquality=2
$GPRMC,145418.600,A,4308.4710,N,07726.4334,W,0.00,287.94,300319,,,D*73
$GPGGA,145418.800,4308.4710,N,07726.4334,W,2,10,0.92,145.8,M,-34.4,M,0000,0000*5D
lng=-77.440559, lat=43.141185, altitude=145.80, speed=0.00, satellites=10, angle=287.9400, fixquality=2
$GPRMC,145419.000,A,4308.4710,N,07726.4334,W,0.00,287.94,300319,,,D*74
$GPGGA,145419.200,4308.4710,N,07726.4334,W,2,10,0.92,145.8,M,-34.4,M,0000,0000*56
lng=-77.440559, lat=43.141185, altitude=145.80, speed=0.00, satellites=10, angle=287.9400, fixquality=2
$GPRMC,145419.400,A,4308.4710,N,07726.4334,W,0.00,287.94,300319,,,D*70
$GPGGA,145419.600,4308.4710,N,07726.4334,W,2,10,0.92,145.8,M,-34.4,M,0000,0000*52
lng=-77.440559, lat=43.141185, altitude=145.80, speed=0.00, satellites=10, angle=287.9400, fixquality=2
$GPRMC,145419.800,A,4308.4710,N,07726.4334,W,0.00,287.94,300319,,,D*7C
$GPGGA,145420.000,4308.4710,N,07726.4334,W,2,10,0.92,145.8,M,-34.4,M,0000,0000*5E
lng=-77.440559, lat=43.141185, altitude=145.80, speed=0.00, satellites=10, angle=287.9400, fixquality=2
$GPRMC,145420.200,A,4308.4710,N,07726.4334,W,0.00,287.94,300319,,,D*7C
$GPGGA,145420.400,4308.4710,N,07726.4334,W,2,10,0.92,145.8,M,-34.4,M,0000,0000*5A
lng=-77.440559, lat=43.141185, altitude=145.80, speed=0.00, satellites=10, angle=287.9400, fixquality=2
$GPRMC,145420.600,A,4308.4710,N,07726.4334,W,0.00,287.94,300319,,,D*78
$GPGGA,145420.800,4308.4710,N,07726.4334,W,2,10,0.92,145.8,M,-34.4,M,0000,0000*56
lng=-77.440559, lat=43.141185, altitude=145.80, speed=0.00, satellites=10, angle=287.9400, fixquality=2
$GPRMC,145421.000,A,4308.4710,N,07726.4334,W,0.00,287.94,300319,,,D*7F
$GPGGA,145421.200,4308.4710,N,07726.4334,W,2,10,0.92,145.8,M,-34.4,M,0000,0000*5D
lng=-77.440559, lat=43.141185, altitude=145.80, speed=0.00, satellites=10, angle=287.9400, fixquality=2
$GPRMC,145421.400,A,4308.4710,N,07726.4334,W,0.00,287.94,300319,,,D*7B
$GPGGA,145421.600,4308.4710,N,07726.4334,W,2,10,0.92,145.8,M,-34.4,M,0000,0000*59
lng=-77.440559, lat=43.141185, altitude=145.80, speed=0.00, satellites=10, angle=287.9400, fixquality=2
$GPRMC,145421.800,A,4308.4710,N,07726.4334,W,0.00,287.94,300319,,,D*77
$GPGGA,145422.000,4308.4710,N,07726.4334,W,2,10,0.92,145.8,M,-34.4,M,0000,0000*5C
lng=-77.440559, lat=43.141185, altitude=145.80, speed=0.00, satellites=10, angle=287.9400, fixquality=2
$GPRMC,145422.200,A,4308.4710,N,07726.4334,W,0.04,287.94,300319,,,D*7A
$GPGGA,145422.400,4308.4710,N,07726.4334,W,2,10,0.92,145.8,M,-34.4,M,0000,0000*58
lng=-77.440559, lat=43.141185, altitude=145.80, speed=0.04, satellites=10, angle=287.9400, fixquality=2
$GPRMC,145422.600,A,4308.4710,N,07726.4334,W,0.00,287.94,300319,,,D*7A
$GPGGA,145422.800,4308.4710,N,07726.4334,W,2,10,0.92,145.8,M,-34.4,M,0000,0000*54
lng=-77.440559, lat=43.141185, altitude=145.80, speed=0.00, satellites=10, angle=287.9400, fixquality=2
$GPRMC,145423.000,A,4308.4710,N,07726.4334,W,0.00,287.94,300319,,,D*7D
$GPGGA,145423.200,4308.4710,N,07726.4334,W,2,10,0.92,145.8,M,-34.4,M,0000,0000*5F
lng=-77.440559, lat=43.141185, altitude=145.80, speed=0.00, satellites=10, angle=287.9400, fixquality=2
$GPRMC,145423.400,A,4308.4710,N,07726.4334,W,0.00,287.94,300319,,,D*79
$GPGGA,145423.600,4308.4710,N,07726.4334,W,2,10,0.92,145.8,M,-34.4,M,0000,0000*5B
lng=-77.440559, lat=43.141185, altitude=145.80, speed=0.00, satellites=10, angle=287.9400, fixquality=2
$GPRMC,145423.800,A,4308.4710,N,07726.4334,W,0.00,287.94,300319,,,D*75
$GPGGA,145424.000,4308.4710,N,07726.4334,W,2,10,0.92,145.8,M,-34.4,M,0000,0000*5A
lng=-77.440559, lat=43.141185, altitude=145.80, speed=0.00, satellites=10, angle=287.9400, fixquality=2
$GPRMC,145424.200,A,4308.4710,N,07726.4334,W,0.00,287.94,300319,,,D*78
$GPGGA,145424.400,4308.4710,N,07726.4334,W,2,10,0.92,145.8,M,-34.4,M,0000,0000*5E
lng=-77.440559, lat=43.141185, altitude=145.80, speed=0.00, satellites=10, angle=287.9400, fixquality=2
$GPRMC,145424.600,A,4308.4710,N,07726.4334,W,0.00,287.94,300319,,,D*7C
$GPGGA,145424.800,4308.4710,N,07726.4334,W,2,10,0.92,145.8,M,-34.4,M,0000,0000*52
lng=-77.440559, lat=43.141185, altitude=145.80, speed=0.00, satellites=10, angle=287.9400, fixquality=2
