Vers 57
USE_SERIAL_FEEDBACK=false
DEVELOPMENT_MODE=false
USE_RMC_ONLY=false

$GPGGA,154918.600,4308.3054,N,07726.2646,W,1,09,0.93,148.3,M,-34.4,M,,*54
$GPRMC,154918.600,A,4308.3054,N,07726.2646,W,0.05,202.70,030319,,,A*7F
lng=-77.437744, lat=43.138420, altitude=148.30, speed=0.03, satellites=9, angle=203.4200, fixquality=1
$GPGGA,154918.800,4308.3054,N,07726.2646,W,1,09,0.93,148.1,M,-34.4,M,,*58
$GPRMC,154918.800,A,4308.3054,N,07726.2646,W,0.54,351.22,030319,,,A*75
lng=-77.437744, lat=43.138420, altitude=148.10, speed=0.05, satellites=9, angle=202.7000, fixquality=1
$GPGGA,154919.000,4308.3054,N,07726.2646,W,1,09,0.95,148.2,M,-34.4,M,,*54
$GPRMC,154919.000,A,4308.3054,N,07726.2646,W,0.01,25.52,030319,,,A*4B
lng=-77.437744, lat=43.138420, altitude=148.20, speed=0.54, satellites=9, angle=351.2200, fixquality=1
$GPGGA,154919.200,4308.3054,N,07726.2646,W,1,09,0.93,148.2,M,-34.4,M,,*50
$GPRMC,154919.200,A,4308.3054,N,07726.2646,W,0.03,64.97,030319,,,A*47
lng=-77.437744, lat=43.138420, altitude=148.20, speed=0.01, satellites=9, angle=25.5200, fixquality=1
$GPGGA,154919.400,4308.3054,N,07726.2645,W,1,09,0.93,147.9,M,-34.4,M,,*51
$GPRMC,154919.400,A,4308.3054,N,07726.2645,W,0.04,251.15,030319,,,A*7B
lng=-77.437744, lat=43.138420, altitude=147.90, speed=0.03, satellites=9, angle=64.9700, fixquality=1
$GPGGA,154919.600,4308.3053,N,07726.2645,W,1,09,0.93,147.9,M,-34.4,M,,*54
$GPRMC,154919.600,A,4308.3053,N,07726.2645,W,0.03,332.93,030319,,,A*73
lng=-77.437744, lat=43.138420, altitude=147.90, speed=0.04, satellites=9, angle=251.1500, fixquality=1
$GPGGA,154919.800,4308.3053,N,07726.2645,W,1,09,0.93,148.2,M,-34.4,M,,*5E
$GPRMC,154919.800,A,4308.3053,N,07726.2645,W,0.05,10.63,030319,,,A*47
lng=-77.437744, lat=43.138420, altitude=148.20, speed=0.03, satellites=9, angle=332.9300, fixquality=1
$GPGGA,154920.000,4308.3053,N,07726.2645,W,1,09,0.95,148.2,M,-34.4,M,,*5A
$GPRMC,154920.000,A,4308.3053,N,07726.2645,W,0.04,267.61,030319,,,A*74
lng=-77.437744, lat=43.138420, altitude=148.20, speed=0.05, satellites=9, angle=10.6300, fixquality=1
$GPGGA,154920.200,4308.3052,N,07726.2645,W,1,09,0.93,148.3,M,-34.4,M,,*5E
$GPRMC,154920.200,A,4308.3052,N,07726.2645,W,0.02,181.44,030319,,,A*7D
lng=-77.437744, lat=43.138420, altitude=148.30, speed=0.04, satellites=9, angle=267.6100, fixquality=1
$GPGGA,154920.400,4308.3052,N,07726.2645,W,1,09,0.93,148.5,M,-34.4,M,,*5E
$GPRMC,154920.400,A,4308.3052,N,07726.2645,W,0.05,234.52,030319,,,A*76
lng=-77.437744, lat=43.138420, altitude=148.50, speed=0.02, satellites=9, angle=181.4400, fixquality=1
$GPGGA,154920.600,4308.3052,N,07726.2645,W,1,09,0.93,148.6,M,-34.4,M,,*5F
$GPRMC,154920.600,A,4308.3052,N,07726.2645,W,0.02,295.01,030319
lng=-77.437744, lat=43.138420, altitude=148.60, speed=0.05, satellites=9, angle=234.5200, fixquality=1
$GPGGA,154920.800,4308.3052,N,07726.2645,W,1,09,0.93,148.7,M,-34.4,M,,*50
$GPRMC,154920.800,A,4308.3052,N,07726.2645,W,0.06,106.62,030319,,,A*78
lng=-77.437744, lat=43.138420, altitude=148.70, speed=0.02, satellites=9, angle=295.0100, fixquality=1
$GPGGA,154921.000,4308.3052,N,07726.2645,W,1,09,0.93,148.8,M,-34.4,M,,*56
$GPRMC,154921.000,A,4308.3052,N,07726.2645,W,0.03,280.82,0303197
lng=-77.437744, lat=43.138420, altitude=148.80, speed=0.06, satellites=9, angle=106.6200, fixquality=1
$GPGGA,154921.200,4308.3052,N,07726.2644,W,1,09,0.93,148.8,M,-34.4,M,,*55
$GPRMC,154921.200,A,4308.3052,N,07726.2644,W,0.01,221.02,030319,,,A*75
lng=-77.437736, lat=43.138420, altitude=148.80, speed=0.03, satellites=9, angle=280.8200, fixquality=1
$GPGGA,154921.400,4308.3052,N,07726.2645,W,1,09,0.93,148.9,M,-34.4,M,,*53
$GPRMC,154921.400,A,4308.3052,N,07726.2645,W,0.01,66.49,030319,
lng=-77.437744, lat=43.138420, altitude=148.90, speed=0.01, satellites=9, angle=221.0200, fixquality=1
$GPGGA,154921.600,4308.3052,N,07726.2645,W,1,09,0.93,148.9,M,-34.4,M,,*51
$GPRMC,154921.600,A,4308.3052,N,07726.2645,W,0.02,358.60,030319,,,A*78
lng=-77.437744, lat=43.138420, altitude=148.90, speed=0.01, satellites=9, angle=66.4900, fixquality=1
$GPGGA,154921.800,4308.3051,N,07726.2645,W,1,09,0.95,148.8,M,-34.4,M,,*5B
$GPRMC,154921.800,A,4308.3051,N,07726.2645,W,0.02,88.87,030319,,,A*42
lng=-77.437744, lat=43.138420, altitude=148.80, speed=0.02, satellites=9, angle=358.6000, fixquality=1
$GPGGA,154922.000,4308.3051,N,07726.2645,W,1,09,0.93,148.9,M,-34.4,M,,*57
$GPRMC,154922.000,A,4308.3051,N,07726.2645,W,0.02,272.61,030319,,,A*76
lng=-77.437744, lat=43.138420, altitude=148.90, speed=0.02, satellites=9, angle=88.8700, fixquality=1
$GPGGA,154922.200,4308.3051,N,07726.2645,W,1,09,0.93,148.9,M,-34.4,M,,*55
$GPRMC,154922.200,A,4308.3051,N,07726.2645,W,0.00,233.97,030319,,,A*7A
lng=-77.437744, lat=43.138420, altitude=148.90, speed=0.02, satellites=9, angle=272.6100, fixquality=1
$GPGGA,154922.400,4308.3051,N,07726.2645,W,1,09,0.93,148.9,M,-34.4,M,,*53
$GPRMC,154922.400,A,4308.3051,N,07726.2645,W,0.03,161.30,030319,,,A*76
lng=-77.437744, lat=43.138420, altitude=148.90, speed=0.00, satellites=9, angle=233.9700, fixquality=1
$GPGGA,154922.600,4308.3051,N,07726.2645,W,1,09,0.93,149.0,M,-34.4,M,,*59
$GPRMC,154922.600,A,4308.3051,N,07726.2645,W,0.04,320.98,030319,,,A*76
lng=-77.437744, lat=43.138420, altitude=149.00, speed=0.03, satellites=9, angle=161.3000, fixquality=1
$GPGGA,154922.800,4308.3050,N,07726.2645,W,1,09,0.93,149.1,M,-34.4,M,,*57
$GPRMC,154922.800,A,4308.3050,N,07726.2645,W,0.01,145.18,030319,,,A*75
lng=-77.437744, lat=43.138420, altitude=149.10, speed=0.04, satellites=9, angle=320.9800, fixquality=1
$GPGGA,154923.000,4308.3050,N,07726.2645,W,1,09,0.93,149.1,M,-34.4,M,,*5E
$GPRMC,154923.000,A,4308.3050,N,07726.2645,W,0.02,8.55,030319,,,A*7E
lng=-77.437744, lat=43.138420, altitude=149.10, speed=0.01, satellites=9, angle=145.1800, fixquality=1
$GPGGA,154923.200,4308.3050,N,07726.2646,W,1,09,0.95,149.6,M,-34.4,M,,*5E
$GPRMC,154923.200,A,4308.3050,N,07726.2646,W,0.05,225.97,030319,,,A*7B
lng=-77.437744, lat=43.138420, altitude=149.60, speed=0.02, satellites=9, angle=8.5500, fixquality=1
$GPGGA,154923.400,4308.3049,N,07726.2646,W,1,09,0.93,150.0,M,-34.4,M,,*58
$GPRMC,154923.400,A,4308.3049,N,07726.2646,W,0.02,169.89,030319,,,A*76
lng=-77.437744, lat=43.138412, altitude=150.00, speed=0.05, satellites=9, angle=225.9700, fixquality=1
$GPGGA,154923.600,4308.3049,N,07726.2647,W,1,09,0.93,150.3,M,-34.4,M,,*58
$GPRMC,154923.600,A,4308.3049,N,07726.2647,W,0.01,218.18,030319,,,A*7B
lng=-77.437744, lat=43.138412, altitude=150.30, speed=0.02, satellites=9, angle=169.8900, fixquality=1
$GPGGA,154923.800,4308.3049,N,07726.2647,W,1,09,0.93,150.7,M,-34.4,M,,*52
$GPRMC,154923.800,A,4308.3049,N,07726.2647,W,0.01,65.82,030319,,,A*4E
lng=-77.437744, lat=43.138412, altitude=150.70, speed=0.01, satellites=9, angle=218.1800, fixquality=1
$GPGGA,154924.000,4308.3049,N,07726.2648,W,1,09,0.93,151.0,M,-34.4,M,,*54
$GPRMC,154924.000,A,4308.3049,N,07726.2648,W,0.01,299.09,030319,,,A*7C
lng=-77.437744, lat=43.138412, altitude=151.00, speed=0.01, satellites=9, angle=65.8200, fixquality=1
$GPGGA,154924.200,4308.3048,N,07726.2648,W,1,09,0.93,151.2,M,-34.4,M,,*55
$GPRMC,154924.200,A,4308.3048,N,07726.2648,W,0.02,295.43,030319,,,A*7E
lng=-77.437744, lat=43.138412, altitude=151.20, speed=0.01, satellites=9, angle=299.0900, fixquality=1
$GPGGA,154924.400,4308.3048,N,07726.2649,W,1,09,0.93,151.5,M,-34.4,M,,*55
$GPRMC,154924.400,A,4308.3048,N,07726.2649,W,0.03,349.13,030319,,,A*7D
lng=-77.437751, lat=43.138412, altitude=151.50, speed=0.02, satellites=9, angle=295.4300, fixquality=1
$GPGGA,154924.600,4308.3048,N,07726.2649,W,1,09,0.95,151.8,M,-34.4,M,,*5C
$GPRMC,154924.600,A,4308.3048,N,07726.2649,W,0.03,323.65,030319,,,A*72
lng=-77.437751, lat=43.138412, altitude=151.80, speed=0.03, satellites=9, angle=349.1300, fixquality=1
$GPGGA,154924.800,4308.3047,N,07726.2649,W,1,09,0.93,152.0,M,-34.4,M,,*50
$GPRMC,154924.800,A,4308.3047,N,07726.2649,W,0.03,102.42,030319,,,A*77
lng=-77.437751, lat=43.138412, altitude=152.00, speed=0.03, satellites=9, angle=323.6500, fixquality=1
$GPGGA,154925.000,4308.3047,N,07726.2649,W,1,09,0.93,152.3,M,-34.4,M,,*5A
$GPRMC,154925.000,A,4308.3047,N,07726.2649,W,0.04,172.03,030319,,,A*7B
lng=-77.437751, lat=43.138412, altitude=152.30, speed=0.03, satellites=9, angle=102.4200, fixquality=1
$GPGGA,154925.200,4308.3046,N,07726.2649,W,1,09,0.93,152.5,M,-34.4,M,,*5F
$GPRMC,154925.200,A,4308.3046,N,07726.2649,W,0.05,223.51,030319,,,A*79
lng=-77.437751, lat=43.138412, altitude=152.50, speed=0.04, satellites=9, angle=172.0300, fixquality=1
$GPGGA,154925.400,4308.3046,N,07726.2649,W,1,09,0.93,152.7,M,-34.4,M,,*5B
$GPRMC,154925.400,A,4308.3046,N,07726.2649,W,0.02,178.94,030319,,,A*7C
lng=-77.437751, lat=43.138412, altitude=152.70, speed=0.05, satellites=9, angle=223.5100, fixquality=1
$GPGGA,154925.600,4308.3046,N,07726.2649,W,1,09,0.93,152.9,M,-34.4,M,,*57
$GPRMC,154925.600,A,4308.3046,N,07726.2649,W,0.02,92.86,030319,,,A*48
lng=-77.437751, lat=43.138412, altitude=152.90, speed=0.02, satellites=9, angle=178.9400, fixquality=1
$GPGGA,154925.800,4308.3045,N,07726.2649,W,1,09,0.93,153.1,M,-34.4,M,,*53
$GPRMC,154925.800,A,4308.3045,N,07726.2649,W,0.04,16.49,030319,,,A*4C
lng=-77.437751, lat=43.138412, altitude=153.10, speed=0.02, satellites=9, angle=92.8600, fixquality=1
$GPGGA,154926.000,4308.3045,N,07726.2648,W,1,09,0.93,153.2,M,-34.4,M,,*5A
$GPRMC,154926.000,A,4308.3045,N,07726.2648,W,0.02,61.20,030319,,,A*4F
lng=-77.437744, lat=43.138412, altitude=153.20, speed=0.04, satellites=9, angle=16.4900, fixquality=1
$GPGGA,154926.200,4308.3044,N,07726.2648,W,1,09,0.93,153.3,M,-34.4,M,,*58
$GPRMC,154926.200,A,4308.3044,N,07726.2648,W,0.03,155.05,030319,,,A*7C
lng=-77.437744, lat=43.138404, altitude=153.30, speed=0.02, satellites=9, angle=61.2000, fixquality=1
$GPGGA,154926.400,4308.3044,N,07726.2647,W,1,09,0.93,153.5,M,-34.4,M,,*57
$GPRMC,154926.400,A,4308.3044,N,07726.2647,W,0.02,60.41,030319
lng=-77.437744, lat=43.138404, altitude=153.50, speed=0.03, satellites=9, angle=155.0500, fixquality=1
$GPGGA,154926.600,4308.3043,N,07726.2647,W,1,09,0.93,153.7,M,-34.4,M,,*50
$GPRMC,154926.600,A,4308.3043,N,07726.2647,W,0.06,251.71,030319,,,A*71
lng=-77.437744, lat=43.138404, altitude=153.70, speed=0.02, satellites=9, angle=60.4100, fixquality=1
$GPGGA,154926.800,4308.3043,N,07726.2647,W,1,09,0.93,153.8,M,-34.4,M,,*51
$GPRMC,154926.800,A,4308.3043,N,07726.2647,W,0.03,345.45,0303199
lng=-77.437744, lat=43.138404, altitude=153.80, speed=0.06, satellites=9, angle=251.7100, fixquality=1
$GPGGA,154927.000,4308.3042,N,07726.2646,W,1,09,0.95,154.0,M,-34.4,M,,*51
$GPRMC,154927.000,A,4308.3042,N,07726.2646,W,0.03,21.43,030319,,,A*47
lng=-77.437744, lat=43.138404, altitude=154.00, speed=0.03, satellites=9, angle=345.4500, fixquality=1
$GPGGA,154927.200,4308.3042,N,07726.2646,W,1,09,0.93,154.1,M,-34.4,M,,*54
$GPRMC,154927.200,A,4308.3042,N,07726.2646,W,0.02,9.10,030319,
lng=-77.437744, lat=43.138404, altitude=154.10, speed=0.03, satellites=9, angle=21.4300, fixquality=1
$GPGGA,154927.400,4308.3041,N,07726.2646,W,1,09,0.95,154.3,M,-34.4,M,,*55
$GPRMC,154927.400,A,4308.3041,N,07726.2646,W,0.03,344.47,030319,,,A*74
lng=-77.437744, lat=43.138404, altitude=154.30, speed=0.02, satellites=9, angle=9.1000, fixquality=1
$GPGGA,154927.600,4308.3041,N,07726.2645,W,1,09,0.93,154.4,M,-34.4,M,,*55
$GPRMC,154927.600,A,4308.3041,N,07726.2645,W,0.04,139.76,030319,,,A*78
lng=-77.437744, lat=43.138404, altitude=154.40, speed=0.03, satellites=9, angle=344.4700, fixquality=1
$GPGGA,154927.800,4308.3040,N,07726.2645,W,1,09,0.93,154.6,M,-34.4,M,,*58
$GPRMC,154927.800,A,4308.3040,N,07726.2645,W,0.03,111.24,030319,,,A*7D
lng=-77.437744, lat=43.138404, altitude=154.60, speed=0.04, satellites=9, angle=139.7600, fixquality=1
$GPGGA,154928.000,4308.3040,N,07726.2645,W,1,09,0.93,154.7,M,-34.4,M,,*5E
$GPRMC,154928.000,A,4308.3040,N,07726.2645,W,0.02,228.61,030319,,,A*73
lng=-77.437744, lat=43.138404, altitude=154.70, speed=0.03, satellites=9, angle=111.2400, fixquality=1
$GPGGA,154928.200,4308.3039,N,07726.2644,W,1,09,0.93,154.8,M,-34.4,M,,*5C
$GPRMC,154928.200,A,4308.3039,N,07726.2644,W,0.00,177.77,030319,,,A*72
lng=-77.437736, lat=43.138393, altitude=154.80, speed=0.02, satellites=9, angle=228.6100, fixquality=1
$GPGGA,154928.400,4308.3039,N,07726.2644,W,1,09,0.93,155.0,M,-34.4,M,,*53
$GPRMC,154928.400,A,4308.3039,N,07726.2644,W,0.04,285.72,030319,,,A*7B
lng=-77.437736, lat=43.138393, altitude=155.00, speed=0.00, satellites=9, angle=177.7700, fixquality=1
$GPGGA,154928.600,4308.3038,N,07726.2644,W,1,09,0.93,155.1,M,-34.4,M,,*51
$GPRMC,154928.600,A,4308.3038,N,07726.2644,W,0.01,135.37,030319,,,A*74
lng=-77.437736, lat=43.138393, altitude=155.10, speed=0.04, satellites=9, angle=285.7200, fixquality=1
$GPGGA,154928.800,4308.3038,N,07726.2644,W,1,09,0.93,155.1,M,-34.4,M,,*5F
$GPRMC,154928.800,A,4308.3038,N,07726.2644,W,0.03,49.64,030319,,,A*44
lng=-77.437736, lat=43.138393, altitude=155.10, speed=0.01, satellites=9, angle=135.3700, fixquality=1
$GPGGA,154929.000,4308.3038,N,07726.2643,W,1,09,0.93,155.3,M,-34.4,M,,*53
$GPRMC,154929.000,A,4308.3038,N,07726.2643,W,0.05,142.99,030319,,,A*74
lng=-77.437736, lat=43.138393, altitude=155.30, speed=0.03, satellites=9, angle=49.6400, fixquality=1
$GPGGA,154929.200,4308.3037,N,07726.2643,W,1,09,0.93,155.4,M,-34.4,M,,*59
$GPRMC,154929.200,A,4308.3037,N,07726.2643,W,0.02,58.87,030319,,,A*4B
lng=-77.437736, lat=43.138393, altitude=155.40, speed=0.05, satellites=9, angle=142.9900, fixquality=1
$GPGGA,154929.400,4308.3037,N,07726.2643,W,1,09,0.93,155.4,M,-34.4,M,,*5F
$GPRMC,154929.400,A,4308.3037,N,07726.2643,W,0.08,3.04,030319,,,A*72
lng=-77.437736, lat=43.138393, altitude=155.40, speed=0.02, satellites=9, angle=58.8700, fixquality=1
$GPGGA,154929.600,4308.3037,N,07726.2643,W,1,09,0.95,155.5,M,-34.4,M,,*5A
$GPRMC,154929.600,A,4308.3037,N,07726.2643,W,0.04,110.80,030319,,,A*73
lng=-77.437736, lat=43.138393, altitude=155.50, speed=0.08, satellites=9, angle=3.0400, fixquality=1
$GPGGA,154929.800,4308.3036,N,07726.2643,W,1,09,0.93,155.6,M,-34.4,M,,*50
$GPRMC,154929.800,A,4308.3036,N,07726.2643,W,0.00,174.92,030319,,,A*79
lng=-77.437736, lat=43.138393, altitude=155.60, speed=0.04, satellites=9, angle=110.8000, fixquality=1
$GPGGA,154930.000,4308.3036,N,07726.2642,W,1,09,0.93,155.6,M,-34.4,M,,*51
$GPRMC,154930.000,A,4308.3036,N,07726.2642,W,0.01,295.90,030319,,,A*77
lng=-77.437736, lat=43.138393, altitude=155.60, speed=0.00, satellites=9, angle=174.9200, fixquality=1
$GPGGA,154930.200,4308.3036,N,07726.2642,W,1,09,0.93,155.7,M,-34.4,M,,*52
$GPRMC,154930.200,A,4308.3036,N,07726.2642,W,0.04,55.82,030319,,,A*4D
lng=-77.437736, lat=43.138393, altitude=155.70, speed=0.01, satellites=9, angle=295.9000, fixquality=1
$GPGGA,154930.400,4308.3035,N,07726.2642,W,1,09,0.93,155.8,M,-34.4,M,,*58
$GPRMC,154930.400,A,4308.3035,N,07726.2642,W,0.09,57.04,030319,,,A*49
lng=-77.437736, lat=43.138393, altitude=155.80, speed=0.04, satellites=9, angle=55.8200, fixquality=1
$GPGGA,154930.600,4308.3035,N,07726.2642,W,1,09,0.93,155.9,M,-34.4,M,,*5B
$GPRMC,154930.600,A,4308.3035,N,07726.2642,W,0.02,318.49,030319,,,A*71
lng=-77.437736, lat=43.138393, altitude=155.90, speed=0.09, satellites=9, angle=57.0400, fixquality=1
$GPGGA,154930.800,4308.3035,N,07726.2641,W,1,09,0.93,156.0,M,-34.4,M,,*5C
$GPRMC,154930.800,A,4308.3035,N,07726.2641,W,0.05,350.67,030319,,,A*7B
lng=-77.437736, lat=43.138393, altitude=156.00, speed=0.02, satellites=9, angle=318.4900, fixquality=1
$GPGGA,154931.000,4308.3034,N,07726.2641,W,1,09,0.95,156.0,M,-34.4,M,,*52
$GPRMC,154931.000,A,4308.3034,N,07726.2641,W,0.03,286.34,030319,,,A*79
lng=-77.437736, lat=43.138385, altitude=156.00, speed=0.05, satellites=9, angle=350.6700, fixquality=1
$GPGGA,154931.200,4308.3034,N,07726.2641,W,1,09,0.93,156.1,M,-34.4,M,,*57
$GPRMC,154931.200,A,4308.3034,N,07726.2641,W,0.05,280.23,030319,,,A*7D
lng=-77.437736, lat=43.138385, altitude=156.10, speed=0.03, satellites=9, angle=286.3400, fixquality=1
$GPGGA,154931.400,4308.3033,N,07726.2641,W,1,09,0.93,156.1,M,-34.4,M,,*56
$GPRMC,154931.400,A,4308.3033,N,07726.2641,W,0.08,185.31,030319,,,A*74
lng=-77.437736, lat=43.138385, altitude=156.10, speed=0.05, satellites=9, angle=280.2300, fixquality=1
$GPGGA,154931.600,4308.3033,N,07726.2640,W,1,09,0.93,156.2,M,-34.4,M,,*56
$GPRMC,154931.600,A,4308.3033,N,07726.2640,W,0.06,173.34,030319,,,A*75
lng=-77.437736, lat=43.138385, altitude=156.20, speed=0.08, satellites=9, angle=185.3100, fixquality=1
$GPGGA,154931.800,4308.3032,N,07726.2640,W,1,09,0.93,156.3,M,-34.4,M,,*58
$GPRMC,154931.800,A,4308.3032,N,07726.2640,W,0.06,215.86,030319
lng=-77.437736, lat=43.138385, altitude=156.30, speed=0.06, satellites=9, angle=173.3400, fixquality=1
$GPGGA,154932.000,4308.3032,N,07726.2640,W,1,09,0.93,156.3,M,-34.4,M,,*53
$GPRMC,154932.000,A,4308.3032,N,07726.2640,W,0.07,149.45,030319,,,A*7F
lng=-77.437736, lat=43.138385, altitude=156.30, speed=0.06, satellites=9, angle=215.8600, fixquality=1
$GPGGA,154932.200,4308.3031,N,07726.2639,W,1,09,0.93,156.4,M,-34.4,M,,*5B
$GPRMC,154932.200,A,4308.3031,N,07726.2639,W,0.06,149.18,0303199
lng=-77.437728, lat=43.138385, altitude=156.40, speed=0.07, satellites=9, angle=149.4500, fixquality=1
$GPGGA,154932.400,4308.3031,N,07726.2639,W,1,09,0.93,156.5,M,-34.4,M,,*5C
$GPRMC,154932.400,A,4308.3031,N,07726.2639,W,0.05,1.14,030319,,,A*7D
lng=-77.437728, lat=43.138385, altitude=156.50, speed=0.06, satellites=9, angle=149.1800, fixquality=1
$GPGGA,154932.600,4308.3030,N,07726.2638,W,1,09,0.95,156.5,M,-34.4,M,,*58
$GPRMC,154932.600,A,4308.3030,N,07726.2638,W,0.09,201.93,030319E
lng=-77.437728, lat=43.138385, altitude=156.50, speed=0.05, satellites=9, angle=1.1400, fixquality=1
$GPGGA,154932.800,4308.3030,N,07726.2638,W,1,09,0.93,156.6,M,-34.4,M,,*53
$GPRMC,154932.800,A,4308.3030,N,07726.2638,W,0.08,173.88,030319,,,A*7D
lng=-77.437728, lat=43.138385, altitude=156.60, speed=0.09, satellites=9, angle=201.9300, fixquality=1
$GPGGA,154933.000,4308.3029,N,07726.2638,W,1,09,0.93,156.6,M,-34.4,M,,*52
$GPRMC,154933.000,A,4308.3029,N,07726.2638,W,0.07,145.03,030319,,,A*75
lng=-77.437728, lat=43.138378, altitude=156.60, speed=0.08, satellites=9, angle=173.8800, fixquality=1
$GPGGA,154933.200,4308.3029,N,07726.2637,W,1,09,0.93,156.7,M,-34.4,M,,*5E
$GPRMC,154933.200,A,4308.3029,N,07726.2637,W,0.04,9.46,030319,,,A*73
lng=-77.437728, lat=43.138378, altitude=156.70, speed=0.07, satellites=9, angle=145.0300, fixquality=1
$GPGGA,154933.400,4308.3029,N,07726.2637,W,1,09,0.95,156.8,M,-34.4,M,,*51
$GPRMC,154933.400,A,4308.3029,N,07726.2637,W,0.14,21.32,030319,,,A*4D
lng=-77.437728, lat=43.138378, altitude=156.80, speed=0.04, satellites=9, angle=9.4600, fixquality=1
$GPGGA,154933.600,4308.3028,N,07726.2637,W,1,09,0.93,156.8,M,-34.4,M,,*54
$GPRMC,154933.600,A,4308.3028,N,07726.2637,W,0.02,212.89,030319,,,A*7B
lng=-77.437728, lat=43.138378, altitude=156.80, speed=0.14, satellites=9, angle=21.3200, fixquality=1
$GPGGA,154933.800,4308.3028,N,07726.2637,W,1,09,0.93,156.9,M,-34.4,M,,*5B
$GPRMC,154933.800,A,4308.3028,N,07726.2637,W,0.03,204.66,030319,,,A*72
lng=-77.437728, lat=43.138378, altitude=156.90, speed=0.02, satellites=9, angle=212.8900, fixquality=1
$GPGGA,154934.000,4308.3027,N,07726.2637,W,1,09,0.93,156.9,M,-34.4,M,,*5B
$GPRMC,154934.000,A,4308.3027,N,07726.2637,W,0.09,249.63,030319,,,A*74
lng=-77.437728, lat=43.138378, altitude=156.90, speed=0.03, satellites=9, angle=204.6600, fixquality=1
$GPGGA,154934.200,4308.3027,N,07726.2637,W,1,09,0.93,157.0,M,-34.4,M,,*51
$GPRMC,154934.200,A,4308.3027,N,07726.2637,W,0.04,1.22,030319,,,A*70
lng=-77.437728, lat=43.138378, altitude=157.00, speed=0.09, satellites=9, angle=249.6300, fixquality=1
$GPGGA,154934.400,4308.3027,N,07726.2637,W,1,09,0.95,157.0,M,-34.4,M,,*51
$GPRMC,154934.400,A,4308.3027,N,07726.2637,W,0.02,128.90,030319,,,A*73
lng=-77.437728, lat=43.138378, altitude=157.00, speed=0.04, satellites=9, angle=1.2200, fixquality=1
$GPGGA,154934.600,4308.3026,N,07726.2637,W,1,09,0.93,157.0,M,-34.4,M,,*54
$GPRMC,154934.600,A,4308.3026,N,07726.2637,W,0.01,53.97,030319,,,A*49
lng=-77.437728, lat=43.138378, altitude=157.00, speed=0.02, satellites=9, angle=128.9000, fixquality=1
$GPGGA,154934.800,4308.3026,N,07726.2637,W,1,09,0.93,157.0,M,-34.4,M,,*5A
$GPRMC,154934.800,A,4308.3026,N,07726.2637,W,0.03,332.44,030319,,,A*7F
lng=-77.437728, lat=43.138378, altitude=157.00, speed=0.01, satellites=9, angle=53.9700, fixquality=1
$GPGGA,154935.000,4308.3026,N,07726.2637,W,1,09,0.93,157.0,M,-34.4,M,,*53
$GPRMC,154935.000,A,4308.3026,N,07726.2637,W,0.03,273.18,030319,,,A*7B
lng=-77.437728, lat=43.138378, altitude=157.00, speed=0.03, satellites=9, angle=332.4400, fixquality=1
$GPGGA,154935.200,4308.3025,N,07726.2637,W,1,09,0.93,157.0,M,-34.4,M,,*52
$GPRMC,154935.200,A,4308.3025,N,07726.2637,W,0.03,337.09,030319,,,A*7B
lng=-77.437728, lat=43.138378, altitude=157.00, speed=0.03, satellites=9, angle=273.1800, fixquality=1
$GPGGA,154935.400,4308.3025,N,07726.2638,W,1,09,0.93,157.1,M,-34.4,M,,*5A
$GPRMC,154935.400,A,4308.3025,N,07726.2638,W,0.04,89.23,030319,,,A*4B
lng=-77.437728, lat=43.138378, altitude=157.10, speed=0.03, satellites=9, angle=337.0900, fixquality=1
$GPGGA,154935.600,4308.3024,N,07726.2638,W,1,09,0.93,157.1,M,-34.4,M,,*59
$GPRMC,154935.600,A,4308.3024,N,07726.2638,W,0.05,80.33,030319,,,A*41
lng=-77.437728, lat=43.138370, altitude=157.10, speed=0.04, satellites=9, angle=89.2300, fixquality=1
$GPGGA,154935.800,4308.3024,N,07726.2638,W,1,09,0.93,157.1,M,-34.4,M,,*57
$GPRMC,154935.800,A,4308.3024,N,07726.2638,W,0.03,336.09,030319,,,A*7E
lng=-77.437728, lat=43.138370, altitude=157.10, speed=0.05, satellites=9, angle=80.3300, fixquality=1
$GPGGA,154936.000,4308.3023,N,07726.2638,W,1,09,0.93,157.1,M,-34.4,M,,*5B
$GPRMC,154936.000,A,4308.3023,N,07726.2638,W,0.03,171.97,030319,,,A*74
lng=-77.437728, lat=43.138370, altitude=157.10, speed=0.03, satellites=9, angle=336.0900, fixquality=1
$GPGGA,154936.200,4308.3023,N,07726.2638,W,1,09,0.93,157.1,M,-34.4,M,,*59
$GPRMC,154936.200,A,4308.3023,N,07726.2638,W,0.02,108.27,030319,,,A*72
lng=-77.437728, lat=43.138370, altitude=157.10, speed=0.03, satellites=9, angle=171.9700, fixquality=1
$GPGGA,154936.400,4308.3022,N,07726.2638,W,1,09,0.93,157.2,M,-34.4,M,,*5D
$GPRMC,154936.400,A,4308.3022,N,07726.2638,W,0.02,228.37,030319,,,A*75
lng=-77.437728, lat=43.138370, altitude=157.20, speed=0.02, satellites=9, angle=108.2700, fixquality=1
$GPGGA,154936.600,4308.3022,N,07726.2638,W,1,09,0.93,157.2,M,-34.4,M,,*5F
$GPRMC,154936.600,A,4308.3022,N,07726.2638,W,0.02,346.42,030319,,,A*7C
lng=-77.437728, lat=43.138370, altitude=157.20, speed=0.02, satellites=9, angle=228.3700, fixquality=1
$GPGGA,154936.800,4308.3021,N,07726.2638,W,1,09,0.95,157.2,M,-34.4,M,,*54
$GPRMC,154936.800,A,4308.3021,N,07726.2638,W,0.03,136.68,030319,,,A*7D
lng=-77.437728, lat=43.138370, altitude=157.20, speed=0.02, satellites=9, angle=346.4200, fixquality=1
$GPGGA,154937.000,4308.3021,N,07726.2638,W,1,09,0.93,157.3,M,-34.4,M,,*5A
$GPRMC,154937.000,A,4308.3021,N,07726.2638,W,0.04,326.51,030319,,,A*7A
lng=-77.437728, lat=43.138370, altitude=157.30, speed=0.03, satellites=9, angle=136.6800, fixquality=1
$GPGGA,154937.200,4308.3020,N,07726.2638,W,1,09,0.93,157.3,M,-34.4,M,,*59
$GPRMC,154937.200,A,4308.3020,N,07726.2638,W,0.03,169.63,0303196
lng=-77.437728, lat=43.138362, altitude=157.30, speed=0.04, satellites=9, angle=326.5100, fixquality=1
$GPGGA,154937.400,4308.3020,N,07726.2639,W,1,09,0.93,157.3,M,-34.4,M,,*5E
$GPRMC,154937.400,A,4308.3020,N,07726.2639,W,0.01,213.81,030319,,,A*71
lng=-77.437728, lat=43.138362, altitude=157.30, speed=0.03, satellites=9, angle=169.6300, fixquality=1
$GPGGA,154937.600,4308.3020,N,07726.2639,W,1,09,0.93,157.3,M,-34.4,M,,*5C
$GPRMC,154937.600,A,4308.3020,N,07726.2639,W,0.02,310.74,0303198
lng=-77.437728, lat=43.138362, altitude=157.30, speed=0.01, satellites=9, angle=213.8100, fixquality=1
$GPGGA,154937.800,4308.3019,N,07726.2639,W,1,09,0.93,157.3,M,-34.4,M,,*58
$GPRMC,154937.800,A,4308.3019,N,07726.2639,W,0.03,221.84,030319,,,A*71
lng=-77.437728, lat=43.138362, altitude=157.30, speed=0.02, satellites=9, angle=310.7400, fixquality=1
$GPGGA,154938.000,4308.3019,N,07726.2639,W,1,09,0.93,157.3,M,-34.4,M,,*5F
$GPRMC,154938.000,A,4308.3019,N,07726.2639,W,0.03,8.71,030319,
lng=-77.437728, lat=43.138362, altitude=157.30, speed=0.03, satellites=9, angle=221.8400, fixquality=1
$GPGGA,154938.200,4308.3018,N,07726.2639,W,1,09,0.95,157.3,M,-34.4,M,,*5A
$GPRMC,154938.200,A,4308.3018,N,07726.2639,W,0.03,63.70,030319,,,A*4A
lng=-77.437728, lat=43.138362, altitude=157.30, speed=0.03, satellites=9, angle=8.7100, fixquality=1
$GPGGA,154938.400,4308.3018,N,07726.2639,W,1,09,0.93,157.3,M,-34.4,M,,*5A
$GPRMC,154938.400,A,4308.3018,N,07726.2639,W,0.01,215.06,030319,,,A*7C
lng=-77.437728, lat=43.138362, altitude=157.30, speed=0.03, satellites=9, angle=63.7000, fixquality=1
$GPGGA,154938.600,4308.3017,N,07726.2640,W,1,09,0.93,157.3,M,-34.4,M,,*59
$GPRMC,154938.600,A,4308.3017,N,07726.2640,W,0.02,322.47,030319,,,A*7C
lng=-77.437736, lat=43.138362, altitude=157.30, speed=0.01, satellites=9, angle=215.0600, fixquality=1
$GPGGA,154938.800,4308.3017,N,07726.2640,W,1,09,0.93,157.3,M,-34.4,M,,*57
$GPRMC,154938.800,A,4308.3017,N,07726.2640,W,0.06,203.08,030319,,,A*7F
lng=-77.437736, lat=43.138362, altitude=157.30, speed=0.02, satellites=9, angle=322.4700, fixquality=1
$GPGGA,154939.000,4308.3016,N,07726.2640,W,1,09,0.93,157.3,M,-34.4,M,,*5F
$GPRMC,154939.000,A,4308.3016,N,07726.2640,W,0.03,32.17,030319,,,A*4C
lng=-77.437736, lat=43.138362, altitude=157.30, speed=0.06, satellites=9, angle=203.0800, fixquality=1
$GPGGA,154939.200,4308.3016,N,07726.2640,W,1,09,0.93,157.3,M,-34.4,M,,*5D
$GPRMC,154939.200,A,4308.3016,N,07726.2640,W,0.03,40.03,030319,,,A*4E
lng=-77.437736, lat=43.138362, altitude=157.30, speed=0.03, satellites=9, angle=32.1700, fixquality=1
$GPGGA,154939.400,4308.3016,N,07726.2640,W,1,09,0.93,157.3,M,-34.4,M,,*5B
$GPRMC,154939.400,A,4308.3016,N,07726.2640,W,0.03,294.29,030319,,,A*7B
lng=-77.437736, lat=43.138362, altitude=157.30, speed=0.03, satellites=9, angle=40.0300, fixquality=1
$GPGGA,154939.600,4308.3015,N,07726.2641,W,1,09,0.93,157.3,M,-34.4,M,,*5B
$GPRMC,154939.600,A,4308.3015,N,07726.2641,W,0.03,341.74,030319,,,A*7A
lng=-77.437736, lat=43.138355, altitude=157.30, speed=0.03, satellites=9, angle=294.2900, fixquality=1
$GPGGA,154939.800,4308.3015,N,07726.2641,W,1,09,0.93,157.3,M,-34.4,M,,*55
$GPRMC,154939.800,A,4308.3015,N,07726.2641,W,0.02,69.88,030319,,,A*4F
lng=-77.437736, lat=43.138355, altitude=157.30, speed=0.03, satellites=9, angle=341.7400, fixquality=1
$GPGGA,154940.000,4308.3014,N,07726.2641,W,1,09,0.93,157.3,M,-34.4,M,,*52
$GPRMC,154940.000,A,4308.3014,N,07726.2641,W,0.01,245.51,030319,,,A*73
lng=-77.437736, lat=43.138355, altitude=157.30, speed=0.02, satellites=9, angle=69.8800, fixquality=1
$GPGGA,154940.200,4308.3014,N,07726.2641,W,1,09,0.93,157.3,M,-34.4,M,,*50
$GPRMC,154940.200,A,4308.3014,N,07726.2641,W,0.02,245.05,030319,,,A*73
lng=-77.437736, lat=43.138355, altitude=157.30, speed=0.01, satellites=9, angle=245.5100, fixquality=1
$GPGGA,154940.400,4308.3014,N,07726.2641,W,1,09,0.93,157.3,M,-34.4,M,,*56
$GPRMC,154940.400,A,4308.3014,N,07726.2641,W,0.01,265.78,030319,,,A*7E
lng=-77.437736, lat=43.138355, altitude=157.30, speed=0.02, satellites=9, angle=245.0500, fixquality=1
$GPGGA,154940.600,4308.3013,N,07726.2642,W,1,09,0.93,157.2,M,-34.4,M,,*51
$GPRMC,154940.600,A,4308.3013,N,07726.2642,W,0.01,150.36,030319,,,A*77
lng=-77.437736, lat=43.138355, altitude=157.20, speed=0.01, satellites=9, angle=265.7800, fixquality=1
$GPGGA,154940.800,4308.3013,N,07726.2642,W,1,09,0.93,157.2,M,-34.4,M,,*5F
$GPRMC,154940.800,A,4308.3013,N,07726.2642,W,0.05,99.17,030319,,,A*4A
lng=-77.437736, lat=43.138355, altitude=157.20, speed=0.01, satellites=9, angle=150.3600, fixquality=1
$GPGGA,154941.000,4308.3013,N,07726.2642,W,1,09,0.93,157.2,M,-34.4,M,,*56
$GPRMC,154941.000,A,4308.3013,N,07726.2642,W,0.02,8.17,030319,,,A*7C
lng=-77.437736, lat=43.138355, altitude=157.20, speed=0.05, satellites=9, angle=99.1700, fixquality=1
$GPGGA,154941.200,4308.3012,N,07726.2642,W,1,09,0.95,157.2,M,-34.4,M,,*53
$GPRMC,154941.200,A,4308.3012,N,07726.2642,W,0.02,296.85,030319,,,A*71
lng=-77.437736, lat=43.138355, altitude=157.20, speed=0.02, satellites=9, angle=8.1700, fixquality=1
$GPGGA,154941.400,4308.3012,N,07726.2642,W,1,09,0.93,157.2,M,-34.4,M,,*53
$GPRMC,154941.400,A,4308.3012,N,07726.2642,W,0.02,83.92,030319,,,A*47
lng=-77.437736, lat=43.138355, altitude=157.20, speed=0.02, satellites=9, angle=296.8500, fixquality=1
$GPGGA,154941.600,4308.3011,N,07726.2643,W,1,09,0.93,157.1,M,-34.4,M,,*50
$GPRMC,154941.600,A,4308.3011,N,07726.2643,W,0.01,290.38,030319,,,A*74
lng=-77.437736, lat=43.138355, altitude=157.10, speed=0.02, satellites=9, angle=83.9200, fixquality=1
$GPGGA,154941.800,4308.3011,N,07726.2643,W,1,09,0.93,157.1,M,-34.4,M,,*5E
$GPRMC,154941.800,A,4308.3011,N,07726.2643,W,0.02,61.82,030319,,,A*44
lng=-77.437736, lat=43.138355, altitude=157.10, speed=0.01, satellites=9, angle=290.3800, fixquality=1
$GPGGA,154942.000,4308.3011,N,07726.2643,W,1,09,0.93,157.1,M,-34.4,M,,*55
$GPRMC,154942.000,A,4308.3011,N,07726.2643,W,0.01,321.60,030319,,,A*77
lng=-77.437736, lat=43.138355, altitude=157.10, speed=0.02, satellites=9, angle=61.8200, fixquality=1
$GPGGA,154942.200,4308.3010,N,07726.2643,W,1,09,0.93,157.0,M,-34.4,M,,*57
$GPRMC,154942.200,A,4308.3010,N,07726.2643,W,0.03,210.58,030319,,,A*7E
lng=-77.437736, lat=43.138347, altitude=157.00, speed=0.01, satellites=9, angle=321.6000, fixquality=1
$GPGGA,154942.400,4308.3010,N,07726.2643,W,1,09,0.93,157.0,M,-34.4,M,,*51
$GPRMC,154942.400,A,4308.3010,N,07726.2643,W,0.03,71.45,030319,,,A*41
lng=-77.437736, lat=43.138347, altitude=157.00, speed=0.03, satellites=9, angle=210.5800, fixquality=1
$GPGGA,154942.600,4308.3010,N,07726.2643,W,1,09,0.93,157.0,M,-34.4,M,,*53
$GPRMC,154942.600,A,4308.3010,N,07726.2643,W,0.03,244.89,0303197
lng=-77.437736, lat=43.138347, altitude=157.00, speed=0.03, satellites=9, angle=71.4500, fixquality=1
$GPGGA,154942.800,4308.3009,N,07726.2644,W,1,09,0.93,156.9,M,-34.4,M,,*5A
$GPRMC,154942.800,A,4308.3009,N,07726.2644,W,0.02,352.33,030319,,,A*70
lng=-77.437736, lat=43.138347, altitude=156.90, speed=0.03, satellites=9, angle=244.8900, fixquality=1
$GPGGA,154943.000,4308.3009,N,07726.2644,W,1,09,0.95,156.9,M,-34.4,M,,*55
$GPRMC,154943.000,A,4308.3009,N,07726.2644,W,0.01,328.97,0303199
lng=-77.437736, lat=43.138347, altitude=156.90, speed=0.02, satellites=9, angle=352.3300, fixquality=1
$GPGGA,154943.200,4308.3009,N,07726.2644,W,1,09,0.93,156.9,M,-34.4,M,,*51
$GPRMC,154943.200,A,4308.3009,N,07726.2644,W,0.04,207.61,030319,,,A*7B
lng=-77.437736, lat=43.138347, altitude=156.90, speed=0.01, satellites=9, angle=328.9700, fixquality=1
$GPGGA,154943.400,4308.3008,N,07726.2644,W,1,09,0.93,156.8,M,-34.4,M,,*57
$GPRMC,154943.400,A,4308.3008,N,07726.2644,W,0.04,12.93,030319,
lng=-77.437736, lat=43.138347, altitude=156.80, speed=0.04, satellites=9, angle=207.6100, fixquality=1
$GPGGA,154943.600,4308.3008,N,07726.2645,W,1,09,0.95,156.8,M,-34.4,M,,*52
$GPRMC,154943.600,A,4308.3008,N,07726.2645,W,0.02,94.67,030319,,,A*47
lng=-77.437744, lat=43.138347, altitude=156.80, speed=0.04, satellites=9, angle=12.9300, fixquality=1
$GPGGA,154943.800,4308.3008,N,07726.2645,W,1,09,0.93,156.7,M,-34.4,M,,*55
$GPRMC,154943.800,A,4308.3008,N,07726.2645,W,0.03,199.50,030319,,,A*70
lng=-77.437744, lat=43.138347, altitude=156.70, speed=0.02, satellites=9, angle=94.6700, fixquality=1
$GPGGA,154944.000,4308.3008,N,07726.2645,W,1,09,0.93,156.7,M,-34.4,M,,*5A
$GPRMC,154944.000,A,4308.3008,N,07726.2645,W,0.04,327.88,030319,,,A*7A
lng=-77.437744, lat=43.138347, altitude=156.70, speed=0.03, satellites=9, angle=199.5000, fixquality=1
$GPGGA,154944.200,4308.3007,N,07726.2645,W,1,09,0.93,156.6,M,-34.4,M,,*56
$GPRMC,154944.200,A,4308.3007,N,07726.2645,W,0.03,96.93,030319,,,A*43
lng=-77.437744, lat=43.138347, altitude=156.60, speed=0.04, satellites=9, angle=327.8800, fixquality=1
$GPGGA,154944.400,4308.3007,N,07726.2645,W,1,09,0.93,156.6,M,-34.4,M,,*50
$GPRMC,154944.400,A,4308.3007,N,07726.2645,W,0.04,199.89,030319,,,A*77
lng=-77.437744, lat=43.138347, altitude=156.60, speed=0.03, satellites=9, angle=96.9300, fixquality=1
$GPGGA,154944.600,4308.3007,N,07726.2646,W,1,09,0.93,156.5,M,-34.4,M,,*52
$GPRMC,154944.600,A,4308.3007,N,07726.2646,W,0.04,351.98,030319,,,A*70
lng=-77.437744, lat=43.138347, altitude=156.50, speed=0.04, satellites=9, angle=199.8900, fixquality=1
$GPGGA,154944.800,4308.3006,N,07726.2646,W,1,09,0.95,156.4,M,-34.4,M,,*5A
$GPRMC,154944.800,A,4308.3006,N,07726.2646,W,0.01,130.78,030319,,,A*71
lng=-77.437744, lat=43.138347, altitude=156.40, speed=0.04, satellites=9, angle=351.9800, fixquality=1
$GPGGA,154945.000,4308.3006,N,07726.2646,W,1,09,0.93,156.4,M,-34.4,M,,*55
$GPRMC,154945.000,A,4308.3006,N,07726.2646,W,0.01,322.32,030319,,,A*77
lng=-77.437744, lat=43.138347, altitude=156.40, speed=0.01, satellites=9, angle=130.7800, fixquality=1
$GPGGA,154945.200,4308.3006,N,07726.2646,W,1,09,0.93,156.3,M,-34.4,M,,*50
$GPRMC,154945.200,A,4308.3006,N,07726.2646,W,0.02,78.18,030319,,,A*42
lng=-77.437744, lat=43.138347, altitude=156.30, speed=0.01, satellites=9, angle=322.3200, fixquality=1
$GPGGA,154945.400,4308.3006,N,07726.2646,W,1,09,0.93,156.3,M,-34.4,M,,*56
$GPRMC,154945.400,A,4308.3006,N,07726.2646,W,0.04,252.64,030319,,,A*73
lng=-77.437744, lat=43.138347, altitude=156.30, speed=0.02, satellites=9, angle=78.1800, fixquality=1
$GPGGA,154945.600,4308.3005,N,07726.2647,W,1,09,0.93,156.2,M,-34.4,M,,*57
$GPRMC,154945.600,A,4308.3005,N,07726.2647,W,0.00,84.60,030319,,,A*4A
lng=-77.437744, lat=43.138339, altitude=156.20, speed=0.04, satellites=9, angle=252.6400, fixquality=1
$GPGGA,154945.800,4308.3005,N,07726.2647,W,1,09,0.93,156.2,M,-34.4,M,,*59
$GPRMC,154945.800,A,4308.3005,N,07726.2647,W,0.04,139.21,030319,,,A*72
lng=-77.437744, lat=43.138339, altitude=156.20, speed=0.00, satellites=9, angle=84.6000, fixquality=1
$GPGGA,154946.000,4308.3005,N,07726.2647,W,1,09,0.93,156.1,M,-34.4,M,,*51
$GPRMC,154946.000,A,4308.3005,N,07726.2647,W,0.03,28.55,030319,,,A*4C
lng=-77.437744, lat=43.138339, altitude=156.10, speed=0.04, satellites=9, angle=139.2100, fixquality=1
$GPGGA,154946.200,4308.3004,N,07726.2647,W,1,09,0.93,156.1,M,-34.4,M,,*52
$GPRMC,154946.200,A,4308.3004,N,07726.2647,W,0.01,295.20,030319,,,A*7B
lng=-77.437744, lat=43.138339, altitude=156.10, speed=0.03, satellites=9, angle=28.5500, fixquality=1
$GPGGA,154946.400,4308.3004,N,07726.2647,W,1,09,0.93,156.0,M,-34.4,M,,*55
$GPRMC,154946.400,A,4308.3004,N,07726.2647,W,0.03,156.30,030319,,,A*72
lng=-77.437744, lat=43.138339, altitude=156.00, speed=0.01, satellites=9, angle=295.2000, fixquality=1
$GPGGA,154946.600,4308.3004,N,07726.2648,W,1,09,0.93,155.9,M,-34.4,M,,*52
$GPRMC,154946.600,A,4308.3004,N,07726.2648,W,0.04,338.97,030319,,,A*7F
lng=-77.437744, lat=43.138339, altitude=155.90, speed=0.03, satellites=9, angle=156.3000, fixquality=1
$GPGGA,154946.800,4308.3004,N,07726.2648,W,1,09,0.93,155.9,M,-34.4,M,,*5C
$GPRMC,154946.800,A,4308.3004,N,07726.2648,W,0.02,157.95,030319,,,A*7E
lng=-77.437744, lat=43.138339, altitude=155.90, speed=0.04, satellites=9, angle=338.9700, fixquality=1
$GPGGA,154947.000,4308.3003,N,07726.2648,W,1,09,0.93,155.8,M,-34.4,M,,*53
$GPRMC,154947.000,A,4308.3003,N,07726.2648,W,0.01,334.77,030319,,,A*78
lng=-77.437744, lat=43.138339, altitude=155.80, speed=0.02, satellites=9, angle=157.9500, fixquality=1
$GPGGA,154947.200,4308.3003,N,07726.2648,W,1,09,0.93,155.8,M,-34.4,M,,*51
$GPRMC,154947.200,A,4308.3003,N,07726.2648,W,0.02,201.27,030319,,,A*7B
lng=-77.437744, lat=43.138339, altitude=155.80, speed=0.01, satellites=9, angle=334.7700, fixquality=1
$GPGGA,154947.400,4308.3003,N,07726.2648,W,1,09,0.93,155.7,M,-34.4,M,,*58
$GPRMC,154947.400,A,4308.3003,N,07726.2648,W,0.01,297.78,030319,,,A*7B
lng=-77.437744, lat=43.138339, altitude=155.70, speed=0.02, satellites=9, angle=201.2700, fixquality=1
$GPGGA,154947.600,4308.3003,N,07726.2648,W,1,09,0.93,155.7,M,-34.4,M,,*5A
$GPRMC,154947.600,A,4308.3003,N,07726.2648,W,0.02,84.29,030319,,,A*4E
lng=-77.437744, lat=43.138339, altitude=155.70, speed=0.01, satellites=9, angle=297.7800, fixquality=1
$GPGGA,154947.800,4308.3002,N,07726.2648,W,1,09,0.93,155.6,M,-34.4,M,,*54
$GPRMC,154947.800,A,4308.3002,N,07726.2648,W,0.02,299.09,030319,,,A*7D
lng=-77.437744, lat=43.138339, altitude=155.60, speed=0.02, satellites=9, angle=84.2900, fixquality=1
$GPGGA,154948.000,4308.3002,N,07726.2648,W,1,09,0.93,155.6,M,-34.4,M,,*53
$GPRMC,154948.000,A,4308.3002,N,07726.2648,W,0.02,163.25,030319
lng=-77.437744, lat=43.138339, altitude=155.60, speed=0.02, satellites=9, angle=299.0900, fixquality=1
$GPGGA,154948.200,4308.3002,N,07726.2649,W,1,09,0.93,155.5,M,-34.4,M,,*53
$GPRMC,154948.200,A,4308.3002,N,07726.2649,W,0.03,249.12,030319,,,A*7F
lng=-77.437751, lat=43.138339, altitude=155.50, speed=0.02, satellites=9, angle=163.2500, fixquality=1
$GPGGA,154948.400,4308.3002,N,07726.2649,W,1,09,0.93,155.5,M,-34.4,M,,*55
$GPRMC,154948.400,A,4308.3002,N,07726.2649,W,0.04,56.68,030319,
lng=-77.437751, lat=43.138339, altitude=155.50, speed=0.03, satellites=9, angle=249.1200, fixquality=1
$GPGGA,154948.600,4308.3002,N,07726.2649,W,1,09,0.93,155.5,M,-34.4,M,,*57
$GPRMC,154948.600,A,4308.3002,N,07726.2649,W,0.00,51.11,030319,,,A*40
lng=-77.437751, lat=43.138339, altitude=155.50, speed=0.04, satellites=9, angle=56.6800, fixquality=1
$GPGGA,154948.800,4308.3001,N,07726.2649,W,1,09,0.93,155.4,M,-34.4,M,,*5B
$GPRMC,154948.800,A,4308.3001,N,07726.2649,W,0.03,342.83,0303194
lng=-77.437751, lat=43.138339, altitude=155.40, speed=0.00, satellites=9, angle=51.1100, fixquality=1
$GPGGA,154949.000,4308.3001,N,07726.2649,W,1,09,0.93,155.4,M,-34.4,M,,*52
$GPRMC,154949.000,A,4308.3001,N,07726.2649,W,0.17,342.78,030319,,,A*7C
lng=-77.437751, lat=43.138339, altitude=155.40, speed=0.03, satellites=9, angle=342.8300, fixquality=1
$GPGGA,154949.200,4308.3002,N,07726.2649,W,1,09,0.93,155.4,M,-34.4,M,,*53
$GPRMC,154949.200,A,4308.3002,N,07726.2649,W,0.35,357.30,030319,,,A*75
lng=-77.437751, lat=43.138339, altitude=155.40, speed=0.17, satellites=9, angle=342.7800, fixquality=1
$GPGGA,154949.400,4308.3002,N,07726.2649,W,1,09,0.95,155.3,M,-34.4,M,,*54
$GPRMC,154949.400,A,4308.3002,N,07726.2649,W,0.72,3.57,030319,,,A*73
lng=-77.437751, lat=43.138339, altitude=155.30, speed=0.35, satellites=9, angle=357.3000, fixquality=1
$GPGGA,154949.600,4308.3002,N,07726.2649,W,1,09,0.95,155.2,M,-34.4,M,,*57
$GPRMC,154949.600,A,4308.3002,N,07726.2649,W,0.46,337.96,030319,,,A*7F
lng=-77.437751, lat=43.138339, altitude=155.20, speed=0.72, satellites=9, angle=3.5700, fixquality=1
$GPGGA,154949.800,4308.3002,N,07726.2650,W,1,09,0.93,155.2,M,-34.4,M,,*57
$GPRMC,154949.800,A,4308.3002,N,07726.2650,W,0.51,342.98,030319,,,A*73
lng=-77.437751, lat=43.138339, altitude=155.20, speed=0.46, satellites=9, angle=337.9600, fixquality=1
$GPGGA,154950.000,4308.3003,N,07726.2650,W,1,09,0.93,155.2,M,-34.4,M,,*56
$GPRMC,154950.000,A,4308.3003,N,07726.2650,W,0.88,354.86,030319,,,A*7E
lng=-77.437751, lat=43.138339, altitude=155.20, speed=0.51, satellites=9, angle=342.9800, fixquality=1
$GPGGA,154950.200,4308.3003,N,07726.2650,W,1,09,0.95,155.2,M,-34.4,M,,*52
$GPRMC,154950.200,A,4308.3003,N,07726.2650,W,0.92,351.12,030319,,,A*7F
lng=-77.437751, lat=43.138339, altitude=155.20, speed=0.88, satellites=9, angle=354.8600, fixquality=1
$GPGGA,154950.400,4308.3004,N,07726.2650,W,1,09,0.95,155.1,M,-34.4,M,,*50
$GPRMC,154950.400,A,4308.3004,N,07726.2650,W,1.26,19.67,030319,,,A*4D
lng=-77.437751, lat=43.138339, altitude=155.10, speed=0.92, satellites=9, angle=351.1200, fixquality=1
$GPGGA,154950.600,4308.3004,N,07726.2650,W,1,09,0.93,155.1,M,-34.4,M,,*54
$GPRMC,154950.600,A,4308.3004,N,07726.2650,W,1.44,5.13,030319,,,A*75
lng=-77.437751, lat=43.138339, altitude=155.10, speed=1.26, satellites=9, angle=19.6700, fixquality=1
$GPGGA,154950.800,4308.3005,N,07726.2650,W,1,09,0.95,155.1,M,-34.4,M,,*5D
$GPRMC,154950.800,A,4308.3005,N,07726.2650,W,1.27,4.95,030319,,,A*70
lng=-77.437751, lat=43.138339, altitude=155.10, speed=1.44, satellites=9, angle=5.1300, fixquality=1
$GPGGA,154951.000,4308.3005,N,07726.2650,W,1,09,0.95,155.1,M,-34.4,M,,*54
$GPRMC,154951.000,A,4308.3005,N,07726.2650,W,1.28,10.72,030319,,,A*4A
lng=-77.437751, lat=43.138339, altitude=155.10, speed=1.27, satellites=9, angle=4.9500, fixquality=1
$GPGGA,154951.200,4308.3006,N,07726.2650,W,1,09,0.95,155.1,M,-34.4,M,,*55
$GPRMC,154951.200,A,4308.3006,N,07726.2650,W,1.39,14.29,030319,,,A*41
lng=-77.437751, lat=43.138347, altitude=155.10, speed=1.28, satellites=9, angle=10.7200, fixquality=1
$GPGGA,154951.400,4308.3007,N,07726.2650,W,1,09,0.95,155.2,M,-34.4,M,,*51
$GPRMC,154951.400,A,4308.3007,N,07726.2650,W,1.39,13.61,030319,,,A*4D
lng=-77.437751, lat=43.138347, altitude=155.20, speed=1.39, satellites=9, angle=14.2900, fixquality=1
$GPGGA,154951.600,4308.3007,N,07726.2650,W,1,09,0.95,155.2,M,-34.4,M,,*53
$GPRMC,154951.600,A,4308.3007,N,07726.2650,W,1.28,13.40,030319,,,A*4C
lng=-77.437751, lat=43.138347, altitude=155.20, speed=1.39, satellites=9, angle=13.6100, fixquality=1
$GPGGA,154951.800,4308.3008,N,07726.2649,W,1,08,0.98,155.2,M,-34.4,M,,*56
$GPRMC,154951.800,A,4308.3008,N,07726.2649,W,1.26,18.94,030319,,,A*49
lng=-77.437751, lat=43.138347, altitude=155.20, speed=1.28, satellites=8, angle=13.4000, fixquality=1
$GPGGA,154952.000,4308.3008,N,07726.2649,W,1,08,0.94,155.2,M,-34.4,M,,*51
$GPRMC,154952.000,A,4308.3008,N,07726.2649,W,1.10,11.77,030319,,,A*43
lng=-77.437751, lat=43.138347, altitude=155.20, speed=1.26, satellites=8, angle=18.9400, fixquality=1
$GPGGA,154952.200,4308.3009,N,07726.2649,W,1,08,0.98,155.2,M,-34.4,M,,*5E
$GPRMC,154952.200,A,4308.3009,N,07726.2649,W,1.08,10.27,030319,,,A*4D
lng=-77.437751, lat=43.138347, altitude=155.20, speed=1.10, satellites=8, angle=11.7700, fixquality=1
$GPGGA,154952.400,4308.3009,N,07726.2650,W,1,08,0.98,155.2,M,-34.4,M,,*50
$GPRMC,154952.400,A,4308.3009,N,07726.2650,W,1.06,7.73,030319,,,A*7A
lng=-77.437751, lat=43.138347, altitude=155.20, speed=1.08, satellites=8, angle=10.2700, fixquality=1
$GPGGA,154952.600,4308.3010,N,07726.2650,W,1,09,0.95,155.2,M,-34.4,M,,*56
$GPRMC,154952.600,A,4308.3010,N,07726.2650,W,1.06,3.20,030319,,,A*72
lng=-77.437751, lat=43.138347, altitude=155.20, speed=1.06, satellites=9, angle=7.7300, fixquality=1
$GPGGA,154952.800,4308.3011,N,07726.2650,W,1,08,1.12,155.1,M,-34.4,M,,*55
$GPRMC,154952.800,A,4308.3011,N,07726.2650,W,1.23,358.64,030319,,,A*77
lng=-77.437751, lat=43.138355, altitude=155.10, speed=1.06, satellites=8, angle=3.2000, fixquality=1
$GPGGA,154953.000,4308.3012,N,07726.2651,W,1,09,0.95,155.1,M,-34.4,M,,*51
$GPRMC,154953.000,A,4308.3012,N,07726.2651,W,1.53,1.23,030319,,$GPGGA,154953.200,4308.3013,N,07726.2651,W,1,09,0.95,155.1,M,-34.4,M,,*52
lng=-77.437751, lat=43.138355, altitude=155.10, speed=1.23, satellites=9, angle=358.6400, fixquality=1
$GPRMC,154953.400,A,4308.3013,N,07726.2651,W,1.16,358.31,030319,,,A*7F
$GPGGA,154953.600,4308.3014,N,07726.2651,W,1,09,0.95,155.1,M,-34.4,M,,*51
lng=-77.437751, lat=43.138355, altitude=155.10, speed=1.16, satellites=9, angle=358.3100, fixquality=1
$GPRMC,154953.800,A,4308.3015,N,07726.2652,W,1.21,358.44,030319,,,A*70
$GPGGA,154954.000,4308.3016,N,07726.2652,W,1,09,0.95,155.2,M,-34.4,M,,*52
lng=-77.437751, lat=43.138355, altitude=155.10, speed=1.21, satellites=9, angle=358.4400, fixquality=1
$GPRMC,154954.200,A,4308.3017,N,07726.2652,W,1.17,2.32,030319,,,A*77
$GPGGA,154954.400,4308.3018,N,07726.2652,W,1,09,0.95,155.2,M,-34.4,M,,*58
lng=-77.437751, lat=43.138362, altitude=155.20, speed=1.17, satellites=9, angle=2.3200, fixquality=1
$GPRMC,154954.600,A,4308.3019,N,07726.2652,W,1.44,4.77,030319,,,A*7C
$GPGGA,154954.800,4308.3020,N,07726.2652,W,1,09,0.95,155.3,M,-34.4,M,,*5E
lng=-77.437751, lat=43.138362, altitude=155.20, speed=1.44, satellites=9, angle=4.7700, fixquality=1
$GPRMC,154955.000,A,4308.3021,N,07726.2653,W,2.00,0.68,030319,,,A*78
$GPGGA,154955.200,4308.3022,N,07726.2653,W,1,09,0.95,155.4,M,-34.4,M,,*51
lng=-77.437751, lat=43.138370, altitude=155.30, speed=2.00, satellites=9, angle=0.6800, fixquality=1
$GPRMC,154955.400,A,4308.3023,N,07726.2653,W,2.00,8.09,030319,,,A*71
$GPGGA,154955.600,4308.3025,N,07726.2653,W,1,09,0.95,155.5,M,-34.4,M,,*53
lng=-77.437751, lat=43.138370, altitude=155.40, speed=2.00, satellites=9, angle=8.0900, fixquality=1
$GPRMC,154955.800,A,4308.3026,N,07726.2652,W,2.25,4.44,030319,,,A*7B
$GPGGA,154956.000,4308.3028,N,07726.2652,W,1,09,0.95,155.7,M,-34.4,M,,*58
lng=-77.437751, lat=43.138378, altitude=155.50, speed=2.25, satellites=9, angle=4.4400, fixquality=1
$GPRMC,154956.200,A,4308.3029,N,07726.2652,W,2.26,6.07,030319,,,A*7B
$GPGGA,154956.400,4308.3030,N,07726.2652,W,1,09,0.95,155.8,M,-34.4,M,,*5A
lng=-77.437751, lat=43.138378, altitude=155.70, speed=2.26, satellites=9, angle=6.0700, fixquality=1
$GPRMC,154956.600,A,4308.3032,N,07726.2652,W,2.17,5.11,030319,,,A*73
$GPGGA,154956.800,4308.3033,N,07726.2652,W,1,08,1.12,156.0,M,-34.4,M,,*51
lng=-77.437751, lat=43.138385, altitude=155.80, speed=2.17, satellites=9, angle=5.1100, fixquality=1
$GPRMC,154957.000,A,4308.3035,N,07726.2652,W,2.32,6.52,030319,,,A*70
$GPGGA,154957.200,4308.3036,N,07726.2652,W,1,09,0.95,156.0,M,-34.4,M,,*50
lng=-77.437751, lat=43.138393, altitude=156.00, speed=2.32, satellites=8, angle=6.5200, fixquality=1
$GPRMC,154957.400,A,4308.3037,N,07726.2652,W,2.22,4.78,030319,,,A*7D
$GPGGA,154957.600,4308.3039,N,07726.2652,W,1,08,1.12,156.2,M,-34.4,M,,*56
lng=-77.437751, lat=43.138393, altitude=156.00, speed=2.22, satellites=9, angle=4.7800, fixquality=1
$GPRMC,154957.800,A,4308.3040,N,07726.2651,W,2.31,7.14,030319,,,A*79
$GPGGA,154958.000,4308.3042,N,07726.2651,W,1,09,0.95,156.1,M,-34.4,M,,*5C
lng=-77.437751, lat=43.138404, altitude=156.20, speed=2.31, satellites=8, angle=7.1400, fixquality=1
$GPRMC,154958.200,A,4308.3043,N,07726.2651,W,2.45,6.67,030319,,,A*79
$GPGGA,154958.400,4308.3045,N,07726.2651,W,1,09,0.95,156.2,M,-34.4,M,,*5C
lng=-77.437751, lat=43.138404, altitude=156.10, speed=2.45, satellites=9, angle=6.6700, fixquality=1
$GPRMC,154958.600,A,4308.3046,N,07726.2651,W,2.47,6.77,030319,,,A*7B
$GPGGA,154958.800,4308.3048,N,07726.2650,W,1,08,1.12,156.3,M,-34.4,M,,*52
lng=-77.437751, lat=43.138412, altitude=156.20, speed=2.47, satellites=9, angle=6.7700, fixquality=1
$GPRMC,154959.000,A,4308.3049,N,07726.2650,W,2.57,9.53,030319,,,A*7A
$GPGGA,154959.200,4308.3051,N,07726.2650,W,1,09,0.95,156.3,M,-34.4,M,,*5E
lng=-77.437751, lat=43.138412, altitude=156.30, speed=2.57, satellites=8, angle=9.5300, fixquality=1
$GPRMC,154959.400,A,4308.3052,N,07726.2649,W,2.37,9.54,030319,,,A*7D
$GPGGA,154959.600,4308.3054,N,07726.2649,W,1,09,0.95,156.2,M,-34.4,M,,*56
lng=-77.437751, lat=43.138420, altitude=156.30, speed=2.37, satellites=9, angle=9.5400, fixquality=1
$GPRMC,154959.800,A,4308.3055,N,07726.2648,W,1.83,11.72,030319,,,A*46
$GPGGA,155000.000,4308.3055,N,07726.2648,W,1,09,0.95,156.0,M,-34.4,M,,*56
lng=-77.437744, lat=43.138427, altitude=156.20, speed=1.83, satellites=9, angle=11.7200, fixquality=1
$GPRMC,155000.200,A,4308.3056,N,07726.2648,W,1.04,9.50,030319,,,A*7D
$GPGGA,155000.400,4308.3057,N,07726.2647,W,1,09,0.95,156.1,M,-34.4,M,,*5E
lng=-77.437744, lat=43.138427, altitude=156.00, speed=1.04, satellites=9, angle=9.5000, fixquality=1
$GPRMC,155000.600,A,4308.3057,N,07726.2647,W,0.35,10.38,030319,,,A*42
$GPGGA,155000.800,4308.3058,N,07726.2647,W,1,09,0.95,156.3,M,-34.4,M,,*5F
lng=-77.437744, lat=43.138427, altitude=156.10, speed=0.35, satellites=9, angle=10.3800, fixquality=1
$GPRMC,155001.000,A,4308.3058,N,07726.2647,W,0.06,357.81,030319,,,A*78
$GPGGA,155001.200,4308.3058,N,07726.2646,W,1,09,0.95,156.3,M,-34.4,M,,*55
lng=-77.437744, lat=43.138427, altitude=156.30, speed=0.06, satellites=9, angle=357.8100, fixquality=1
$GPRMC,155001.400,A,4308.3058,N,07726.2646,W,0.00,266.35,030319,,,A*77
$GPGGA,155001.600,4308.3058,N,07726.2646,W,1,09,0.93,156.2,M,-34.4,M,,*56
lng=-77.437744, lat=43.138427, altitude=156.30, speed=0.00, satellites=9, angle=266.3500, fixquality=1
$GPRMC,155001.800,A,4308.3058,N,07726.2646,W,0.02,35.76,030319,,,A*4A
$GPGGA,155002.000,4308.3058,N,07726.2645,W,1,09,0.93,156.1,M,-34.4,M,,*53
lng=-77.437744, lat=43.138427, altitude=156.20, speed=0.02, satellites=9, angle=35.7600, fixquality=1
$GPRMC,155002.200,A,4308.3058,N,07726.2645,W,0.02,58.44,030319,,,A*4A
$GPGGA,155002.400,4308.3059,N,07726.2645,W,1,09,0.93,156.0,M,-34.4,M,,*57
lng=-77.437744, lat=43.138427, altitude=156.10, speed=0.02, satellites=9, angle=58.4400, fixquality=1
$GPRMC,155002.600,A,4308.3058,N,07726.2645,W,0.01,58.25,030319,,,A*4A
$GPGGA,155002.800,4308.3058,N,07726.2645,W,1,09,0.93,155.8,M,-34.4,M,,*51
lng=-77.437744, lat=43.138427, altitude=156.00, speed=0.01, satellites=9, angle=58.2500, fixquality=1
$GPRMC,155003.000,A,4308.3058,N,07726.2644,W,0.01,61.90,030319,,,A*48
$GPGGA,155003.200,4308.3058,N,07726.2644,W,1,09,0.93,155.6,M,-34.4,M,,*55
lng=-77.437736, lat=43.138427, altitude=155.80, speed=0.01, satellites=9, angle=61.9000, fixquality=1
$GPRMC,155003.400,A,4308.3058,N,07726.2644,W,0.00,106.51,030319,,,A*70
$GPGGA,155003.600,4308.3058,N,07726.2644,W,1,09,0.93,155.4,M,-34.4,M,,*53
lng=-77.437736, lat=43.138427, altitude=155.60, speed=0.00, satellites=9, angle=106.5100, fixquality=1
$GPRMC,155003.800,A,4308.3058,N,07726.2644,W,0.01,85.16,030319,,,A*44
$GPGGA,155004.000,4308.3058,N,07726.2644,W,1,09,0.93,155.3,M,-34.4,M,,*55
lng=-77.437736, lat=43.138427, altitude=155.40, speed=0.01, satellites=9, angle=85.1600, fixquality=1
$GPRMC,155004.200,A,4308.3058,N,07726.2644,W,0.02,312.71,030319,,,A*76
$GPGGA,155004.400,4308.3058,N,07726.2644,W,1,09,0.93,155.3,M,-34.4,M,,*51
lng=-77.437736, lat=43.138427, altitude=155.30, speed=0.02, satellites=9, angle=312.7100, fixquality=1
$GPRMC,155004.600,A,4308.3058,N,07726.2644,W,0.02,357.51,030319,,,A*71
$GPGGA,155004.800,4308.3058,N,07726.2644,W,1,09,0.95,155.3,M,-34.4,M,,*5B
lng=-77.437736, lat=43.138427, altitude=155.30, speed=0.02, satellites=9, angle=357.5100, fixquality=1
$GPRMC,155005.000,A,4308.3058,N,07726.2644,W,0.01,41.71,030319,,,A*43
$GPGGA,155005.200,4308.3058,N,07726.2644,W,1,09,0.93,155.3,M,-34.4,M,,*56
lng=-77.437736, lat=43.138427, altitude=155.30, speed=0.01, satellites=9, angle=41.7100, fixquality=1
$GPRMC,155005.400,A,4308.3058,N,07726.2644,W,0.01,33.23,030319,,,A*45
$GPGGA,155005.600,4308.3058,N,07726.2644,W,1,09,0.93,155.3,M,-34.4,M,,*52
lng=-77.437736, lat=43.138427, altitude=155.30, speed=0.01, satellites=9, angle=33.2300, fixquality=1
$GPRMC,155005.800,A,4308.3058,N,07726.2644,W,0.00,0.00,030319,,,A*79
$GPGGA,155006.000,4308.3058,N,07726.2644,W,1,09,0.95,155.3,M,-34.4,M,,*51
lng=-77.437736, lat=43.138427, altitude=155.30, speed=0.00, satellites=9, angle=0.0000, fixquality=1
$GPRMC,155006.200,A,4308.3058,N,07726.2644,W,0.01,97.57,030319,,,A*4D
$GPGGA,155006.400,4308.3058,N,07726.2644,W,1,09,0.93,155.3,M,-34.4,M,,*53
lng=-77.437736, lat=43.138427, altitude=155.30, speed=0.01, satellites=9, angle=97.5700, fixquality=1
$GPRMC,155006.600,A,4308.3058,N,07726.2644,W,0.02,217.07,030319,,,A*75
$GPGGA,155006.800,4308.3058,N,07726.2644,W,1,09,0.93,155.3,M,-34.4,M,,*5F
lng=-77.437736, lat=43.138427, altitude=155.30, speed=0.02, satellites=9, angle=217.0700, fixquality=1
$GPRMC,155007.000,A,4308.3058,N,07726.2644,W,0.02,358.32,030319,,,A*7E
$GPGGA,155007.200,4308.3058,N,07726.2644,W,1,09,0.95,155.3,M,-34.4,M,,*52
lng=-77.437736, lat=43.138427, altitude=155.30, speed=0.02, satellites=9, angle=358.3200, fixquality=1
$GPRMC,155007.400,A,4308.3058,N,07726.2644,W,0.01,247.63,030319,,,A*72
$GPGGA,155007.600,4308.3058,N,07726.2644,W,1,09,0.93,155.3,M,-34.4,M,,*50
lng=-77.437736, lat=43.138427, altitude=155.30, speed=0.01, satellites=9, angle=247.6300, fixquality=1
$GPRMC,155007.800,A,4308.3058,N,07726.2644,W,0.01,25.73,030319,,,A*49
$GPGGA,155008.000,4308.3058,N,07726.2644,W,1,09,0.93,155.3,M,-34.4,M,,*59
lng=-77.437736, lat=43.138427, altitude=155.30, speed=0.01, satellites=9, angle=25.7300, fixquality=1
$GPRMC,155008.200,A,4308.3058,N,07726.2644,W,0.02,244.85,030319,,,A*73
$GPGGA,155008.400,4308.3058,N,07726.2644,W,1,09,0.93,155.3,M,-34.4,M,,*5D
lng=-77.437736, lat=43.138427, altitude=155.30, speed=0.02, satellites=9, angle=244.8500, fixquality=1
$GPRMC,155008.600,A,4308.3058,N,07726.2644,W,0.01,338.44,030319,,,A*73
$GPGGA,155008.800,4308.3058,N,07726.2644,W,1,09,0.93,155.2,M,-34.4,M,,*50
lng=-77.437736, lat=43.138427, altitude=155.30, speed=0.01, satellites=9, angle=338.4400, fixquality=1
$GPRMC,155009.000,A,4308.3058,N,07726.2644,W,0.01,240.41,030319,,,A*7F
$GPGGA,155009.200,4308.3058,N,07726.2644,W,1,09,0.93,155.2,M,-34.4,M,,*5B
lng=-77.437736, lat=43.138427, altitude=155.20, speed=0.01, satellites=9, angle=240.4100, fixquality=1
$GPRMC,155009.400,A,4308.3058,N,07726.2644,W,0.00,136.95,030319,,,A*71
$GPGGA,155009.600,4308.3058,N,07726.2644,W,1,09,0.93,155.2,M,-34.4,M,,*5F
lng=-77.437736, lat=43.138427, altitude=155.20, speed=0.00, satellites=9, angle=136.9500, fixquality=1
$GPRMC,155009.800,A,4308.3058,N,07726.2644,W,0.02,23.37,030319,,,A*42
$GPGGA,155010.000,4308.3058,N,07726.2644,W,1,09,0.93,155.2,M,-34.4,M,,*51
lng=-77.437736, lat=43.138427, altitude=155.20, speed=0.02, satellites=9, angle=23.3700, fixquality=1
$GPRMC,155010.200,A,4308.3058,N,07726.2644,W,0.00,178.78,030319,,,A*76
$GPGGA,155010.400,4308.3058,N,07726.2644,W,1,09,0.93,155.2,M,-34.4,M,,*55
lng=-77.437736, lat=43.138427, altitude=155.20, speed=0.00, satellites=9, angle=178.7800, fixquality=1
$GPRMC,155010.600,A,4308.3058,N,07726.2644,W,0.02,248.27,030319,,,A*7A
$GPGGA,155010.800,4308.3058,N,07726.2644,W,1,09,0.93,155.2,M,-34.4,M,,*59
lng=-77.437736, lat=43.138427, altitude=155.20, speed=0.02, satellites=9, angle=248.2700, fixquality=1
$GPRMC,155011.000,A,4308.3058,N,07726.2644,W,0.01,52.13,030319,,,A*40
$GPGGA,155011.200,4308.3058,N,07726.2644,W,1,09,0.93,155.2,M,-34.4,M,,*52
lng=-77.437736, lat=43.138427, altitude=155.20, speed=0.01, satellites=9, angle=52.1300, fixquality=1
$GPRMC,155011.400,A,4308.3058,N,07726.2644,W,0.02,291.81,030319,,,A*71
$GPGGA,155011.600,4308.3058,N,07726.2644,W,1,09,0.93,155.2,M,-34.4,M,,*56
lng=-77.437736, lat=43.138427, altitude=155.20, speed=0.02, satellites=9, angle=291.8100, fixquality=1
$GPRMC,155011.800,A,4308.3058,N,07726.2644,W,0.03,177.18,030319,,,A*77
$GPGGA,155012.000,4308.3058,N,07726.2644,W,1,09,0.93,155.2,M,-34.4,M,,*53
lng=-77.437736, lat=43.138427, altitude=155.20, speed=0.03, satellites=9, angle=177.1800, fixquality=1
$GPRMC,155012.200,A,4308.3058,N,07726.2644,W,0.02,23.48,030319,,,A*4A
$GPGGA,155012.400,4308.3058,N,07726.2644,W,1,09,0.93,155.2,M,-34.4,M,,*57
lng=-77.437736, lat=43.138427, altitude=155.20, speed=0.02, satellites=9, angle=23.4800, fixquality=1
$GPRMC,155012.600,A,4308.3058,N,07726.2644,W,0.01,90.88,030319,,,A*49
$GPGGA,155012.800,4308.3058,N,07726.2644,W,1,09,0.95,155.2,M,-34.4,M,,*5D
lng=-77.437736, lat=43.138427, altitude=155.20, speed=0.01, satellites=9, angle=90.8800, fixquality=1
$GPRMC,155013.000,A,4308.3058,N,07726.2644,W,0.01,79.86,030319,,,A*47
$GPGGA,155013.200,4308.3058,N,07726.2644,W,1,09,0.95,155.2,M,-34.4,M,,*56
lng=-77.437736, lat=43.138427, altitude=155.20, speed=0.01, satellites=9, angle=79.8600, fixquality=1
$GPRMC,155013.400,A,4308.3058,N,07726.2644,W,0.00,294.77,030319,,,A*7D
$GPGGA,155013.600,4308.3058,N,07726.2644,W,1,09,0.95,155.2,M,-34.4,M,,*52
lng=-77.437736, lat=43.138427, altitude=155.20, speed=0.00, satellites=9, angle=294.7700, fixquality=1
$GPRMC,155013.800,A,4308.3058,N,07726.2644,W,0.00,188.00,030319,,,A*7F
$GPGGA,155014.000,4308.3058,N,07726.2644,W,1,09,0.95,155.2,M,-34.4,M,,*53
lng=-77.437736, lat=43.138427, altitude=155.20, speed=0.00, satellites=9, angle=188.0000, fixquality=1
$GPRMC,155014.200,A,4308.3058,N,07726.2644,W,0.00,134.38,030319,,,A*7E
$GPGGA,155014.400,4308.3058,N,07726.2644,W,1,09,0.95,155.2,M,-34.4,M,,*57
lng=-77.437736, lat=43.138427, altitude=155.20, speed=0.00, satellites=9, angle=134.3800, fixquality=1
$GPRMC,155014.600,A,4308.3058,N,07726.2644,W,0.01,75.19,030319,,,A*4C
$GPGGA,155014.800,4308.3058,N,07726.2644,W,1,09,0.95,155.2,M,-34.4,M,,*5B
lng=-77.437736, lat=43.138427, altitude=155.20, speed=0.01, satellites=9, angle=75.1900, fixquality=1
$GPRMC,155015.000,A,4308.3058,N,07726.2644,W,0.00,39.51,030319,,,A*4E
$GPGGA,155015.200,4308.3058,N,07726.2644,W,1,09,0.95,155.2,M,-34.4,M,,*50
lng=-77.437736, lat=43.138427, altitude=155.20, speed=0.00, satellites=9, angle=39.5100, fixquality=1
$GPRMC,155015.400,A,4308.3058,N,07726.2644,W,0.00,0.00,030319,,,A*74
$GPGGA,155015.600,4308.3058,N,07726.2644,W,1,09,0.95,155.2,M,-34.4,M,,*54
lng=-77.437736, lat=43.138427, altitude=155.20, speed=0.00, satellites=9, angle=0.0000, fixquality=1
$GPRMC,155015.800,A,4308.3058,N,07726.2644,W,0.00,206.81,030319,,,A*75
$GPGGA,155016.000,4308.3058,N,07726.2644,W,1,09,0.95,155.2,M,-34.4,M,,*51
lng=-77.437736, lat=43.138427, altitude=155.20, speed=0.00, satellites=9, angle=206.8100, fixquality=1
$GPRMC,155016.200,A,4308.3058,N,07726.2644,W,0.00,164.29,030319,,,A*79
$GPGGA,155016.400,4308.3058,N,07726.2644,W,1,09,0.95,155.2,M,-34.4,M,,*55
lng=-77.437736, lat=43.138427, altitude=155.20, speed=0.00, satellites=9, angle=164.2900, fixquality=1
$GPRMC,155016.600,A,4308.3058,N,07726.2644,W,0.00,175.02,030319,,,A*74
$GPGGA,155016.800,4308.3058,N,07726.2644,W,1,09,0.95,155.2,M,-34.4,M,,*59
lng=-77.437736, lat=43.138427, altitude=155.20, speed=0.00, satellites=9, angle=175.0200, fixquality=1
$GPRMC,155017.000,A,4308.3058,N,07726.2644,W,0.00,237.24,030319,,,A*72
$GPGGA,155017.200,4308.3058,N,07726.2644,W,1,09,0.95,155.2,M,-34.4,M,,*52
lng=-77.437736, lat=43.138427, altitude=155.20, speed=0.00, satellites=9, angle=237.2400, fixquality=1
$GPRMC,155017.400,A,4308.3058,N,07726.2644,W,0.00,325.70,030319,,,A*75
$GPGGA,155017.600,4308.3058,N,07726.2644,W,1,09,0.95,155.2,M,-34.4,M,,*56
lng=-77.437736, lat=43.138427, altitude=155.20, speed=0.00, satellites=9, angle=325.7000, fixquality=1
$GPRMC,155017.800,A,4308.3058,N,07726.2644,W,0.00,17.91,030319,,,A*44
$GPGGA,155018.000,4308.3058,N,07726.2644,W,1,09,0.95,155.2,M,-34.4,M,,*5F
lng=-77.437736, lat=43.138427, altitude=155.20, speed=0.00, satellites=9, angle=17.9100, fixquality=1
$GPRMC,155018.200,A,4308.3058,N,07726.2644,W,0.01,110.35,030319,,,A*78
$GPGGA,155018.400,4308.3058,N,07726.2644,W,1,09,0.95,155.2,M,-34.4,M,,*5B
lng=-77.437736, lat=43.138427, altitude=155.20, speed=0.01, satellites=9, angle=110.3500, fixquality=1
$GPRMC,155018.600,A,4308.3058,N,07726.2644,W,0.00,264.72,030319,,,A*7E
$GPGGA,155018.800,4308.3058,N,07726.2644,W,1,09,0.95,155.2,M,-34.4,M,,*57
lng=-77.437736, lat=43.138427, altitude=155.20, speed=0.00, satellites=9, angle=264.7200, fixquality=1
$GPRMC,155019.000,A,4308.3058,N,07726.2644,W,0.00,42.02,030319,,,A*48
$GPGGA,155019.200,4308.3058,N,07726.2644,W,1,09,0.95,155.2,M,-34.4,M,,*5C
lng=-77.437736, lat=43.138427, altitude=155.20, speed=0.00, satellites=9, angle=42.0200, fixquality=1
$GPRMC,155019.400,A,4308.3058,N,07726.2644,W,0.00,27.55,030319,,,A*4D
$GPGGA,155019.600,4308.3058,N,07726.2644,W,1,09,0.95,155.2,M,-34.4,M,,*58
lng=-77.437736, lat=43.138427, altitude=155.20, speed=0.00, satellites=9, angle=27.5500, fixquality=1
$GPRMC,155019.800,A,4308.3058,N,07726.2644,W,0.00,224.17,030319,,,A*76
$GPGGA,155020.000,4308.3058,N,07726.2644,W,1,09,0.95,155.2,M,-34.4,M,,*54
lng=-77.437736, lat=43.138427, altitude=155.20, speed=0.00, satellites=9, angle=224.1700, fixquality=1
$GPRMC,155020.200,A,4308.3058,N,07726.2644,W,0.00,18.14,030319,,,A*48
$GPGGA,155020.400,4308.3058,N,07726.2644,W,1,09,0.95,155.2,M,-34.4,M,,*50
lng=-77.437736, lat=43.138427, altitude=155.20, speed=0.00, satellites=9, angle=18.1400, fixquality=1
$GPRMC,155020.600,A,4308.3058,N,07726.2644,W,0.00,342.71,030319,,,A*73
$GPGGA,155020.800,4308.3058,N,07726.2644,W,1,09,0.95,155.2,M,-34.4,M,,*5C
lng=-77.437736, lat=43.138427, altitude=155.20, speed=0.00, satellites=9, angle=342.7100, fixquality=1
$GPRMC,155021.000,A,4308.3058,N,07726.2644,W,0.00,34.91,030319,,,A*48
$GPGGA,155021.200,4308.3058,N,07726.2644,W,1,09,0.95,155.2,M,-34.4,M,,*57
